{"10420000125342":{"id":"10420000125342","name":"โค้วยู่ฮะเลยบริการ (1989)","owner":"บริษัท โค้วยู่ฮะมอเตอร์ จำกัด สาขาเลย","displayRegistration":"3-95(1)-1/34ลย","province":"เลย","district":"เมืองเลย","subdistrict":"กุดป่อง","industryType":"ซ่อมรถยนต์","status":"ดำเนินกิจการ","lat":17.473433,"lon":101.723815},"10420000225357":{"id":"10420000225357","name":"-","owner":"นายมนตรี เครือทองศรี","displayRegistration":"3-9(6)-2/35ลย","province":"เลย","district":"เชียงคาน","subdistrict":"นาซ่าว","industryType":"ทำมันเส้น","status":"ดำเนินกิจการ","lat":17.79493,"lon":101.67715},"10420000225191":{"id":"10420000225191","name":"ห้างหุ้นส่วนจำกัด โรงงานเจริญเฟอร์นิเจอร์","owner":"ห้างหุ้นส่วนจำกัด โรงงานเจริญเฟอร์นิเจอร์","displayRegistration":"3-34(2)-2/19ลย","province":"เลย","district":"เชียงคาน","subdistrict":"เชียงคาน","industryType":"ทำบานประตู-หน้าต่าง ลูกกรงไม้และทำเฟอร์นิเจอร์","status":"ดำเนินกิจการ","lat":17.88823,"lon":101.65354},"00420000125351":{"id":"00420000125351","name":"เชียงคานพูนกิจ","owner":"นายวรรณชัย ด่านพูนกิจ","displayRegistration":"ศ3-14-1/35ลย","province":"เลย","district":"เชียงคาน","subdistrict":"เชียงคาน","industryType":"ทำน้ำแข็งก้อนเล็กและน้ำดื่ม","status":"ดำเนินกิจการ","lat":17.89335,"lon":101.65397},"10420000125326":{"id":"10420000125326","name":"บริษัท ภูกระดึงส่งเสริมการเกษตร (1990) จำกัด","owner":"บริษัท ภูกระดึงส่งเสริมการเกษตร (1990) จำกัด","displayRegistration":"3-8(1)-1/32ลย","province":"เลย","district":"ภูกระดึง","subdistrict":"ผานกเค้า","industryType":"ทำอาหารบรรจุกระป๋อง เช่น หน่อไม้ ข้าวโพดอ่อน หอยทาก","status":"ดำเนินกิจการ","lat":16.8537517765408,"lon":101.925659179688},"10420100125309":{"id":"10420100125309","name":"ห้างหุ้นส่วนจำกัด โรงงานเจริญเฟอร์นิเจอร์","owner":"ห้างหุ้นส่วนจำกัด โรงงานเจริญเฟอร์นิเจอร์","displayRegistration":"3-34(1)-1/30ลย","province":"เลย","district":"เชียงคาน","subdistrict":"เชียงคาน","industryType":"ไสไม้ เซาะร่องรางลิ้น อาบน้ำยาและอบไม้","status":"ดำเนินกิจการ","lat":17.8881,"lon":101.65362},"10420000125375":{"id":"10420000125375","name":"บริษัท ซี.พี.เค.อินเตอร์เนชั่นแนล จำกัด","owner":"บริษัท ซี.พี.เค.อินเตอร์เนชั่นแนล จำกัด","displayRegistration":"3-18-1/37ลย","province":"เลย","district":"ภูเรือ","subdistrict":"ร่องจิก","industryType":"ผลิตไวน์จากองุ่นได้ประมาณวันละ 4,000 ลิตร ผลิตสุรากลั่นชนิดสุราขาว สุราผสม สุราปรุงพิเศษและสุราพิเศษ","status":"ดำเนินกิจการ","lat":17.40042,"lon":101.28916},"10420000125227":{"id":"10420000125227","name":"ห้างหุ้นส่วนสามัญนิติบุคคล โรงสีไฟไทยเจริญกิจ (เลย)","owner":"ห้างหุ้นส่วนสามัญนิติบุคคล โรงสีไฟไทยเจริญกิจ (เลย)","displayRegistration":"3-9(1)-1/22ลย","province":"เลย","district":"วังสะพุง","subdistrict":"วังสะพุง","industryType":"สีข้าวชนิดแยกแกลบแยกรำ กำลังสีสูงสุดของร้านสีข้าว 16 เกวียน/วัน","status":"ดำเนินกิจการ","lat":17.31632,"lon":101.76263},"10420000125284":{"id":"10420000125284","name":"โรงน้ำแข็งศิริมงคล","owner":"ห้างหุ้นส่วนจำกัด ไทยอุดม 1991","displayRegistration":"3-14-1/28ลย","province":"เลย","district":"วังสะพุง","subdistrict":"วังสะพุง","industryType":"ผลิตน้ำแข็งซอง ได้วันละ 300 ซอง ขยายเพิ่มการผลิตน้ำแข็งก้อนเล็กได้วันละ 20 ตัน และขอเพิ่มกำลังการผลิตอีก 30 ตันต่อวัน","status":"ดำเนินกิจการ","lat":17.32429,"lon":101.76131},"10420000125151":{"id":"10420000125151","name":"โรงน้ำแข็งไทยอุดมพานิช","owner":"ห้างหุ้นส่วนจำกัด ไทยอุดม 1991","displayRegistration":"3-14-1/15ลย","province":"เลย","district":"เมืองเลย","subdistrict":"กุดป่อง","industryType":"ทำน้ำแข็ง ได้วันละ 272 ซอง และทำน้ำแข็งก้อนเล็กได้วันละ 27.2 ตัน","status":"ดำเนินกิจการ","lat":17.50174,"lon":101.73174},"10420000125318":{"id":"10420000125318","name":"เอราวัณพืชผล","owner":"นายปวริศร์ อธิกุลวรรธน์","displayRegistration":"3-9(6)-1/31ลย","province":"เลย","district":"เอราวัณ","subdistrict":"ผาอินทร์แปลง","industryType":"ทำมันเส้นได้เดือนละ 300 ตัน","status":"ดำเนินกิจการ","lat":17.3029,"lon":101.96799},"10420000325355":{"id":"10420000325355","name":"สหชัย","owner":"นายเหม่นชัย เอราวัณ","displayRegistration":"3-9(6)-3/35ลย","province":"เลย","district":"หนองหิน","subdistrict":"หนองหิน","industryType":"ทำมันเส้น","status":"ดำเนินกิจการ","lat":17.05153,"lon":101.86781},"10420000125300":{"id":"10420000125300","name":"บริษัท อรพินก่อสร้าง จำกัด","owner":"บริษัท อรพินก่อสร้าง จำกัด","displayRegistration":"3-3(1)-1/30ลย","province":"เลย","district":"ภูกระดึง","subdistrict":"ผานกเค้า","industryType":"โม่ บด ย่อยหิน","status":"ดำเนินกิจการ","lat":16.85275,"lon":101.932},"20420200125397":{"id":"20420200125397","name":"บริษัท อุดร ช.ทวี จำกัด","owner":"บริษัท อุดร ช.ทวี จำกัด","displayRegistration":"จ3-95(1)-1/39ลย","province":"เลย","district":"เมืองเลย","subdistrict":"นาอาน","industryType":"ซ่อมและเคาะพ่นสีรถยนต์","status":"ดำเนินกิจการ","lat":17.44164,"lon":101.72791},"20420100125398":{"id":"20420100125398","name":"พรไพศาล","owner":"นายพิชิต เพชรพรไพศาล","displayRegistration":"จ3-53(9)-1/39ลย","province":"เลย","district":"เมืองเลย","subdistrict":"กุดป่อง","industryType":"ย่อยพลาสติกและอัดกระดาษ","status":"ดำเนินกิจการ","lat":17.507443,"lon":101.731584},"20420000125399":{"id":"20420000125399","name":"ท่าทรายน้ำโขง","owner":"นางสาวนรีนุช แสงเจริญรัตน์","displayRegistration":"จ3-3(4)-1/39ลย","province":"เลย","district":"เชียงคาน","subdistrict":"ปากตม","industryType":"ขุดรอกทรายแม่น้ำโขงและดูดทรายแม่น้ำโขง","status":"ดำเนินกิจการ","lat":17.86465,"lon":101.57513},"20420000125407":{"id":"20420000125407","name":"ทรายเงินไทย","owner":"นางสาววิรัตน์ ศิลธรรม","displayRegistration":"จ3-3(4)-1/40ลย","province":"เลย","district":"เมืองเลย","subdistrict":"ศรีสองรัก","industryType":"ดูดทราย","status":"ดำเนินกิจการ","lat":17.648225,"lon":101.745587},"20420100125414":{"id":"20420100125414","name":"บริษัท จ.เจริญมาร์เก็ตติ้ง จำกัด","owner":"บริษัท จ.เจริญมาร์เก็ตติ้ง จำกัด","displayRegistration":"จ3-9(6)-1/41ลย","province":"เลย","district":"เชียงคาน","subdistrict":"ธาตุ","industryType":"ทำมันเส้น","status":"ดำเนินกิจการ","lat":17.696329,"lon":101.74036},"20420000825402":{"id":"20420000825402","name":"บริษัท เมืองเลยฮอนด้าคาร์ส์ จำกัด","owner":"บริษัท เมืองเลยฮอนด้าคาร์ส์ จำกัด","displayRegistration":"จ3-95(1)-8/40ลย","province":"เลย","district":"เมืองเลย","subdistrict":"นาโป่ง","industryType":"ซ่อมและเคาะพ่นสีรถยนต์","status":"ดำเนินกิจการ","lat":17.42644,"lon":101.72501},"20420000125415":{"id":"20420000125415","name":"ยงสวัสดิ์พืชผล","owner":"บริษัท ยงสวัสดิ์พืชผลวังสะพุง จำกัด","displayRegistration":"จ3-2(2)-1/41ลย","province":"เลย","district":"วังสะพุง","subdistrict":"วังสะพุง","industryType":"สีลูกเดือย","status":"ดำเนินกิจการ","lat":17.29174,"lon":101.76408},"20420100225438":{"id":"20420100225438","name":"ชัชวาลย์พืชผล","owner":"นายรังษี ชัชวาลย์","displayRegistration":"จ3-9(6)-2/43ลย","province":"เลย","district":"เมืองเลย","subdistrict":"นาอ้อ","industryType":"ทำมันเส้น","status":"ดำเนินกิจการ","lat":17.58667,"lon":101.72749},"20420000725438":{"id":"20420000725438","name":"-","owner":"นายฉัตรชัย นนท์คำจันทร์","displayRegistration":"จ3-9(6)-7/43ลย","province":"เลย","district":"ภูกระดึง","subdistrict":"ห้วยส้ม","industryType":"ทำมันเส้น","status":"ดำเนินกิจการ","lat":16.97037,"lon":101.9188},"20420000225439":{"id":"20420000225439","name":"บริษัท โกลด์ ฟิงเกอร์ โปรดิวซ์ จำกัด","owner":"บริษัท โกลด์ ฟิงเกอร์ โปรดิวซ์ จำกัด","displayRegistration":"จ3-2(9)-2/43ลย","province":"เลย","district":"ด่านซ้าย","subdistrict":"โพนสูง","industryType":"ล้าง คัดคุณภาพของผลิตผลเกษตรกรรม และห้องเย็น ถนอมพืชผัก หรือผลไม้","status":"ดำเนินกิจการ","lat":17.34048,"lon":101.24366},"20420100125430":{"id":"20420100125430","name":"วรินยุพา","owner":"นางปรียนันท์ ปฐมไชยนันท์","displayRegistration":"จ3-2(9)-1/43ลย","province":"เลย","district":"ด่านซ้าย","subdistrict":"โคกงาม","industryType":"ล้าง แยกขนาดและคัดคุณภาพขิง","status":"ดำเนินกิจการ","lat":17.35719,"lon":101.24358},"10420000125433":{"id":"10420000125433","name":"บริษัท ทีเอฟเอมเอสฟู้ดส์ จำกัด","owner":"บริษัท ทีเอฟเอมเอสฟู้ดส์ จำกัด","displayRegistration":"3-5(1)-1/43ลย","province":"เลย","district":"วังสะพุง","subdistrict":"โคกขมิ้น","industryType":"ผลิตผลิตภัณฑ์นมพร้อมดื่ม ได้ปีละ 7,000 ตัน","status":"ดำเนินกิจการ","lat":17.17939,"lon":101.84827},"20420100125448":{"id":"20420100125448","name":"ห้างหุ้นส่วนจำกัด ภูหลวงเกษตรรุ่งเรือง (1992)","owner":"ห้างหุ้นส่วนจำกัด ภูหลวงเกษตรรุ่งเรือง (1992)","displayRegistration":"จ3-9(6)-1/44ลย","province":"เลย","district":"วังสะพุง","subdistrict":"เขาหลวง","industryType":"ทำมันเส้น","status":"หยุดชั่วคราว","lat":17.29158,"lon":101.60677},"20420000125449":{"id":"20420000125449","name":"ห้างหุ้นส่วนจำกัด เมืองเลยจันทร์พานิช (2000)","owner":"ห้างหุ้นส่วนจำกัด เมืองเลยจันทร์พานิช (2000)","displayRegistration":"จ3-2(5)-1/44ลย","province":"เลย","district":"ท่าลี่","subdistrict":"หนองผือ","industryType":"เก็บรักษา คัดหรือแยกคุณภาพของผลิตผลจากเกษตรกรรม","status":"ดำเนินกิจการ","lat":17.701282,"lon":101.41229},"20420100125406":{"id":"20420100125406","name":"ประเสริฐอิฐมอญ","owner":"นายประเสริฐ เพียรไทย","displayRegistration":"จ3-56-1/40ลย","province":"เลย","district":"เมืองเลย","subdistrict":"นาโป่ง","industryType":"ทำอิฐดินเผา","status":"ดำเนินกิจการ","lat":17.4226,"lon":101.71371},"20420100225404":{"id":"20420100225404","name":"ส.รุ่งทรัพย์อิฐมอญ","owner":"นายสมาน พันจั่น","displayRegistration":"จ3-56-2/40ลย","province":"เลย","district":"เมืองเลย","subdistrict":"นาโป่ง","industryType":"ทำอิฐดินเผา","status":"ดำเนินกิจการ","lat":17.42363,"lon":101.71258},"20420200125454":{"id":"20420200125454","name":"ชูชาติฟาร์ม","owner":"นายชูเกียรติ์ ตั้งชีวินศิริกูล","displayRegistration":"จ3-9(3)-1/45ลย","province":"เลย","district":"วังสะพุง","subdistrict":"ศรีสงคราม","industryType":"บดเมล็ดข้าวโพดสำหรับผสมอาหารสัตว์เลี้ยง","status":"ดำเนินกิจการ","lat":17.2878,"lon":101.77367},"20420100125455":{"id":"20420100125455","name":"บริษัท น้ำมันหอมภูเรือ จำกัด","owner":"บริษัท น้ำมันหอมภูเรือ จำกัด","displayRegistration":"จ3-7(1)-1/45ลย","province":"เลย","district":"ภูเรือ","subdistrict":"ร่องจิก","industryType":"สกัดน้ำมันหอมจากพืช","status":"ดำเนินกิจการ","lat":17.40042,"lon":101.28916},"20420000125456":{"id":"20420000125456","name":"ท่าทรายเทพประทาน 2000","owner":"นายไพรัชน์ เรืองกิตติโกศล","displayRegistration":"จ3-3(2)-1/45ลย","province":"เลย","district":"เชียงคาน","subdistrict":"ปากตม","industryType":"ขุดลอกทรายแม่น้ำโขง และดูดทรายแม่น้ำโขง","status":"ดำเนินกิจการ","lat":17.854,"lon":101.58121},"20420000925459":{"id":"20420000925459","name":"ทรายเงินไทย","owner":"นางสาววิรัตน์ ศิลธรรม","displayRegistration":"จ3-3(2)-9/45ลย","province":"เลย","district":"เชียงคาน","subdistrict":"ปากตม","industryType":"ขุดลอกทรายแม่น้ำโขง","status":"ดำเนินกิจการ","lat":17.851528,"lon":101.58277},"20420000225454":{"id":"20420000225454","name":"NULL","owner":"นายสาโรช วรรณวิเชษฐ์","displayRegistration":"จ3-3(2)-2/45ลย","province":"เลย","district":"เชียงคาน","subdistrict":"ปากตม","industryType":"ขุดลอกทรายแม่น้ำโขง ดูดทรายแม่น้ำโขง","status":"ดำเนินกิจการ","lat":17.86395,"lon":101.5778},"20420000425443":{"id":"20420000425443","name":"บริษัท โตโยต้าเมืองเลย จำกัด","owner":"บริษัท โตโยต้าเมืองเลย จำกัด","displayRegistration":"จ3-95(1)-4/44ลย","province":"เลย","district":"เมืองเลย","subdistrict":"นาอาน","industryType":"ซ่อมและเคาะพ่นสีรถยนต์ ซื้อ ขาย แลกเปลี่ยนรถยนต์","status":"ดำเนินกิจการ","lat":17.45822,"lon":101.72884},"20420000125464":{"id":"20420000125464","name":"มั่นคง","owner":"นางมาลีรัตน์ กลิ่นขจร","displayRegistration":"จ3-37-1/46ลย","province":"เลย","district":"วังสะพุง","subdistrict":"ผาน้อย","industryType":"ทำเครื่องเรือนจากไม้ เช่น โต๊ะ เก้าอี้ โซฟา ฯลฯ","status":"ดำเนินกิจการ","lat":17.327094,"lon":101.777362},"20420001425467":{"id":"20420001425467","name":"NULL","owner":"นายสมคิด ศรีสอาจ","displayRegistration":"จ3-37-14/46ลย","province":"เลย","district":"วังสะพุง","subdistrict":"ผาน้อย","industryType":"ทำเครื่องเรือนจากไม้จามจุรี เช่น โซฟา ฯลฯ","status":"ดำเนินกิจการ","lat":17.33421,"lon":101.77563},"30420000125405":{"id":"30420000125405","name":"บริษัท เพชรเมืองเลยอสังหาริมทรัพย์ จำกัด","owner":"บริษัท เพชรเมืองเลยอสังหาริมทรัพย์ จำกัด","displayRegistration":"ธ3-3(1)-1/40ลย","province":"เลย","district":"เอราวัณ","subdistrict":"เอราวัณ","industryType":"โม่บดย่อยหิน","status":"ดำเนินกิจการ","lat":17.48991,"lon":101.73986},"20420004725475":{"id":"20420004725475","name":"บริษัท รุ่งเรืองวังสะพุงพืชผล จำกัด","owner":"บริษัท รุ่งเรืองวังสะพุงพืชผล จำกัด","displayRegistration":"จ3-2(1)-47/47ลย","province":"เลย","district":"วังสะพุง","subdistrict":"วังสะพุง","industryType":"อบเมล็ดพืช สีลูกเดือย ข้าวโพด และร่อนคัดคุณภาพถั่วชนิดต่าง ๆ","status":"ดำเนินกิจการ","lat":17.32064,"lon":101.7612},"20420002925473":{"id":"20420002925473","name":"เอราวัณพืชผล","owner":"นายปวริศร์ อธิกุลวรรธน์","displayRegistration":"จ3-2(1)-29/47ลย","province":"เลย","district":"เอราวัณ","subdistrict":"ผาอินทร์แปลง","industryType":"อบเมล็ดพืชและโซโล","status":"ดำเนินกิจการ","lat":17.3029,"lon":101.96799},"20420005725474":{"id":"20420005725474","name":"ลานมันรุ่งเรืองกิจ","owner":"นางสาวกัญชลี กีรติรุ่งเรืองกุล","displayRegistration":"จ3-9(6)-57/47ลย","province":"เลย","district":"เมืองเลย","subdistrict":"นาดินดำ","industryType":"ทำมันเส้น","status":"ดำเนินกิจการ","lat":17.47635,"lon":101.84853},"20420006725473":{"id":"20420006725473","name":"NULL","owner":"นางแอ้ว คำไล้","displayRegistration":"จ3-37-67/47ลย","province":"เลย","district":"วังสะพุง","subdistrict":"ปากปวน","industryType":"ทำเครื่องเรือนจากไม้จามจุรี เช่น โซฟา ฯลฯ","status":"ดำเนินกิจการ","lat":17.35176,"lon":101.75508},"20420001525472":{"id":"20420001525472","name":"บริษัท ฝ้ายเมืองเลย จำกัด","owner":"บริษัท ฝ้ายเมืองเลย จำกัด","displayRegistration":"จ3-2(1)-15/47ลย","province":"เลย","district":"เมืองเลย","subdistrict":"นาอ้อ","industryType":"อบเมล็ดพืชและไซโล","status":"ดำเนินกิจการ","lat":17.56503,"lon":101.72849},"20420001925474":{"id":"20420001925474","name":"บริษัท โรงน้ำแข็งกิจวารี - ทิพย์วารี (เลย) จำกัด","owner":"บริษัท โรงน้ำแข็งกิจวารี-ทิพย์วารี (เลย) จำกัด","displayRegistration":"จ3-14-19/47ลย","province":"เลย","district":"เมืองเลย","subdistrict":"เมือง","industryType":"ทำน้ำแข็งหลอดก้อนเล็ก","status":"ดำเนินกิจการ","lat":17.52532,"lon":101.72372},"20420000125498":{"id":"20420000125498","name":"บริษัท เลย เฮิร์บ ลาโบราโทรี่ ออฟโอเรียลทอล ไบโอ จำกัด","owner":"บริษัท เลย เฮิร์บ ลาโบราโทรี่ ออฟโอเรียลทอล ไบโอ จำกัด","displayRegistration":"จ3-46(3)-1/49ลย","province":"เลย","district":"ภูกระดึง","subdistrict":"ห้วยส้ม","industryType":"ผลิตยาสมุนไพร","status":"ดำเนินกิจการ","lat":16.95303,"lon":101.92559},"20420002125504":{"id":"20420002125504","name":"ห้างหุ้นส่วนจำกัด อุดมพรอะกรีเทรด","owner":"ห้างหุ้นส่วนจำกัด อุดมพรอะกรีเทรด","displayRegistration":"จ3-9(6)-21/50ลย","province":"เลย","district":"ท่าลี่","subdistrict":"ท่าลี่","industryType":"ทำมันเส้น และโกดังรับซื้อเมล็ดพืช หรือผลิตผลจากพืช ได้แก่ เมล็ดข้าวโพด ถั่ว งา ปอ เป็นต้น","status":"ดำเนินกิจการ","lat":17.701837,"lon":101.414585},"20420000425435":{"id":"20420000425435","name":"ห้างหุ้นส่วนจำกัด ซันบง เทรดดิ้ง","owner":"ห้างหุ้นส่วนจำกัด ซันบง เทรดดิ้ง","displayRegistration":"จ3-2(2)-4/43ลย","province":"เลย","district":"ท่าลี่","subdistrict":"หนองผือ","industryType":"สีลูกเดือย และร่อน คัดคุณภาพของผลิตผลเกษตรกรรม เช่น ถั่ว,งา","status":"ดำเนินกิจการ","lat":17.68906,"lon":101.41911},"20420014625475":{"id":"20420014625475","name":"บริษัท โค้วยู่ฮะมอเตอร์ จำกัด สาขาวังสะพุง","owner":"บริษัท โค้วยู่ฮะมอเตอร์ จำกัด สาขาวังสะพุง","displayRegistration":"จ3-95(1)-146/47ลย","province":"เลย","district":"วังสะพุง","subdistrict":"ศรีสงคราม","industryType":"ซ่อมรถยนต์","status":"ดำเนินกิจการ","lat":17.296041,"lon":101.776805},"20420010525471":{"id":"20420010525471","name":"โรงงานคอนกรีตผสมเสร็จ ท่าลี่","owner":"บริษัท จิตรัตน์พัฒนา จำกัด","displayRegistration":"จ3-58(1)-105/47ลย","province":"เลย","district":"เมืองเลย","subdistrict":"เมือง","industryType":"ทำคอนกรีตผสมเสร็จ","status":"ดำเนินกิจการ","lat":17.55809,"lon":101.72492},"20420008225514":{"id":"20420008225514","name":"ริยะจันทร์การเกษตร","owner":"นายสมศักดิ์ ริยะจันทร์","displayRegistration":"จ3-9(6)-82/51ลย","province":"เลย","district":"ภูกระดึง","subdistrict":"ห้วยส้ม","industryType":"ทำมันเส้น","status":"ดำเนินกิจการ","lat":16.970658,"lon":101.919017},"20420000525515":{"id":"20420000525515","name":"ลานมันโนนภูทอง","owner":"นายกฤษดา จียาศักดิ์","displayRegistration":"จ3-2(2)-5/51ลย","province":"เลย","district":"เชียงคาน","subdistrict":"ธาตุ","industryType":"สีข้าวโพด เก็บรักษาเมล็ดพืชหรือผลิตผลจากพืชในโกดัง และทำมันเส้น","status":"ดำเนินกิจการ","lat":17.730448,"lon":101.718815},"20420023425511":{"id":"20420023425511","name":"อู่เลิศเมืองเลยการช่าง","owner":"นางสาวอราจิต อรรถวรวินิจ","displayRegistration":"จ3-95(3)-234/51ลย","province":"เลย","district":"เมืองเลย","subdistrict":"นาโป่ง","industryType":"ซ่อมและเคาะพ่นสีรถยนต์","status":"ดำเนินกิจการ","lat":17.430994,"lon":101.724663},"20420012225500":{"id":"20420012225500","name":"บริษัท ดี.แอนด์.มายด์. จำกัด","owner":"บริษัท ดี.แอนด์.มายด์. จำกัด","displayRegistration":"จ3-58(1)-122/50ลย","province":"เลย","district":"วังสะพุง","subdistrict":"ผาน้อย","industryType":"ทำผลิตภัณฑ์คอนกรีตทุกชนิด เช่น ท่อ เสา คอนกรีตบล็อก ฯลฯ","status":"ดำเนินกิจการ","lat":17.33487,"lon":101.77921},"20420014325506":{"id":"20420014325506","name":"บริษัท มิตซูเลย จำกัด","owner":"บริษัท มิตซูเลย จำกัด","displayRegistration":"จ3-95(1)-143/50ลย","province":"เลย","district":"เมืองเลย","subdistrict":"นาอาน","industryType":"ซ่อมรถยนต์","status":"ดำเนินกิจการ","lat":17.47111,"lon":101.73147},"20420002625503":{"id":"20420002625503","name":"ว.รุ่งโรจน์1","owner":"นางสาวปิยธิดา กองทอง","displayRegistration":"จ3-9(6)-26/50ลย","province":"เลย","district":"เมืองเลย","subdistrict":"กกดู่","industryType":"ทำมันเส้น","status":"ดำเนินกิจการ","lat":17.57948,"lon":101.62902},"20420002225510":{"id":"20420002225510","name":"ห้างหุ้นส่วนจำกัด ไทรงามพืชผล","owner":"ห้างหุ้นส่วนจำกัด ไทรงามพืชผล","displayRegistration":"จ3-2(1)-22/51ลย","province":"เลย","district":"ด่านซ้าย","subdistrict":"โคกงาม","industryType":"อบเมล็ดพืชและเก็บรักษาเมล็ดพืชในโกดัง เช่น เมล็ดข้าวโพด เป็นต้น","status":"ดำเนินกิจการ","lat":17.3626471734698,"lon":101.249052053398},"20420001125505":{"id":"20420001125505","name":"ห้างหุ้นส่วนจำกัด เลยบริการ","owner":"ห้างหุ้นส่วนจำกัด เลยบริการ","displayRegistration":"จ3-50(4)-11/50ลย","province":"เลย","district":"วังสะพุง","subdistrict":"ผาน้อย","industryType":"ผลิตแอสฟัลต์คอนกรีต","status":"ดำเนินกิจการ","lat":17.33564,"lon":101.77249},"20420029325491":{"id":"20420029325491","name":"-","owner":"นายยอดเยี่ยม กองสิงห์","displayRegistration":"จ3-37-293/49ลย","province":"เลย","district":"วังสะพุง","subdistrict":"ผาน้อย","industryType":"ทำเครื่องเรือนจากไม้จามจุรี เช่น โซฟา โต๊ะ เก้าอี้ ฯลฯ","status":"ดำเนินกิจการ","lat":17.32964,"lon":101.7785},"20420000525507":{"id":"20420000525507","name":"ห้างหุ้นส่วนจำกัด สยามซีวิลซัพพลาย","owner":"ห้างหุ้นส่วนจำกัด สยามซีวิลซัพพลาย","displayRegistration":"จ3-50(4)-5/50ลย","province":"เลย","district":"วังสะพุง","subdistrict":"ผาน้อย","industryType":"ผลิตแอสฟัลต์คอนกรีต","status":"ดำเนินกิจการ","lat":17.33411,"lon":101.77208},"20420004025496":{"id":"20420004025496","name":"โชคพิชัย","owner":"นายรพีพงศ์ นพจรัสรุจน์","displayRegistration":"จ3-9(6)-40/49ลย","province":"เลย","district":"เมืองเลย","subdistrict":"กกดู่","industryType":"ทำมันเส้น","status":"ดำเนินกิจการ","lat":17.57948,"lon":101.62902},"20420015825538":{"id":"20420015825538","name":"กุหลาบเฟอร์นิเจอร์","owner":"นางกุหลาบ ชาภักดี","displayRegistration":"จ3-37-158/53ลย","province":"เลย","district":"วังสะพุง","subdistrict":"ปากปวน","industryType":"ทำเครื่องเรือนจากไม้ เช่น โซฟา โต๊ะ เก้าอี้ ฯลฯ","status":"ดำเนินกิจการ","lat":17.387835,"lon":101.7407},"20420003125537":{"id":"20420003125537","name":"ห้างหุ้นส่วนจำกัด ลานมัน รุ่งฤทัยพาณิชย์","owner":"ห้างหุ้นส่วนจำกัด ลานมัน รุ่งฤทัยพาณิชย์","displayRegistration":"จ3-9(6)-31/53ลย","province":"เลย","district":"ท่าลี่","subdistrict":"หนองผือ","industryType":"ทำมันเส้น","status":"ดำเนินกิจการ","lat":17.658108,"lon":101.424211},"20420013425539":{"id":"20420013425539","name":"บริษัท เฮีย ต. จำกัด","owner":"บริษัท เฮีย ต. จำกัด","displayRegistration":"จ3-95(1)-134/53ลย","province":"เลย","district":"วังสะพุง","subdistrict":"ศรีสงคราม","industryType":"ซ่อมรถยนต์ และเคาะพ่นสีรถยนต์","status":"ดำเนินกิจการ","lat":17.297847,"lon":101.778163},"20420005225533":{"id":"20420005225533","name":"อุลิตพานิช","owner":"นายสมเกียรติ กัลป์ตินันท์","displayRegistration":"จ3-2(1)-52/53ลย","province":"เลย","district":"ผาขาว","subdistrict":"ท่าช้างคล้อง","industryType":"อบข้าวโพด เก็บรักษาข้าวโพด","status":"ดำเนินกิจการ","lat":17.041216,"lon":102.092731},"20420004925539":{"id":"20420004925539","name":"บริษัท ณัฐพลค้าไม้ จำกัด","owner":"บริษัท ณัฐพลค้าไม้ จำกัด","displayRegistration":"จ3-34(1)-49/53ลย","province":"เลย","district":"ท่าลี่","subdistrict":"หนองผือ","industryType":"ไส ซอยไม้แปรรูปเพื่อบริการลูกค้า","status":"ดำเนินกิจการ","lat":17.651514,"lon":101.433289},"20420012925547":{"id":"20420012925547","name":"ห้างหุ้นส่วนจำกัด บ้วนเซ้ง (๒๕๔๗)","owner":"ห้างหุ้นส่วนจำกัด บ้วนเซ้ง (๒๕๔๗)","displayRegistration":"จ3-34(2)-129/54ลย","province":"เลย","district":"วังสะพุง","subdistrict":"ศรีสงคราม","industryType":"ประกอบกิจการเกี่ยวกับไม้,ทำเครื่องเรือนจากไม้ เช่น วงกบ ขอบประตู ขอบหน้าต่าง โต๊ะ เก้าอี้","status":"ดำเนินกิจการ","lat":17.2944161235656,"lon":101.776293403109},"20420003125545":{"id":"20420003125545","name":"ท่าทรายทอง","owner":"นายเอกพงศ์ ชมมณี","displayRegistration":"จ3-3(2)-31/54ลย","province":"เลย","district":"เชียงคาน","subdistrict":"ปากตม","industryType":"ขุดลอกทรายแม่น้ำโขง และดูดทรายแม่น้ำโขง","status":"ดำเนินกิจการ","lat":17.86424,"lon":101.57811},"20420012425522":{"id":"20420012425522","name":"ลานมัน มันทอง","owner":"นายภัคพงษ์ เครือทองศรี","displayRegistration":"จ3-9(6)-124/52ลย","province":"เลย","district":"เชียงคาน","subdistrict":"ธาตุ","industryType":"ทำมันเส้น","status":"ดำเนินกิจการ","lat":17.703003809651,"lon":101.7391078635},"20420001025531":{"id":"20420001025531","name":"NULL","owner":"บริษัท รุ่งเรืองวังสะพุงพืชผล จำกัด","displayRegistration":"จ3-9(6)-10/53ลย","province":"เลย","district":"วังสะพุง","subdistrict":"หนองหญ้าปล้อง","industryType":"ทำมันเส้น","status":"ดำเนินกิจการ","lat":17.252498,"lon":101.875931},"20420002325559":{"id":"20420002325559","name":"ว.รุ่งโรจน์","owner":"นางบัววร กองทอง","displayRegistration":"จ3-9(6)-23/55ลย","province":"เลย","district":"ท่าลี่","subdistrict":"อาฮี","industryType":"ทำมันเส้น","status":"ดำเนินกิจการ","lat":17.684211,"lon":101.381471},"20420000325528":{"id":"20420000325528","name":"บริษัท ลานมันวิเชียร จำกัด","owner":"บริษัท ลานวิเชียร จำกัด","displayRegistration":"จ3-2(2)-3/52ลย","province":"เลย","district":"เชียงคาน","subdistrict":"จอมศรี","industryType":"ทำมันเส้นและสีข้าวโพด","status":"ดำเนินกิจการ","lat":17.766856,"lon":101.696575},"20420100325535":{"id":"20420100325535","name":"บริษัท ห้างขายยาเทพประทานพร จำกัด","owner":"บริษัท ห้างขายยาเทพประทานพร จำกัด","displayRegistration":"จ3-46(2)-3/53ลย","province":"เลย","district":"เมืองเลย","subdistrict":"นาอาน","industryType":"ผลิตและจำหน่ายยาแผนโบราณ","status":"ดำเนินกิจการ","lat":17.464909,"lon":101.73576},"20420002725527":{"id":"20420002725527","name":"บริษัท รุ่งฤทัยพาณิชย์ (ขนส่ง) จำกัด","owner":"บริษัท รุ่งฤทัยพาณิชย์ (ขนส่ง) จำกัด","displayRegistration":"จ3-2(1)-27/52ลย","province":"เลย","district":"ท่าลี่","subdistrict":"อาฮี","industryType":"อบเมล็ดพืช เก็บรักษา ร่อน คัด หรือแยกขนาด หรือคุณภาพของผลิตผลเกษตรกรรม","status":"ดำเนินกิจการ","lat":17.635331,"lon":101.356011},"20420000325536":{"id":"20420000325536","name":"สหกรณ์ผู้เลี้ยงโคนมในเขตปฏิรูปที่ดินจังหวัดเลย จำกัด","owner":"สหกรณ์ผู้เลี้ยงโคนมในเขตปฏิรูปที่ดินจังหวัดเลย จำกัด","displayRegistration":"จ3-5(1)-3/53ลย","province":"เลย","district":"เอราวัณ","subdistrict":"เอราวัณ","industryType":"ผลิตนมพาสเจอร์ไรส์","status":"ดำเนินกิจการ","lat":17.380707,"lon":101.973466},"20420008825529":{"id":"20420008825529","name":"บริษัท บิ๊กโฮม คอนกรีต จำกัด","owner":"บริษัท บิ๊กโฮม คอนกรีต จำกัด","displayRegistration":"จ3-58(1)-88/52ลย","province":"เลย","district":"วังสะพุง","subdistrict":"ปากปวน","industryType":"ผลิตคอนกรีตผสมเสร็จ","status":"ดำเนินกิจการ","lat":17.381781,"lon":101.742001},"10420000325579":{"id":"10420000325579","name":"บริษัท ศรีตรังแอโกรอินดัสทรี จำกัด (มหาชน)","owner":"บริษัท ศรีตรังแอโกรอินดัสทรี จำกัด (มหาชน)","displayRegistration":"3-52(3)-3/57ลย","province":"เลย","district":"นาด้วง","subdistrict":"ท่าสะอาด","industryType":"ผลิตยางเครป ยางแท่งเอสทีอาร์ 20 ยางผสม","status":"ดำเนินกิจการ","lat":17.5074248570774,"lon":101.896280997092},"20420002925564":{"id":"20420002925564","name":"ห้างหุ้นส่วนจำกัด จตุพรมอเตอร์เพชรบูรณ์","owner":"ห้างหุ้นส่วนจำกัด จตุพรมอเตอร์เพชรบูรณ์","displayRegistration":"จ3-50(4)-29/56ลย","province":"เลย","district":"ด่านซ้าย","subdistrict":"โคกงาม","industryType":"ผลิตแอสฟัลต์ติคคอนกรีต","status":"ดำเนินกิจการ","lat":17.3614751573885,"lon":101.2596265124},"20420000325577":{"id":"20420000325577","name":"พีรพงษ์พาณิชย์","owner":"นางสาวหนูเกษม ดอใจ","displayRegistration":"จ3-2(2)-3/57ลย","province":"เลย","district":"ท่าลี่","subdistrict":"หนองผือ","industryType":"สีข้าวโพด","status":"ดำเนินกิจการ","lat":17.65345,"lon":101.431693},"20420018625562":{"id":"20420018625562","name":"นิคมพัฒน์วัสดุ","owner":"ห้างหุ้นส่วนจำกัด นิคมพลัส","displayRegistration":"จ3-58(1)-186/56ลย","province":"เลย","district":"วังสะพุง","subdistrict":"หนองหญ้าปล้อง","industryType":"คอนกรีตผสมเสร็จ","status":"ดำเนินกิจการ","lat":17.312553,"lon":101.900356},"20420008625564":{"id":"20420008625564","name":"NULL","owner":"นางฉวีวรรณ นาราศรี","displayRegistration":"จ3-9(6)-86/56ลย","province":"เลย","district":"ภูเรือ","subdistrict":"ร่องจิก","industryType":"ทำมันเส้น","status":"ดำเนินกิจการ","lat":17.36925,"lon":101.264164},"20420002225577":{"id":"20420002225577","name":"ห้างหุ้นส่วนจำกัด ปรศิณี","owner":"ห้างหุ้นส่วนจำกัด ปรศิณี","displayRegistration":"จ3-50(4)-22/57ลย","province":"เลย","district":"เอราวัณ","subdistrict":"เอราวัณ","industryType":"ผลิตแอสฟัลติคคอนกรีต","status":"ดำเนินกิจการ","lat":17.33974,"lon":101.907344},"20420004025579":{"id":"20420004025579","name":"โรงงานคอนกรีตผสมเสร็จ\"เมืองเลย\"","owner":"บริษัท ปูนซีเมนต์ไทย (แก่งคอย) จำกัด","displayRegistration":"จ3-58(1)-40/57ลย","province":"เลย","district":"เมืองเลย","subdistrict":"นาโป่ง","industryType":"ผลิตคอนกรีตผสมเสร็จ","status":"ดำเนินกิจการ","lat":17.3954868467832,"lon":101.7363872434},"20420001125570":{"id":"20420001125570","name":"บริษัท นาด้วงพืชผล จำกัด","owner":"บริษัท นาด้วงพืชผล จำกัด","displayRegistration":"จ3-9(6)-11/57ลย","province":"เลย","district":"นาด้วง","subdistrict":"นาดอกคำ","industryType":"ทำมันเส้น","status":"ดำเนินกิจการ","lat":17.539269,"lon":101.970298},"20420002025571":{"id":"20420002025571","name":"ห้างหุ้นส่วนจำกัด พงษ์ศักดิ์เซอร์วิส","owner":"ห้างหุ้นส่วนจำกัด พงษ์ศักดิ์เซอร์วิส","displayRegistration":"จ3-50(4)-20/57ลย","province":"เลย","district":"ภูเรือ","subdistrict":"ร่องจิก","industryType":"ผลิตแอสฟัลท์ติคคอนกรีต","status":"ดำเนินกิจการ","lat":17.41097,"lon":101.29114},"40420006525572":{"id":"40420006525572","name":"บริษัท โรงไฟฟ้าน้ำตาลขอนแก่น จำกัด (สาขาวังสะพุง)","owner":"บริษัท โรงไฟฟ้าน้ำตาลขอนแก่น จำกัด โดย นายเลิศลักษณ์ เจนใจวิทย์","displayRegistration":"3-88-65/57ลย","province":"เลย","district":"วังสะพุง","subdistrict":"หนองหญ้าปล้อง","industryType":"ผลิตไฟฟ้า","status":"ดำเนินกิจการ","lat":17.27864,"lon":101.858074},"20420004225575":{"id":"20420004225575","name":"บริษัท พรประเสริฐรุ่งเรืองกิจ จำกัด","owner":"บริษัท พรประเสริฐรุ่งเรืองกิจ จำกัด","displayRegistration":"จ3-9(6)-42/57ลย","province":"เลย","district":"เมืองเลย","subdistrict":"น้ำสวย","industryType":"ทำมันเส้น","status":"ดำเนินกิจการ","lat":17.607014,"lon":101.818424},"20420001425574":{"id":"20420001425574","name":"บริษัท พรประเสริฐรุ่งเรืองกิจ จำกัด","owner":"บริษัท พรประเสริฐรุ่งเรืองกิจ จำกัด","displayRegistration":"จ3-2(2)-14/57ลย","province":"เลย","district":"เมืองเลย","subdistrict":"น้ำสวย","industryType":"สีข้าวโพด","status":"ดำเนินกิจการ","lat":17.607029,"lon":101.81863},"20420000625570":{"id":"20420000625570","name":"ห้างหุ้นส่วนจำกัด วีพืชผล","owner":"ห้างหุ้นส่วนจำกัด วีพืชผล","displayRegistration":"จ3-2(2)-6/57ลย","province":"เลย","district":"ท่าลี่","subdistrict":"หนองผือ","industryType":"สีข้าวโพด","status":"ดำเนินกิจการ","lat":17.694875,"lon":101.416334},"20420011025570":{"id":"20420011025570","name":"ห้างหุ้นส่วนจำกัด เชียงคานโฮม","owner":"ห้างหุ้นส่วนจำกัด เชียงคานโฮม","displayRegistration":"จ3-58(1)-110/57ลย","province":"เลย","district":"เชียงคาน","subdistrict":"เชียงคาน","industryType":"ผลิตคอนกรีตผสมเสร็จ","status":"ดำเนินกิจการ","lat":17.885386,"lon":101.653402},"20420018425559":{"id":"20420018425559","name":"ทีเค อะกรีเทรด","owner":"นางสาวขนิษฐา แสนจักร์","displayRegistration":"จ3-9(6)-184/55ลย","province":"เลย","district":"ปากชม","subdistrict":"ปากชม","industryType":"ทำมันเส้น สีข้าวโพด","status":"ดำเนินกิจการ","lat":17.990763,"lon":101.88628},"20420007025568":{"id":"20420007025568","name":"กิจรุ่งโรจน์พืชผล","owner":"นายนิโรจน์ เอกนพพระ","displayRegistration":"จ3-9(6)-70/56ลย","province":"เลย","district":"เมืองเลย","subdistrict":"นาดินดำ","industryType":"ทำมันเส้น สีข้าวโพด","status":"ดำเนินกิจการ","lat":17.391403,"lon":101.810868},"20420020725566":{"id":"20420020725566","name":"บริษัท บิ๊กโฮม คอนกรีต จำกัด","owner":"บริษัท บิ๊กโฮม คอนกรีต จำกัด","displayRegistration":"จ3-58(1)-207/56ลย","province":"เลย","district":"เมืองเลย","subdistrict":"เมือง","industryType":"ผลิตคอนกรีตผสมเสร็จ","status":"ดำเนินกิจการ","lat":17.381602,"lon":101.741818},"20420018125563":{"id":"20420018125563","name":"รุ่งเจริญคอนกรีต","owner":"นางจิตนิภา มหาดไทย","displayRegistration":"จ3-58(1)-181/56ลย","province":"เลย","district":"ท่าลี่","subdistrict":"ท่าลี่","industryType":"ผลิตคอนกรีตผสมเสร็จ","status":"ดำเนินกิจการ","lat":17.6393207510577,"lon":101.4108169177},"20420000425575":{"id":"20420000425575","name":"ห้างหุ้นส่วนจำกัด สุพัฒกฤตย์ อิมปอร์ต-เอ็กซปอร์ต","owner":"ห้างหุ้นส่วนจำกัด สุพัฒกฤตย์ อิมปอร์ต-เอ็กซปอร์ต","displayRegistration":"จ3-2(2)-4/57ลย","province":"เลย","district":"เชียงคาน","subdistrict":"นาซ่าว","industryType":"สีข้าวโพด","status":"ดำเนินกิจการ","lat":17.824293,"lon":101.664584},"20420000425567":{"id":"20420000425567","name":"ทวีพลพืชผล","owner":"นายพรศักดิ์ พอค้ำ","displayRegistration":"จ3-9(6)-4/56ลย","province":"เลย","district":"ด่านซ้าย","subdistrict":"โคกงาม","industryType":"ทำมันเส้น","status":"ดำเนินกิจการ","lat":17.3742344127363,"lon":101.2495568621},"10420001825569":{"id":"10420001825569","name":"บริษัท เซรีโค รับเบอร์ (ประเทศไทย) จำกัด","owner":"บริษัทเซรีโค รับเบอร์ (ประเทศไทย) จำกัด","displayRegistration":"3-52(3)-18/56ลย","province":"เลย","district":"นาด้วง","subdistrict":"ท่าสะอาด","industryType":"ผลิตยางแท่ง","status":"ดำเนินกิจการ","lat":17.509944,"lon":101.896231},"20420000825568":{"id":"20420000825568","name":"บริษัท ภูทองไม้ไทย จำกัด","owner":"บริษัท ภูทองไม้ไทย จำกัด","displayRegistration":"จ3-37-8/56ลย","province":"เลย","district":"เอราวัณ","subdistrict":"เอราวัณ","industryType":"ทำเครื่องเรือนจากไม้,แปรรูปไม้","status":"หยุดชั่วคราว","lat":17.367604,"lon":101.881198},"60420000125564":{"id":"60420000125564","name":"นางวราภรณ์ สารมะโน","owner":"นางวราภรณ์ สารมะโน","displayRegistration":"อ2-52(2)-1/56ลย","province":"เลย","district":"เมืองเลย","subdistrict":"น้ำสวย","industryType":"เกี่ยวกับยางพารา หั่น ผสม รีดให้เป็นแผ่น","status":"ดำเนินกิจการ","lat":17.623012,"lon":101.830023},"20420100625561":{"id":"20420100625561","name":"ทรัพย์มงคลน้ำมันปาล์ม","owner":"นายกองไล นีรมิตร์","displayRegistration":"จ3-7(1)-6/56ลย","province":"เลย","district":"เมืองเลย","subdistrict":"นาดินดำ","industryType":"บีบน้ำมันปาล์ม","status":"ดำเนินกิจการ","lat":17.441728,"lon":101.83894},"20420007125558":{"id":"20420007125558","name":"ภูเรือคอนกรีต","owner":"นายธีระภัทร์ สนธิวัฒน์ตระกูล","displayRegistration":"จ3-58(1)-71/55ลย","province":"เลย","district":"ภูเรือ","subdistrict":"หนองบัว","industryType":"คอนกรีตผสมเสร็จ และผลิตภัณฑ์คอนกรีต เช่น ท่ออัดแรง พื้นสำเร็จ เสา อิฐบล็อค","status":"ดำเนินกิจการ","lat":17.44964,"lon":101.35689},"20420000225553":{"id":"20420000225553","name":"ว.รุ่งโรจน์","owner":"นางบัววร กองทอง","displayRegistration":"จ3-2(2)-2/55ลย","province":"เลย","district":"ท่าลี่","subdistrict":"อาฮี","industryType":"สีข้าวโพด","status":"ดำเนินกิจการ","lat":17.662481,"lon":101.479293},"20420005525551":{"id":"20420005525551","name":"บริษัท ซี.ซี.คอนกรีต จำกัด","owner":"บริษัท ซี.ซี.คอนกรีต จำกัด","displayRegistration":"จ3-58(1)-55/55ลย","province":"เลย","district":"ภูเรือ","subdistrict":"ร่องจิก","industryType":"ผลิตคอนกรีตผสมเสร็จ","status":"ดำเนินกิจการ","lat":17.407883,"lon":101.293097},"20420002525554":{"id":"20420002525554","name":"ล.ทรายแก้ว","owner":"นางสาวมาลินี พลซา","displayRegistration":"จ3-3(4)-25/55ลย","province":"เลย","district":"เชียงคาน","subdistrict":"ปากตม","industryType":"ดูดทรายแม่น้ำโขง","status":"ดำเนินกิจการ","lat":17.85723,"lon":101.583502},"20420009925559":{"id":"20420009925559","name":"พันธกิจ 300","owner":"นายวีรวัฒน์ ทองบ่อ","displayRegistration":"จ3-9(6)-99/55ลย","province":"เลย","district":"ปากชม","subdistrict":"ปากชม","industryType":"ทำมันเส้น","status":"ดำเนินกิจการ","lat":18.010947,"lon":101.899278},"20420009525557":{"id":"20420009525557","name":"-","owner":"นางสาวพิไลวรรณ สุนาทร","displayRegistration":"จ3-9(6)-95/55ลย","province":"เลย","district":"นาด้วง","subdistrict":"ท่าสะอาด","industryType":"ทำมันเส้น","status":"หยุดชั่วคราว","lat":17.497891,"lon":101.913247},"20420010625552":{"id":"20420010625552","name":"ฟ้าอรุณ","owner":"นางสาววันวิจิตย์ วรรณไชย","displayRegistration":"จ3-9(6)-106/55ลย","province":"เลย","district":"เมืองเลย","subdistrict":"นาดินดำ","industryType":"ทำมันเส้น","status":"ดำเนินกิจการ","lat":17.3932796045285,"lon":101.8184624845},"20420003425556":{"id":"20420003425556","name":"พันธกิจ300","owner":"นายเชาวฤทธิ์ ภูชูธรรม","displayRegistration":"จ3-2(1)-34/55ลย","province":"เลย","district":"ปากชม","subdistrict":"เชียงกลม","industryType":"อบเมล็ดพืช","status":"ดำเนินกิจการ","lat":17.812358,"lon":101.943573},"20420010325559":{"id":"20420010325559","name":"บุญมีรุ่งเรืองกิจ","owner":"นางฉวีวรรณ นาราศรี","displayRegistration":"จ3-9(6)-103/55ลย","province":"เลย","district":"ภูเรือ","subdistrict":"ร่องจิก","industryType":"ทำมันเส้น","status":"ดำเนินกิจการ","lat":17.410973,"lon":101.303518},"20420010725550":{"id":"20420010725550","name":"ก.อิฐบล๊อค","owner":"นางอโณทัย วงษ์ลา","displayRegistration":"จ3-58(1)-107/55ลย","province":"เลย","district":"เชียงคาน","subdistrict":"ธาตุ","industryType":"ผลิตคอนกรีตผสมเสร็จ","status":"ดำเนินกิจการ","lat":17.728856,"lon":101.722772},"20420004025553":{"id":"20420004025553","name":"ห้างหุ้นส่วนจำกัด ไทรงามพืชผล","owner":"ห้างหุ้นส่วนจำกัด ไทรงามพืชผล","displayRegistration":"จ3-2(1)-40/55ลย","province":"เลย","district":"ด่านซ้าย","subdistrict":"โคกงาม","industryType":"อบเมล็ดพืชและทำมันเส้น","status":"ดำเนินกิจการ","lat":17.3543372776597,"lon":101.234638195424},"20420002025563":{"id":"20420002025563","name":"ห้างหุ้นส่วนจำกัด กาญจนกนก","owner":"ห้างหุ้นส่วนจำกัด กาญจนกนก","displayRegistration":"จ3-2(1)-20/56ลย","province":"เลย","district":"ท่าลี่","subdistrict":"หนองผือ","industryType":"อบเมล็ดพืช สีข้าวโพด ทำมันเส้น","status":"ดำเนินกิจการ","lat":17.674468,"lon":101.419883},"20420012025553":{"id":"20420012025553","name":"พันธกิจ 300","owner":"นายเชาวฤทธิ์ ภูชูธรรม","displayRegistration":"จ3-9(6)-120/55ลย","province":"เลย","district":"ปากชม","subdistrict":"เชียงกลม","industryType":"ทำมันเส้น","status":"ดำเนินกิจการ","lat":17.773175,"lon":101.932299},"20420002125561":{"id":"20420002125561","name":"บริษัท ที.ท๊อปพลัส อิมพอร์ท เอ็กซ์พอร์ท จำกัด","owner":"บริษัท ที.ท๊อปพลัส อิมพอร์ท เอ็กซ์พอร์ท จำกัด","displayRegistration":"จ3-2(1)-21/56ลย","province":"เลย","district":"ท่าลี่","subdistrict":"หนองผือ","industryType":"อบเมล็ดพืช เก็บรักษา ร่อน คัด หรือแยกขนาดหรือคุณภาพของผลิตผลเกษตรกรรม และสีข้าวโพด","status":"ดำเนินกิจการ","lat":17.661417,"lon":101.426724},"20420005125568":{"id":"20420005125568","name":"ศิริประภา","owner":"นายกาด จุตตะโน","displayRegistration":"จ3-9(6)-51/56ลย","province":"เลย","district":"ภูเรือ","subdistrict":"สานตม","industryType":"ทำมันเส้น","status":"ดำเนินกิจการ","lat":17.462734,"lon":101.491462},"20420013825555":{"id":"20420013825555","name":"ห้างหุ้นส่วนจำกัด ศรีแสนเจริญพาณิชย์","owner":"ห้างหุ้นส่วนจำกัด ศรีแสนเจริญพาณิชย์","displayRegistration":"จ3-9(6)-138/55ลย","province":"เลย","district":"ท่าลี่","subdistrict":"หนองผือ","industryType":"ทำมันเส้น","status":"ดำเนินกิจการ","lat":17.691655,"lon":101.417793},"20420001425566":{"id":"20420001425566","name":"คลังไม้วัสดุ","owner":"นายปฎิพัทธ์ ริมพืชพันธ์","displayRegistration":"จ3-34(2)-14/56ลย","province":"เลย","district":"เมืองเลย","subdistrict":"ชัยพฤกษ์","industryType":"แปรรูปไม้พื่อประดิษฐกรรม ทำวงกบ-บานประตูหน้าต่าง","status":"ดำเนินกิจการ","lat":17.515681,"lon":101.741686},"20420003725567":{"id":"20420003725567","name":"บริษัท ณัฐพลค้าไม้ จำกัด","owner":"บริษัท ณัฐพลค้าไม้ จำกัด","displayRegistration":"จ3-34(1)-37/56ลย","province":"เลย","district":"ท่าลี่","subdistrict":"หนองผือ","industryType":"ทำวงกบ ประตู หน้าต่าง ไม้ปาร์เก้ ไม้พื้น หรือส่วนประกอบอื่นๆ ที่ทำด้วยไม้ของอาคาร ทำเครื่องเรือนจากไม้ และไส ซอยไม้แปปรูปเพื่อจำหน่าย","status":"ดำเนินกิจการ","lat":17.730742,"lon":101.411781},"20420000625562":{"id":"20420000625562","name":"อัครชัยพืชผล","owner":"นางเกรียงไกร โพธิ์มา","displayRegistration":"จ3-2(2)-6/56ลย","province":"เลย","district":"นาด้วง","subdistrict":"นาด้วง","industryType":"สีข้าวโพด,ทำมันเส้น","status":"ดำเนินกิจการ","lat":17.478022,"lon":101.968428},"20420000325601":{"id":"20420000325601","name":"ส. แสวงผล","owner":"นางจุฬาพร เนตรแสงศรี","displayRegistration":"จ3-2(5)-3/60ลย","province":"เลย","district":"ด่านซ้าย","subdistrict":"นาดี","industryType":"เก็บรักษามันสำปะหลัง, ทำมันเส้น","status":"ดำเนินกิจการ","lat":17.395822,"lon":101.164224},"10420000125573":{"id":"10420000125573","name":"บริษัท รวมเกษตรกรอุตสาหกรรม จำกัด (มิตรภูหลวง)","owner":"บริษัท รวมเกษตรกรอุตสาหกรรม จำกัด (มิตรภูหลวง)","displayRegistration":"3-11(3)-1/57ลย","province":"เลย","district":"วังสะพุง","subdistrict":"โคกขมิ้น","industryType":"ทำน้ำตาลทรายดิบ","status":"ดำเนินกิจการ","lat":17.188585,"lon":101.825813},"20420000625604":{"id":"20420000625604","name":"ศักดิ์สิทธิ์พารา","owner":"นายศักดิ์สิทธิ์ คำวันดี","displayRegistration":"จ3-52(2)-6/60ลย","province":"เลย","district":"เมืองเลย","subdistrict":"น้ำสวย","industryType":"ผลิตยางพารารีดแผ่น","status":"ดำเนินกิจการ","lat":17.568891,"lon":101.675757},"20420002525596":{"id":"20420002525596","name":"ศูนย์คัดแยกและกำจัดขยะมูลฝอย เทศบาลตำบลเชียงคาน","owner":"เทศบาลตำบลเชียงคาน","displayRegistration":"จ3-43(1)-25/59ลย","province":"เลย","district":"เชียงคาน","subdistrict":"เชียงคาน","industryType":"การทำปุ๋ยหรือสารป้องกันศัตรูพืชหรือสัตว์","status":"หยุดชั่วคราว","lat":17.648617,"lon":101.701328},"20420000125613":{"id":"20420000125613","name":"ยางทอง","owner":"นางสาวศศิกานต์ สุขประเสริฐ","displayRegistration":"จ3-52(2)-1/61ลย","province":"เลย","district":"วังสะพุง","subdistrict":"ปากปวน","industryType":"ผลิตยางรีดแผ่น","status":"ดำเนินกิจการ","lat":17.351966,"lon":101.813784},"20420100125588":{"id":"20420100125588","name":"ลานมันรุ่งเรืองกิจ","owner":"นางสาวกัญชลี กีรติรุงเรืองกุล","displayRegistration":"จ2-9(6)-1/58ลย","province":"เลย","district":"เมืองเลย","subdistrict":"นาดินดำ","industryType":"ทำมันเส้น","status":"ดำเนินกิจการ","lat":17.507118,"lon":101.749743},"20420100325618":{"id":"20420100325618","name":"บริษัท เหล็กเอราวัณ จำกัด","owner":"บริษัท เหล็กเอราวัณ จำกัด","displayRegistration":"จ2-58(3)-3/61ลย","province":"เลย","district":"เมืองเลย","subdistrict":"ศรีสองรัก","industryType":"การทำผลิตภัณฑ์จากหิน","status":"ดำเนินกิจการ","lat":17.597044,"lon":101.718772},"20420000225538":{"id":"20420000225538","name":"ห้างหุ้นส่วนจำกัด เมืองทอง อะกริเทค","owner":"ห้างหุ้นส่วนจำกัด เมืองทอง อะกริเทค","displayRegistration":"จ3-2(2)-2/53ลย","province":"เลย","district":"เชียงคาน","subdistrict":"นาซ่าว","industryType":"สีข้าวโพด เก็บรักษาเมล็ดพืช หรือผลิตผลจากพืชในโกดัง และทำมันเส้น","status":"ดำเนินกิจการ","lat":17.824419,"lon":101.669816},"20420000925558":{"id":"20420000925558","name":"ร้านจำปาการเกษตร","owner":"นางสาวฐิดาภรณ์ แก่งจำปา","displayRegistration":"จ3-43(1)-9/55ลย","province":"เลย","district":"เอราวัณ","subdistrict":"ผาอินทร์แปลง","industryType":"ทำปุ๋ยอินทรีย์","status":"ดำเนินกิจการ","lat":17.279265,"lon":101.971713},"20420200125595":{"id":"20420200125595","name":"ร้าน ล.พืชผล","owner":"นางสาววรัลชญาน์ พัชระศักดิ์สกุล","displayRegistration":"จ2-9(6)-1/59ลย","province":"เลย","district":"ด่านซ้าย","subdistrict":"ปากหมัน","industryType":"ทำมันเส้น สีข้าวโพด","status":"ดำเนินกิจการ","lat":17.48598,"lon":101.190149},"20420009525599":{"id":"20420009525599","name":"ภูริพัฒน์ฟิตซิ่ง","owner":"นายศักดิ์มงคล บัวทอง","displayRegistration":"จ3-95(1)-95/59ลย","province":"เลย","district":"เมืองเลย","subdistrict":"เมือง","industryType":"ซ่อมแซมยานที่ขับเคลื่อนด้วยเครื่องยนต์หรือส่วนประกอบของยานดังกล่าวและซ่อมแซมรถยนต์ชำรุด","status":"ดำเนินกิจการ","lat":17.50287,"lon":101.754165},"20420002425482":{"id":"20420002425482","name":"ไทยแมท","owner":"นายสิทธิศักดิ์ กิตชูจิตรารมย์","displayRegistration":"จ3-9(6)-24/48ลย","province":"เลย","district":"วังสะพุง","subdistrict":"ศรีสงคราม","industryType":"ทำมันเส้น","status":"ดำเนินกิจการ","lat":17.31537,"lon":101.75233},"20420300125594":{"id":"20420300125594","name":"เจ๋ ยางพารา","owner":"นายภาณุมาศ สราวรรณ","displayRegistration":"จ2-52(2)-1/59ลย","province":"เลย","district":"เมืองเลย","subdistrict":"เมือง","industryType":"ผลิตยางพารารีดแผ่น","status":"ดำเนินกิจการ","lat":17.562673,"lon":101.71521},"20420010325575":{"id":"20420010325575","name":"สุริยนต์คอนกรีต","owner":"นางสาวศิริอร มีแพง","displayRegistration":"จ3-58(1)-103/57ลย","province":"เลย","district":"เชียงคาน","subdistrict":"นาซ่าว","industryType":"ผลิตคอนกรีตผสมเสร็จ","status":"ดำเนินกิจการ","lat":17.836377,"lon":101.667064},"20420007425578":{"id":"20420007425578","name":"ห้างหุ้นส่วนจำกัด แอร์พอร์ตหลังคาเหล็ก","owner":"ห้างหุ้นส่วนจำกัด แอร์พอร์ตหลังคาเหล็ก","displayRegistration":"จ3-63(2)-74/57ลย","province":"เลย","district":"เมืองเลย","subdistrict":"นาอาน","industryType":"ผลิตหลังคาเหล็กรีดลอน","status":"ดำเนินกิจการ","lat":17.437519,"lon":101.727216},"20420100325600":{"id":"20420100325600","name":"บริษัท กรเดชวังสะพุง จำกัด","owner":"บริษัท กรเดชวังสะพุง จำกัด","displayRegistration":"จ2-14-3/60ลย","province":"เลย","district":"วังสะพุง","subdistrict":"วังสะพุง","industryType":"ทำน้ำแข็ง","status":"ดำเนินกิจการ","lat":17.264355,"lon":101.74971},"20420006725549":{"id":"20420006725549","name":"บริษัท วารีเทพภูเรือ จำกัด","owner":"บริษัท วารีเทพภูเรือ จำกัด","displayRegistration":"จ3-14-67/54ลย","province":"เลย","district":"ภูเรือ","subdistrict":"หนองบัว","industryType":"ทำน้ำแข็งก้อนเล็กและน้ำดื่ม","status":"ดำเนินกิจการ","lat":17.457352,"lon":101.375989},"30420000525588":{"id":"30420000525588","name":"บริษัท ผลอนันต์ การศิลา จำกัด","owner":"บริษัท ผลอนันต์ การศิลา จำกัด","displayRegistration":"ธ3-3(1)-5/58ลย","province":"เลย","district":"วังสะพุง","subdistrict":"ผาน้อย","industryType":"โม่ บด หรือย่อยหิน","status":"ดำเนินกิจการ","lat":17.388744,"lon":101.870678},"20420000825584":{"id":"20420000825584","name":"แม็กซ์รับเบอร์","owner":"นางสาวนิตยา วงศ์ลา","displayRegistration":"จ3-52(2)-8/58ลย","province":"เลย","district":"เชียงคาน","subdistrict":"ธาตุ","industryType":"การหั่น ผสม รีดให้เป็นแผ่นหรือตัดแผ่นยางธรรมชาติ","status":"หยุดชั่วคราว","lat":17.884964,"lon":101.695154},"20420013925587":{"id":"20420013925587","name":"บริษัท บิ๊กโฮม คอนกรีต จำกัด","owner":"บริษัท บิ๊กโฮม คอนกรีต จำกัด","displayRegistration":"จ3-58(1)-139/58ลย","province":"เลย","district":"นาด้วง","subdistrict":"ท่าสะอาด","industryType":"ผลิตคอนกรีตผสมเสร็จ","status":"ดำเนินกิจการ","lat":17.38185,"lon":101.74198},"20420000225595":{"id":"20420000225595","name":"ห้างหุ้นส่วนจำกัด อาร์.ซี.เค. 33","owner":"นายรัชกฤตณ์ โภคานิตย์","displayRegistration":"จ2-9(6)-2/59ลย","province":"เลย","district":"ท่าลี่","subdistrict":"หนองผือ","industryType":"ทำมันเส้น สีข้าวโพด","status":"ดำเนินกิจการ","lat":17.670056,"lon":101.420209},"20420000225579":{"id":"20420000225579","name":"ห้างหุ้นส่วนจำกัด สุทัศน์รุ่งเรือง","owner":"ห้างหุ้นส่วนจำกัด สุทัศน์รุ่งเรือง","displayRegistration":"จ3-2(2)-2/57ลย","province":"เลย","district":"ท่าลี่","subdistrict":"หนองผือ","industryType":"สีข้าวโพด ทำมันเส้น","status":"ดำเนินกิจการ","lat":17.696314,"lon":101.416145},"20420010625578":{"id":"20420010625578","name":"เมย์เฟอร์นิเจอร์","owner":"นางสาวเมธินี ชำนาญ","displayRegistration":"จ3-37-106/57ลย","province":"เลย","district":"วังสะพุง","subdistrict":"ปากปวน","industryType":"ทำเครื่องเรือนจากไม้","status":"ดำเนินกิจการ","lat":17.369208,"lon":101.721129},"20420002125595":{"id":"20420002125595","name":"บริษัท จ.เจริญมาร์เก็ตติ้ง จำกัด","owner":"บริษัท จ.เจริญมาร์เก็ตติ้ง จำกัด","displayRegistration":"จ3-89-21/59ลย","province":"เลย","district":"เชียงคาน","subdistrict":"ธาตุ","industryType":"ผลิตก๊าซชีวภาพ","status":"ดำเนินกิจการ","lat":17.690504,"lon":101.741305},"20420000425609":{"id":"20420000425609","name":"ผาวังพารา","owner":"บริษัท ผาวังพารา จำกัด","displayRegistration":"จ3-52(2)-4/60ลย","province":"เลย","district":"นาด้วง","subdistrict":"นาด้วง","industryType":"ผลิตยางพารารีดแผ่น","status":"ดำเนินกิจการ","lat":17.485408,"lon":101.942079},"30420000125439":{"id":"30420000125439","name":"ชาญยุทธการศิลาเลย","owner":"บริษัท ชาญยุทธการศิลาเลย จำกัด","displayRegistration":"ธ3-3(1)-1/43ลย","province":"เลย","district":"เอราวัณ","subdistrict":"เอราวัณ","industryType":"โม่บดย่อยหิน","status":"ดำเนินกิจการ","lat":17.48999,"lon":101.73937},"20420031425578":{"id":"20420031425578","name":"นาซ่าวคอนกรีต","owner":"ห้างหุ้นส่วนจำกัด นาซ่า คอนกรีต","displayRegistration":"จ3-58(1)-314/57ลย","province":"เลย","district":"วังสะพุง","subdistrict":"โคกขมิ้น","industryType":"ผลิตคอนกรีตผสมเสร็จ และผลิตภัณฑ์คอนกรีต เช่น แผ่นพื้น, ท่ออัดแรง, เสาเข็ม, เสาคอนกรีต","status":"ดำเนินกิจการ","lat":17.171545,"lon":101.835559},"10420000225571":{"id":"10420000225571","name":"บริษัท น้ำตาลขอนแก่น จำกัด (มหาชน) (สาขาวังสะพุง)","owner":"บริษัท น้ำตาลขอนแก่น จำกัด (มหาชน)","displayRegistration":"3-11(3)-2/57ลย","province":"เลย","district":"วังสะพุง","subdistrict":"หนองหญ้าปล้อง","industryType":"ผลิตน้ำตาลทรายดิบและน้ำตาลทรายขาว กำลังการผลิต 24,000 ตันอ้อย/วัน","status":"ดำเนินกิจการ","lat":17.28033,"lon":101.857862},"20420002725584":{"id":"20420002725584","name":"น้ำแข็งครัวเธค","owner":"นายพิชิต รกชัฏ","displayRegistration":"จ3-14-27/58ลย","province":"เลย","district":"ผาขาว","subdistrict":"โนนปอแดง","industryType":"ผลิตน้ำแข็งหลอด","status":"ดำเนินกิจการ","lat":17.068148,"lon":102.020672},"20420101825582":{"id":"20420101825582","name":"บริษัท สินทรัพย์อนันต์ จำกัด","owner":"บริษัท สินทรัพย์อนันต์ จำกัด","displayRegistration":"จ3-50(4)-18/58ลย","province":"เลย","district":"วังสะพุง","subdistrict":"ผาน้อย","industryType":"ผลิตแอสฟัลต์ติคคอนกรีต","status":"ดำเนินกิจการ","lat":17.3281833915722,"lon":101.8399610332},"20420011225584":{"id":"20420011225584","name":"บิ๊กเอสคอนกรีต","owner":"นายสุเมธ โต๊ะขวัญแก้ว","displayRegistration":"จ3-58(1)-112/58ลย","province":"เลย","district":"ปากชม","subdistrict":"ปากชม","industryType":"ผลิตคอนกรีตผสมเสร็จ","status":"ดำเนินกิจการ","lat":17.86897,"lon":101.918202},"30420000125553":{"id":"30420000125553","name":"บริษํท ไจแอนท์ ร็อค 1990 จำกัด สาขา 2","owner":"บริษัท ไจแอนท์ ร็อค 1990 จำกัด","displayRegistration":"ธ3-3(1)-1/55ลย","province":"เลย","district":"เอราวัณ","subdistrict":"เอราวัณ","industryType":"โม่ บด หรือย่อยหิน","status":"ดำเนินกิจการ","lat":17.398077,"lon":101.87542},"30420000225452":{"id":"30420000225452","name":"บริษัท สหศิลาเลย จำกัด","owner":"บริษัท สหศิลาเลย จำกัด","displayRegistration":"ธ3-3(1)-2/45ลย","province":"เลย","district":"วังสะพุง","subdistrict":"ผาน้อย","industryType":"โม่ บด หรือย่อยหิน","status":"ดำเนินกิจการ","lat":17.333668,"lon":101.844191},"20420100225610":{"id":"20420100225610","name":"-","owner":"นายอรรคพล ทองปั้น","displayRegistration":"จ2-52(2)-2/61ลย","province":"เลย","district":"นาด้วง","subdistrict":"ท่าสวรรค์","industryType":"ผลิตยางรีดแผ่น","status":"ดำเนินกิจการ","lat":17.424317,"lon":101.955222},"20420000625588":{"id":"20420000625588","name":"บริษัท วัน พลัส รับเบอร์ จำกัด","owner":"บริษัท วัน พลัส รับเบอร์ จำกัด","displayRegistration":"จ3-52(2)-6/58ลย","province":"เลย","district":"เมืองเลย","subdistrict":"น้ำสวย","industryType":"ยางรีดแผ่น","status":"ดำเนินกิจการ","lat":17.641523,"lon":101.835472},"20420006025601":{"id":"20420006025601","name":"-","owner":"นางลำพูล โพธิ์งาม","displayRegistration":"จ3-14-60/60ลย","province":"เลย","district":"ด่านซ้าย","subdistrict":"นาหอ","industryType":"โรงงานผลิตน้ำแข็ง","status":"ดำเนินกิจการ","lat":17.539269,"lon":101.970298},"20420100725601":{"id":"20420100725601","name":"แสงทองการเกษตร","owner":"นายวศิน แสงทอง","displayRegistration":"จ3-52(2)-7/60ลย","province":"เลย","district":"นาด้วง","subdistrict":"นาด้วง","industryType":"ผลิตยางพารารีดแผ่น","status":"ดำเนินกิจการ","lat":17.463683,"lon":101.998891},"20420002825590":{"id":"20420002825590","name":"ห้างหุ้นส่วนจำกัด สองฝั่งโขง 2016","owner":"ห้างหุ้นส่วนจำกัด สองฝั่งโขง 2016","displayRegistration":"จ3-2(5)-28/59ลย","province":"เลย","district":"ปากชม","subdistrict":"ปากชม","industryType":"การเก็บรักษาหรือลำเลียงพืช เมล็ดพืชหรือผลิตผลจากพืชในโกดัง","status":"ดำเนินกิจการ","lat":18.008052,"lon":101.886138},"20420000325619":{"id":"20420000325619","name":"ห้างหุ้นส่วนจำกัด พิริยะรุ่งเรืองกิจ","owner":"ห้างหุ้นส่วนจำกัด พิริยะรุ่งเรืองกิจ","displayRegistration":"จ3-2(5)-3/61ลย","province":"เลย","district":"ภูกระดึง","subdistrict":"ผานกเค้า","industryType":"เก็บรักษามันสำปะหลังและข้าวโพดในโกดัง","status":"ดำเนินกิจการ","lat":16.845865,"lon":101.955007},"20420000225603":{"id":"20420000225603","name":"สหพิพัฒน์ (เลย)","owner":"นายพิพัฒน์ สุวรรณชาติ","displayRegistration":"จ3-2(5)-2/60ลย","province":"เลย","district":"ด่านซ้าย","subdistrict":"โพนสูง","industryType":"เก็บรักษาหรือลำเลียงพืช เมล็ดพืช หรือผลผลิตจากพืชในไซโล โกดัง หรือคลังสินค้า และทำมันเส้น","status":"ดำเนินกิจการ","lat":17.287819,"lon":101.243055},"20420006525584":{"id":"20420006525584","name":"ท่าทรายรุ่งเรือง","owner":"นางรัตนาพร ภูวศรี","displayRegistration":"จ3-3(4)-65/58ลย","province":"เลย","district":"เชียงคาน","subdistrict":"ปากตม","industryType":"ดูดทราย","status":"ดำเนินกิจการ","lat":17.855055,"lon":101.584468},"20420001325576":{"id":"20420001325576","name":"ห้างหุ้นส่วนจำกัด นายเชียง","owner":"ห้างหุ้นส่วนจำกัด นายเชียง","displayRegistration":"จ3-4(3)-13/57ลย","province":"เลย","district":"วังสะพุง","subdistrict":"ศรีสงคราม","industryType":"ทำลูกชิ้น","status":"ดำเนินกิจการ","lat":17.270348,"lon":101.765643},"20420003025596":{"id":"20420003025596","name":"สุวิทย์พืชผล","owner":"นายสุวิทย์ อาจแก้ว","displayRegistration":"จ3-2(5)-30/59ลย","province":"เลย","district":"เมืองเลย","subdistrict":"น้ำสวย","industryType":"เก็บสินค้าการเกษตรในโกดัง เช่น มันสำปะหลัง ข้าวโพด ถั่วเหลือง เป็นต้น","status":"ดำเนินกิจการ","lat":17.622756,"lon":101.829534},"20420009225570":{"id":"20420009225570","name":"เอราวัณน้ำแข็งหลอด","owner":"นางสาวปาลิดา หมื่นวิเศษ","displayRegistration":"จ3-14-92/57ลย","province":"เลย","district":"เอราวัณ","subdistrict":"ผาอินทร์แปลง","industryType":"ผลิตน้ำแข้งหลอด","status":"ดำเนินกิจการ","lat":17.30724,"lon":101.973161},"20420000725586":{"id":"20420000725586","name":"โรงน้ำแข็งไทยอนันต์","owner":"ห้างหุ้นส่วนจำกัด ไทยอนันต์บริการ","displayRegistration":"จ3-14-7/58ลย","province":"เลย","district":"วังสะพุง","subdistrict":"ศรีสงคราม","industryType":"ผลิตน้ำแข็งหลอด พร้อมจำหน่าย","status":"ดำเนินกิจการ","lat":17.291986,"lon":101.774343},"20420200125447":{"id":"20420200125447","name":"โรงงานคอนกรีตผสมเสร็จ วังสะพุง","owner":"บริษัท จิตรัตน์พัฒนา จำกัด","displayRegistration":"จ3-58(1)-1/44ลย","province":"เลย","district":"วังสะพุง","subdistrict":"ศรีสงคราม","industryType":"ผลิตคอนกรีตผสมเสร็จ","status":"ดำเนินกิจการ","lat":17.26516,"lon":101.77315},"20420031225572":{"id":"20420031225572","name":"บริษัท นาซ่า ซีแพค ภูกระดึง จำกัด","owner":"บริษัท นาซ่า ซีแพค ภูกระดึง จำกัด","displayRegistration":"จ3-58(1)-312/57ลย","province":"เลย","district":"ภูกระดึง","subdistrict":"ห้วยส้ม","industryType":"ผลิตคอนกรีตผสมเสร็จ","status":"ดำเนินกิจการ","lat":16.8917591037541,"lon":101.9128947676},"20420000425583":{"id":"20420000425583","name":"โรงลูกชิ้นเก้าเฮง","owner":"นายกิตติ ทับเอี่ยม","displayRegistration":"จ3-4(3)-4/58ลย","province":"เลย","district":"วังสะพุง","subdistrict":"วังสะพุง","industryType":"ทำลูกชิ้น","status":"ดำเนินกิจการ","lat":17.298925,"lon":101.772653},"30420000125538":{"id":"30420000125538","name":"บริษัท บำรุงเทพการศิลา จำกัด","owner":"บริษัท บำรุงเทพการศิลา จำกัด","displayRegistration":"ธ3-3(1)-1/53ลย","province":"เลย","district":"เอราวัณ","subdistrict":"ทรัพย์ไพวัลย์","industryType":"โม่ บด หรือย่อยหิน","status":"ดำเนินกิจการ","lat":17.383711,"lon":101.889513},"20420100125596":{"id":"20420100125596","name":"โกสั้มการยาง(ปากชม)","owner":"นายธนารักษ์ เกียงเอีย","displayRegistration":"จ3-52(2)-1/59ลย","province":"เลย","district":"ปากชม","subdistrict":"ปากชม","industryType":"ผลิตยางพารารีดแผ่น","status":"ดำเนินกิจการ","lat":17.864587,"lon":101.920606},"20420000325452":{"id":"20420000325452","name":"ท่าทรายงาม","owner":"นางสาววิภาวี สุพรหมจักร","displayRegistration":"จ3-3(2)-3/45ลย","province":"เลย","district":"เชียงคาน","subdistrict":"ปากตม","industryType":"ขุดลอกทรายแม่น้ำโขง และดูดทรายน้ำโขง","status":"ดำเนินกิจการ","lat":17.86397,"lon":101.57741},"20420003125560":{"id":"20420003125560","name":"เก่งคอนกรีต","owner":"นายอุเทน มั่นเข็มทอง","displayRegistration":"จ3-58(1)-31/56ลย","province":"เลย","district":"ด่านซ้าย","subdistrict":"ด่านซ้าย","industryType":"ผลิตคอนกรีตผสมเสร็จ","status":"ดำเนินกิจการ","lat":17.2782912795399,"lon":101.161404091},"20420020925612":{"id":"20420020925612","name":"บริษัท จ.เจริญเอ็นเนอร์จี่ จำกัด","owner":"บริษัท จ.เจริญเอ็นเนอร์จี่ จำกัด","displayRegistration":"จ3-89-7/61ลย","province":"เลย","district":"เชียงคาน","subdistrict":"ธาตุ","industryType":"ผลิตก๊าซชีวภาพจากกากมันสำปะหลัง","status":"ดำเนินกิจการ","lat":17.695122,"lon":101.739619},"10420000125334":{"id":"10420000125334","name":"บริษัท ธรีพลัส อะโกร จำกัด","owner":"บริษัท ธรีพลัส อะโกร จำกัด","displayRegistration":"3-2(1)-1/33ลย","province":"เลย","district":"วังสะพุง","subdistrict":"ศรีสงคราม","industryType":"อบเมล็ดพืช","status":"ดำเนินกิจการ","lat":17.30107,"lon":101.77866},"20420100125364":{"id":"20420100125364","name":"บริษัท เจริญชัยวัสดุกิจ จำกัด","owner":"บริษัท เจริญชัยวัสดุกิจ จำกัด","displayRegistration":"จ3-58(1)-1/36ลย","province":"เลย","district":"เมืองเลย","subdistrict":"กุดป่อง","industryType":"ทำผลิตภัณฑ์คอนกรีต","status":"ดำเนินกิจการ","lat":17.4893,"lon":101.73901},"20420001125604":{"id":"20420001125604","name":"บริษัท พีเอส. สตีลเซ็นเตอร์ จำกัด","owner":"บริษัท พีเอส. สตีลเซ็นเตอร์ จำกัด","displayRegistration":"จ3-64(13)-11/60ลย","province":"เลย","district":"วังสะพุง","subdistrict":"ปากปวน","industryType":"แปรรูปผลิตภัณฑ์เหล็ก การกลึง เจาะ คว้าน กัด ไส เจียรหรือเชื่อมโลหะทั่วไป","status":"ดำเนินกิจการ","lat":17.34078,"lon":101.755952},"20420015925551":{"id":"20420015925551","name":"บริษัท เจ แอนด์ ที อะกรีน จำกัด","owner":"บริษัท เจ แอนด์ ที อะกรีน จำกัด","displayRegistration":"จ3-9(6)-159/55ลย","province":"เลย","district":"ท่าลี่","subdistrict":"อาฮี","industryType":"ทำมันเส้น","status":"ดำเนินกิจการ","lat":17.638379,"lon":101.355788},"10420000125276":{"id":"10420000125276","name":"ห้างหุ้นส่วนจำกัด สหการน้ำแข็งเลย","owner":"ห้างหุ้นส่วนจำกัด สหการน้ำแข็งเลย","displayRegistration":"3-14-1/27ลย","province":"เลย","district":"เมืองเลย","subdistrict":"กุดป่อง","industryType":"ผลิตน้ำแข็งก้อนเล็ก","status":"ดำเนินกิจการ","lat":17.47522,"lon":101.72386},"10420008825547":{"id":"10420008825547","name":"บริษัท โซล่า เพาเวอร์ (เลย1) จำกัด","owner":"บริษัท โซล่า เพาเวอร์ (เลย1) จำกัด","displayRegistration":"3-88-88/54ลย","province":"เลย","district":"วังสะพุง","subdistrict":"หนองหญ้าปล้อง","industryType":"ผลิตพลังงานไฟฟ้าจากเซลล์แสงอาทิตย์","status":"ดำเนินกิจการ","lat":17.303782,"lon":101.848359},"20420020325524":{"id":"20420020325524","name":"บริษัท โค้วยู่ฮะมอเตอร์ จำกัด สาขา ด่านซ้าย","owner":"บริษัท โค้วยู่ฮะมอเตอร์ จำกัด","displayRegistration":"จ3-95(1)-203/52ลย","province":"เลย","district":"ด่านซ้าย","subdistrict":"ด่านซ้าย","industryType":"ซ่อมรถยนต์","status":"ดำเนินกิจการ","lat":17.276357,"lon":101.16097},"20420000425450":{"id":"20420000425450","name":"ท่าทรายงาม","owner":"นางสุพัตรา สุพรหมจักร","displayRegistration":"จ3-3(2)-4/45ลย","province":"เลย","district":"เชียงคาน","subdistrict":"ปากตม","industryType":"ขุดลอกทรายแม่น้ำโขง","status":"ดำเนินกิจการ","lat":17.85885,"lon":101.57959},"20420013025586":{"id":"20420013025586","name":"บริษัท ดี.แอนด์.มายด์ จำกัด","owner":"บริษัท ดี.แอนด์.มายด์ จำกัด","displayRegistration":"จ3-58(1)-130/58ลย","province":"เลย","district":"เชียงคาน","subdistrict":"เชียงคาน","industryType":"ผลิตคอนกรีตผสมเสร็จ","status":"ดำเนินกิจการ","lat":17.900833,"lon":101.684791},"20420100425582":{"id":"20420100425582","name":"พันธ์ทิพย์พาณิชย์","owner":"นางพรรณทิพย์ บุตรเต","displayRegistration":"จ3-52(2)-4/58ลย","province":"เลย","district":"เมืองเลย","subdistrict":"นาดินดำ","industryType":"ยางรีดแผ่น","status":"ดำเนินกิจการ","lat":17.564262,"lon":101.696275},"20420000325585":{"id":"20420000325585","name":"จิตรัตน์ยางพารา","owner":"บริษัทจิตรัตน์ยางพาราจำกัด","displayRegistration":"จ3-52(2)-3/58ลย","province":"เลย","district":"วังสะพุง","subdistrict":"หนองหญ้าปล้อง","industryType":"การหั่น ผสม รีดให้เป็นแผ่นหรือตัดแผ่นยางธรรมชาติ","status":"ดำเนินกิจการ","lat":17.300473,"lon":101.832164},"10420000125417":{"id":"10420000125417","name":"บริษัท จ.เจริญมาร์เก็ตติ้ง จำกัด","owner":"บริษัท จ.เจริญมาร์เก็ตติ้ง จำกัด","displayRegistration":"3-9(2)-1/41ลย","province":"เลย","district":"เชียงคาน","subdistrict":"ธาตุ","industryType":"ผลิตแป้งมันสำปะหลัง","status":"ดำเนินกิจการ","lat":17.69401971,"lon":101.741373},"60420000125580":{"id":"60420000125580","name":"นาวังพารา","owner":"นายพิศาล กฐินทอง","displayRegistration":"อ2-52(2)-1/58ลย","province":"เลย","district":"เมืองเลย","subdistrict":"นาดินดำ","industryType":"ทำยางรีดแผ่น","status":"ดำเนินกิจการ","lat":17.567124,"lon":101.679921},"20420210625642":{"id":"20420210625642","name":"บริษัท ลิตเติ้ล บัตเตอร์ฟลาย จำกัด","owner":"บริษัท ลิตเติ้ล บัตเตอร์ฟลาย จำกัด","displayRegistration":"จ2-12(11)-5/64ลย","province":"เลย","district":"ด่านซ้าย","subdistrict":"โป่ง","industryType":"ทำไอศกรีม","status":"ดำเนินกิจการ","lat":17.1782,"lon":101.160393},"20420318525629":{"id":"20420318525629","name":"ไกลทิตย์เฟอร์นิเจอร์","owner":"นายไกลทิตย์ แสนแก้ว","displayRegistration":"จ3-37-93/62ลย","province":"เลย","district":"วังสะพุง","subdistrict":"ปากปวน","industryType":"ทำเครื่องเรือนหรือเครื่องตบแต่งภายในอาคารจากไม้","status":"ดำเนินกิจการ","lat":17.376522,"lon":101.744437},"20420253525626":{"id":"20420253525626","name":"ธนวัฒน์ยางพารา","owner":"นางจินตนา สอนดี","displayRegistration":"จ3-52(2)-5/62ลย","province":"เลย","district":"นาด้วง","subdistrict":"นาดอกคำ","industryType":"ผลิตยางพารารีดแผ่น","status":"ดำเนินกิจการ","lat":17.536449,"lon":101.990814},"60420161725640":{"id":"60420161725640","name":"บริษัท เลยรวมช่าง (1987)จำกัด","owner":"บริษัทเลยรวมช่าง(1987)จำกัด","displayRegistration":"อ2-64(13)-117/64ลย","province":"เลย","district":"เมืองเลย","subdistrict":"กุดป่อง","industryType":"กลึงและเชื่อมโลหะ","status":"ดำเนินกิจการ","lat":17.485065,"lon":101.722719},"20420196625632":{"id":"20420196625632","name":"บริษัท เอแอนด์โอ คอนสตรัคชั่น ดีเวลล็อปเมนท์ จำกัด","owner":"บริษัท เอแอนด์โอ คอนสตรัคชั่น ดีเวลล็อปเมนท์ จำกัด","displayRegistration":"จ3-50(4)-87/63ลย","province":"เลย","district":"วังสะพุง","subdistrict":"ผาน้อย","industryType":"โรงงานผลิตแอสฟัลท์ติกคอนกรีต","status":"ดำเนินกิจการ","lat":17.340512249915,"lon":101.8455686957},"20420036725642":{"id":"20420036725642","name":"บริษัท ดี.แอนด์.มายด์ จำกัด","owner":"บริษัท ดี.แอนด์.มายด์ จำกัด","displayRegistration":"จ3-50(4)-3/64ลย","province":"เลย","district":"วังสะพุง","subdistrict":"ผาน้อย","industryType":"ผลิตแอสฟัลต์ติกคอนกรีต","status":"ดำเนินกิจการ","lat":17.3358524,"lon":101.8425065},"20420249325636":{"id":"20420249325636","name":"บริษัท โตโยต้าเมืองเลย จำกัด (สาขาวังสะพุง)","owner":"บริษัท โตโยต้าเมืองเลย จำกัด","displayRegistration":"จ3-95(1)-74/63ลย","province":"เลย","district":"วังสะพุง","subdistrict":"ศรีสงคราม","industryType":"ศูนย์บริการซ่อมรถยนต์","status":"ดำเนินกิจการ","lat":17.295664,"lon":101.777976},"20420170325647":{"id":"20420170325647","name":"นายมนตรี ขะพินิจ","owner":"นายมนตรี ขะพินิจ","displayRegistration":"จ2-9(6)-13/64ลย","province":"เลย","district":"วังสะพุง","subdistrict":"หนองงิ้ว","industryType":"ทำมันเส้น","status":"ดำเนินกิจการ","lat":17.380053,"lon":101.58932},"20420170525642":{"id":"20420170525642","name":"นางสาวจิตนิภา มหาดไทย","owner":"นางสาวจิตนิภา มหาดไทย","displayRegistration":"จ2-63(2)-96/64ลย","province":"เลย","district":"ท่าลี่","subdistrict":"หนองผือ","industryType":"ผลิตหลังคาเหล็ก เช่น เมททัลชีส","status":"ดำเนินกิจการ","lat":17.711911,"lon":101.429463},"60420169725642":{"id":"60420169725642","name":"นายบุญธรรม แสนจักร์","owner":"นายบุญธรรม แสนจักร์","displayRegistration":"อ2-9(6)-12/64ลย","province":"เลย","district":"ปากชม","subdistrict":"เชียงกลม","industryType":"ทำมันเส้นและสีข้าวโพด","status":"ดำเนินกิจการ","lat":17.786331,"lon":101.945096},"20420100625611":{"id":"20420100625611","name":"ต้นตาลพารา","owner":"นางพัฒนาศิตา เพชรจันทร์ศรี","displayRegistration":"จ3-52(2)-6/61ลย","province":"เลย","district":"นาด้วง","subdistrict":"นาด้วง","industryType":"ผลิตยางรีดแผ่น","status":"ดำเนินกิจการ","lat":17.460164,"lon":101.998159},"20420318725625":{"id":"20420318725625","name":"บริษัท ซี.ซี.คอนกรีต จำกัด","owner":"บริษัท ซี.ซี.คอนกรีต จำกัด","displayRegistration":"จ2-58(1)-12/62ลย","province":"เลย","district":"เชียงคาน","subdistrict":"เชียงคาน","industryType":"ผลิตคอนกรีตผสมเสร็จ","status":"ดำเนินกิจการ","lat":17.763246,"lon":101.689275},"60420169925648":{"id":"60420169925648","name":"นางสาวสุพรรณี พัฒนกิจชัยกุล","owner":"ห้างหุ้นส่วนจำกัดปากชมวัสดุและคอนกรีต","displayRegistration":"อ2-58(1)-90/64ลย","province":"เลย","district":"ปากชม","subdistrict":"ปากชม","industryType":"ผลิตคอนกรีตผสมเสร็จ","status":"ดำเนินกิจการ","lat":18.024304,"lon":101.872142},"20420170225649":{"id":"20420170225649","name":"นางสาวศิริอร มีแพง","owner":"นางสาวศิริอร มีแพง","displayRegistration":"จ2-58(1)-91/64ลย","province":"เลย","district":"ปากชม","subdistrict":"ปากชม","industryType":"ผลิตคอนกรีตผสมเสร็จ","status":"ดำเนินกิจการ","lat":17.991559,"lon":101.885881},"20420173425642":{"id":"20420173425642","name":"ทวีพืชผล","owner":"นางรัศมี พรหมภักดี","displayRegistration":"จ2-9(6)-14/64ลย","province":"เลย","district":"เมืองเลย","subdistrict":"นาแขม","industryType":"ทำมันเส้น","status":"ดำเนินกิจการ","lat":17.705561,"lon":101.707316},"60420162425646":{"id":"60420162425646","name":"มนตรีพาณิชย์","owner":"นายสมพงษ์ เขตมนตรี","displayRegistration":"อ2-9(6)-8/64ลย","province":"เลย","district":"เอราวัณ","subdistrict":"เอราวัณ","industryType":"ทำมันเส้น","status":"ดำเนินกิจการ","lat":17.318137,"lon":101.912368},"60420169425649":{"id":"60420169425649","name":"นายตันตระกูล รามศิริ","owner":"นายตันตระกูล รามศิริ","displayRegistration":"อ2-58(1)-89/64ลย","province":"เลย","district":"เมืองเลย","subdistrict":"นาโป่ง","industryType":"ผลิตอิฐบล็อคและผลิตภัณฑ์คอนกรีต","status":"ดำเนินกิจการ","lat":17.388261,"lon":101.739337},"30420174525638":{"id":"30420174525638","name":"ห้างหุ้นส่วนจำกัด บุญยงค์กิจ(เลย)","owner":"ห้างหุ้นส่วนจำกัด บุญยงค์กิจ(เลย)","displayRegistration":"ธ3-3(1)-2/63ลย","province":"เลย","district":"วังสะพุง","subdistrict":"ผาน้อย","industryType":"โม่ บด ย่อยหิน","status":"ดำเนินกิจการ","lat":17.3377507427855,"lon":101.8374646662},"20420249425634":{"id":"20420249425634","name":"บริษัท โตโยต้าเมืองเลย จำกัด (สาขาด่านซ้าย)","owner":"บริษัท โตโยต้าเมืองเลย จำกัด","displayRegistration":"จ3-95(1)-75/63ลย","province":"เลย","district":"ด่านซ้าย","subdistrict":"ด่านซ้าย","industryType":"ศูนย์บริการซ่อมแซมรถยนต์และเคาะพ่นสีรถยนต์","status":"ดำเนินกิจการ","lat":17.279087,"lon":101.165998},"60420088025644":{"id":"60420088025644","name":"ห้างหุ้นส่วนจำกัด ยู.ดี.อุตสาหกรรมพลาสติก","owner":"ห้างหุ้นส่วนจำกัด ยู.ดี.อุตสาหกรรมพลาสติก","displayRegistration":"อ2-53(4)-22/64ลย","province":"เลย","district":"เมืองเลย","subdistrict":"กุดป่อง","industryType":"ทำผลิตภัณฑ์จากพลาสติก","status":"ดำเนินกิจการ","lat":17.500076,"lon":101.723962},"20420002225486":{"id":"20420002225486","name":"ห้างหุ้นส่วนจำกัด ป.ศรีวิไลลักษณ์","owner":"ห้างหุ้นส่วนจำกัด ป.ศรีวิไลลักษณ์","displayRegistration":"จ3-50(4)-22/48ลย","province":"เลย","district":"เอราวัณ","subdistrict":"เอราวัณ","industryType":"ทำแอสฟัลท์ติกคอนกรีต","status":"ดำเนินกิจการ","lat":17.36814,"lon":101.88265},"20420042725651":{"id":"20420042725651","name":"บริษัท เอสพีซี เอเชีย จำกัด","owner":"บริษัท เอสพีซี เอเชีย จำกัด","displayRegistration":"จ3-95(1)-16/65ลย","province":"เลย","district":"เมืองเลย","subdistrict":"กุดป่อง","industryType":"ซ่อมแซมรถยนต์ รถพ่วง ยานที่ขับเคลื่อนด้วยเครื่องยนต์หรืออุปกรณ์ต่อพ่วงและส่วนประกอบต่างๆ","status":"ดำเนินกิจการ","lat":17,"lon":101},"20420097725655":{"id":"20420097725655","name":"เอสเอ็น เอ็นจิเนียรริ่ง","owner":"นางสาว","displayRegistration":"จ2-64(13)-4/65ลย","province":"เลย","district":"เมืองเลย","subdistrict":"นาแขม","industryType":"กลึง เจาะ คว้าน กัด ไส หรือเชื่อมโลหะทั่วไป","status":"ดำเนินกิจการ","lat":17.698426,"lon":101.69774},"20420136625650":{"id":"20420136625650","name":"-","owner":"นางสาวกัญญ์พชิรา ความดี","displayRegistration":"จ2-14-1/65ลย","province":"เลย","district":"เมืองเลย","subdistrict":"ศรีสองรัก","industryType":"ทำน้ำแข็ง","status":"ดำเนินกิจการ","lat":17.623651,"lon":101.704645},"20420136725658":{"id":"20420136725658","name":"-","owner":"นางสาวกัญญ์พชิรา ความดี","displayRegistration":"จ2-20(1)-4/65ลย","province":"เลย","district":"เมืองเลย","subdistrict":"ศรีสองรัก","industryType":"ทำน้ำดื่ม","status":"ดำเนินกิจการ","lat":17.623651,"lon":101.704645},"10420001525573":{"id":"10420001525573","name":"บริษัท เจริญโภคภัณฑ์การเกษตร จำกัด","owner":"บริษัท เจริญโภคภัณฑ์การเกษตร จำกัด","displayRegistration":"3-52(3)-15/57ลย","province":"เลย","district":"วังสะพุง","subdistrict":"ปากปวน","industryType":"การทำยางเครป ยางแท่ง ยางคอมปาวด์","status":"ดำเนินกิจการ","lat":17.3614803887422,"lon":101.708873126863},"40420006325577":{"id":"40420006325577","name":"บริษัท มิตรผล ไบโอ-เพาเวอร์ (ภูหลวง) จำกัด","owner":"บริษัท มิตรผล ไบโอ-เพาเวอร์ (ภูหลวง) จำกัด","displayRegistration":"3-88-63/57ลย","province":"เลย","district":"วังสะพุง","subdistrict":"โคกขมิ้น","industryType":"ผลิตไฟฟ้าและไอน้ำ","status":"ดำเนินกิจการ","lat":16.482158,"lon":102.120075},"20420000425526":{"id":"20420000425526","name":"ห้างหุ้นส่วนจำกัด รุ่งฤทัยพาณิชย์ 2007 กรุ๊ป","owner":"ห้างหุ้นส่วนจำกัด รุ่งฤทัยพาณิชย์ 2007 กรุ๊ป","displayRegistration":"จ3-2(2)-4/52ลย","province":"เลย","district":"ท่าลี่","subdistrict":"อาฮี","industryType":"สีข้าวโพด และเก็บรักษาเมล็ดพืช หรือผลผลิตจากพืชในโกดัง","status":"ดำเนินกิจการ","lat":17.646917,"lon":101.371072},"20420000125605":{"id":"20420000125605","name":"ลานบ้านโป่ง","owner":"นายวัชรากร เชื้อบุญมี","displayRegistration":"จ3-2(5)-1/60ลย","province":"เลย","district":"ด่านซ้าย","subdistrict":"โป่ง","industryType":"การเก็บรักษาหรือลำเลียงพืช เมล็ดพืช หรือผลผลิตจากพืช","status":"ดำเนินกิจการ","lat":17.171588,"lon":101.164981},"20420003425507":{"id":"20420003425507","name":"NULL","owner":"นางสุพรรณ สาลาสุตา","displayRegistration":"จ3-3(2)-34/50ลย","province":"เลย","district":"เชียงคาน","subdistrict":"นาซ่าว","industryType":"ขุดตักดินลูกรัง","status":"ดำเนินกิจการ","lat":17.81761,"lon":101.66664},"20420001725569":{"id":"20420001725569","name":"จงนภา","owner":"นายบรรจง จียาศักดิ์","displayRegistration":"จ3-9(6)-17/56ลย","province":"เลย","district":"เมืองเลย","subdistrict":"เมือง","industryType":"ทำมันเส้น สีข้าวโพด","status":"ดำเนินกิจการ","lat":17.544929,"lon":101.69271},"20420010425557":{"id":"20420010425557","name":"ธนวัฒน์พืชผล","owner":"นายปรปิน สอนดี","displayRegistration":"จ3-9(6)-104/55ลย","province":"เลย","district":"นาด้วง","subdistrict":"นาดอกคำ","industryType":"ทำมันเส้น","status":"ดำเนินกิจการ","lat":17.538326,"lon":101.97058},"20420003325525":{"id":"20420003325525","name":"บริษัท โรงน้ำแข็งกิจวารี-ทิพย์วารี (เลย) จำกัด","owner":"บริษัท โรงน้ำแข็งกิจวารี-ทิพย์วารี (เลย) จำกัด","displayRegistration":"จ3-14-33/52ลย","province":"เลย","district":"วังสะพุง","subdistrict":"โคกขมิ้น","industryType":"ผลิตน้ำแข็งหลอดก้อนเล็ก","status":"ดำเนินกิจการ","lat":17.186866,"lon":101.824517},"20420100225545":{"id":"20420100225545","name":"ห้างหุ้นส่วนจำกัด ลาวรรณพาณิชย์","owner":"ห้างหุ้นส่วนจำกัด ลาวรรณพาณิชย์","displayRegistration":"จ3-50(4)-2/54ลย","province":"เลย","district":"วังสะพุง","subdistrict":"ผาน้อย","industryType":"ผลิตแอสฟัลท์ติกคอนกรีต","status":"ดำเนินกิจการ","lat":17.3379985707888,"lon":101.845133665},"20420000325593":{"id":"20420000325593","name":"ทรัพย์ไพศาลรับเบอร์ทรี","owner":"นางสาววิไลวรรณ ไพศาลวัฒนการณ์","displayRegistration":"จ3-52(2)-3/59ลย","province":"เลย","district":"ปากชม","subdistrict":"ห้วยบ่อซืน","industryType":"ผลิตยางพารารีดแผ่น","status":"ดำเนินกิจการ","lat":17.760412,"lon":101.975169},"20420000525580":{"id":"20420000525580","name":"นายไกรสร พลลาภ","owner":"นายไกรสร พลลาภ","displayRegistration":"จ3-52(2)-5/58ลย","province":"เลย","district":"วังสะพุง","subdistrict":"ทรายขาว","industryType":"ผลิตยางพารารีดแผ่น","status":"ดำเนินกิจการ","lat":17.241045,"lon":101.675685},"20420003925472":{"id":"20420003925472","name":"น้ำฮวยอิฐมอญ","owner":"นายเสณีย์ ครองตรี","displayRegistration":"จ3-56-39/47ลย","province":"เลย","district":"เชียงคาน","subdistrict":"นาซ่าว","industryType":"ผลิตอิฐจากดินเหนียว","status":"ดำเนินกิจการ","lat":17.80685,"lon":101.67384},"20420000125381":{"id":"20420000125381","name":"บริษัท ซี.ซี.คอนกรีต จำกัด","owner":"บริษัท ซี.ซี.คอนกรีต จำกัด","displayRegistration":"จ3-58(1)-1/38ลย","province":"เลย","district":"เมืองเลย","subdistrict":"นาโป่ง","industryType":"คอนกรีตผสมเสร็จ","status":"ดำเนินกิจการ","lat":17.41456,"lon":101.73128},"20420300125438":{"id":"20420300125438","name":"บริษัท แสงภูมิ จำกัด","owner":"บริษัท แสงภูมิ จำกัด","displayRegistration":"จ3-58(1)-1/43ลย","province":"เลย","district":"วังสะพุง","subdistrict":"ผาบิ้ง","industryType":"ทำผลิตภัณฑ์คอนกรีต เช่น ท่อคอนกรีตอัดแรง","status":"ดำเนินกิจการ","lat":17.25573,"lon":101.75144},"20420018625570":{"id":"20420018625570","name":"ชัยสิทธิ์อิฐบล็อค","owner":"นายคำเพียร นามผา","displayRegistration":"จ3-58(1)-186/57ลย","province":"เลย","district":"ภูหลวง","subdistrict":"ภูหอ","industryType":"ผลิตคอนกรีตผสมเสร็จ และผลิตภัณฑ์คอนกรีตทุกชนิด","status":"ดำเนินกิจการ","lat":17.164942,"lon":101.662995},"20420002825558":{"id":"20420002825558","name":"บริษัท บิ๊กโฮม เมททัล จำกัด","owner":"บริษัท บิ๊กโฮม เมททัล จำกัด","displayRegistration":"จ3-63(2)-28/55ลย","province":"เลย","district":"เมืองเลย","subdistrict":"เมือง","industryType":"ประกอบกิจการเกี่ยวกับผลิตภัณฑ์โลหะ เช่น หลังคาเมททัลชีส การตัด พับ หรือม้วนโลหะ","status":"ดำเนินกิจการ","lat":17.5165069145606,"lon":101.7235925436},"20420004625592":{"id":"20420004625592","name":"บริษัท เลย ออโต้เซลส์ จำกัด","owner":"บริษัท เลย ออโต้เซลส์ จำกัด","displayRegistration":"จ3-95(1)-46/59ลย","province":"เลย","district":"เมืองเลย","subdistrict":"นาอาน","industryType":"การซ่อมแซมรถยนต์ ศูนย์บริการ","status":"ดำเนินกิจการ","lat":17.47342,"lon":101.723757},"20420095425654":{"id":"20420095425654","name":"ห้างหุ้นส่วนจำกัด สหภัณฑ์คอนกรีต","owner":"หจก.สหภัณฑ์คอนกรีต","displayRegistration":"จ2-58(1)-14/65ลย","province":"เลย","district":"เชียงคาน","subdistrict":"เชียงคาน","industryType":"ผลิตคอนกรีตผสมเสร็จ","status":"ดำเนินกิจการ","lat":17.872341,"lon":101.654998},"20420102425655":{"id":"20420102425655","name":"บริษัท ทองมาคอนแทรคเตอร์ จำกัด","owner":"บริษัท ทองมาคอนแทรคเตอร์ จำกัด","displayRegistration":"จ3-50(4)-38/65ลย","province":"เลย","district":"วังสะพุง","subdistrict":"ศรีสงคราม","industryType":"ผลิตแอสฟัลท์ติกคอนกรีต","status":"ดำเนินกิจการ","lat":17.321425,"lon":101.794009},"20420042525655":{"id":"20420042525655","name":"ห้างหุ้นส่วนจำกัด เล็กเจริญ 999","owner":"ห้างหุ้นส่วนจำกัด เล็กเจริญ 999","displayRegistration":"จ3-63(2)-6/65ลย","province":"เลย","district":"วังสะพุง","subdistrict":"ศรีสงคราม","industryType":"ทำผลิตภัณฑ์โลหะฯ เช่น แผ่นหลังคา","status":"ดำเนินกิจการ","lat":17.25925,"lon":101.774779},"20420096125659":{"id":"20420096125659","name":"บริษัท สหกิจ แมชชีนเนอรี่ จำกัด","owner":"บริษัท สหกิจ แมชชีนเนอรี่ จำกัด","displayRegistration":"จ3-95(1)-30/65ลย","province":"เลย","district":"เมืองเลย","subdistrict":"เมือง","industryType":"ซ่อมแซมรถยนต์ รถพ่วง ยานที่ขับเคลื่อนด้วยเครื่องยนต์หรืออุปกรณ์ต่อพ่วงและส่วนประกอบต่างๆและพ่นสี","status":"ดำเนินกิจการ","lat":17.56116,"lon":101.729689}}