{"20960100125401":{"id":"20960100125401","name":"ห้างหุ้นส่วนจำกัด นราธิวาสทักษิณคอนกรีต","owner":"ห้างหุ้นส่วนจำกัด นราธิวาสทักษิณคอนกรีต","displayRegistration":"จ3-58(1)-1/40นธ","province":"นราธิวาส","district":"เมืองนราธิวาส","subdistrict":"บางนาค","industryType":"ผลิตท่อคอนกรีตอัดแรง","status":"ดำเนินกิจการ","lat":6.410073,"lon":101.839127},"10960000125305":{"id":"10960000125305","name":"ห้างหุ้นส่วนจำกัด นราธิวาสโรงโม่หิน","owner":"ห้างหุ้นส่วนจำกัด นราธิวาสโรงโม่หิน","displayRegistration":"3-3(1)-1/30นธ","province":"นราธิวาส","district":"เมืองนราธิวาส","subdistrict":"กะลุวอเหนือ","industryType":"โม่ บด ย่อยหิน","status":"ดำเนินกิจการ","lat":6.405699,"lon":101.839125},"10960000125289":{"id":"10960000125289","name":"บริษัท จตุรมิตรพัฒนา จำกัด","owner":"บริษัท จตุรมิตรพัฒนา จำกัด","displayRegistration":"3-14-1/28นธ","province":"นราธิวาส","district":"เมืองนราธิวาส","subdistrict":"บางนาค","industryType":"ทำน้ำแข็งได้วันละ 440 ซอง","status":"ดำเนินกิจการ","lat":6.411344,"lon":101.824251},"10960100125254":{"id":"10960100125254","name":"บริษัท ยางไทยปักษ์ใต้ จำกัด สาขานราธิวาส","owner":"บริษัท ยางไทยปักษ์ใต้ จำกัด","displayRegistration":"3-52(3)-1/25นธ","province":"นราธิวาส","district":"เมืองนราธิวาส","subdistrict":"ลำภู","industryType":"ทำยางแท่ง","status":"ดำเนินกิจการ","lat":6.398839,"lon":101.815447},"10960100125197":{"id":"10960100125197","name":"โรงเลื่อยจักรนราธิวาสโชคสมบูรณ์","owner":"ห้างหุ้นส่วนจำกัด โรงเลื่อยจักรนราธิวาสโชคสมบูรณ์","displayRegistration":"3-34(1)-1/19นธ","province":"นราธิวาส","district":"ระแงะ","subdistrict":"ตันหยงมัส","industryType":"เลื่อยไม้","status":"ดำเนินกิจการ","lat":6.311432,"lon":101.727445},"10960000125255":{"id":"10960000125255","name":"ห้างหุ้นส่วนจำกัด อ.สหกิจไทย","owner":"ห้างหุ้นส่วนจำกัด อ.สหกิจไทย","displayRegistration":"3-34(1)-1/25นธ","province":"นราธิวาส","district":"สุไหงโก-ลก","subdistrict":"สุไหงโก-ลก","industryType":"ไส-ซอยไม้ วงกบประตู-หน้าต่างและเครื่องเรือน","status":"หยุดชั่วคราว","lat":6.006828,"lon":101.961908},"10960000125180":{"id":"10960000125180","name":"ห้างหุ้นส่วนจำกัด โค้วน่ำฮึงสุไหงโก-ลก","owner":"ห้างหุ้นส่วนจำกัด โค้วน่ำฮึงสุไหงโก-ลก","displayRegistration":"3-34(2)-1/18นธ","province":"นราธิวาส","district":"สุไหงโก-ลก","subdistrict":"สุไหงโก-ลก","industryType":"ทำวงกบประตู หน้าต่าง ลังไม้ ไส เซาะร่องไม้และเครื่องเรือน อบและอาบน้ำยาไม้","status":"ดำเนินกิจการ","lat":6.026867,"lon":101.960232},"00960000125356":{"id":"00960000125356","name":"ห้างหุ้นส่วนจำกัด บาบูเบเกอรี่","owner":"ห้างหุ้นส่วนจำกัด บาบูเบเกอรี่","displayRegistration":"ศ3-10(1)-1/35นธ","province":"นราธิวาส","district":"สุไหงโก-ลก","subdistrict":"สุไหงโก-ลก","industryType":"ทำขนมปัง ขนมเค้ก และขนมโดนัท","status":"ดำเนินกิจการ","lat":6.021242,"lon":101.9548},"00960000125380":{"id":"00960000125380","name":"บริษัท นราพารา จำกัด","owner":"บริษัท นราพารา จำกัด","displayRegistration":"ศ3-34(1)-1/38นธ","province":"นราธิวาส","district":"รือเสาะ","subdistrict":"สาวอ","industryType":"แปรรูปไม้ยางพาราเพื่อจำหน่าย อัดน้ำยาและอบไม้","status":"ดำเนินกิจการ","lat":6.421331,"lon":101.508574},"20960000225384":{"id":"20960000225384","name":"ห้างหุ้นส่วนจำกัด เอส เอส คอนกรีต","owner":"ห้างหุ้นส่วนจำกัด เอส เอส คอนกรีต","displayRegistration":"จ3-58(1)-2/38นธ","province":"นราธิวาส","district":"สุไหงโก-ลก","subdistrict":"ปาเสมัส","industryType":"ผลิตคอนกรีตผสมเสร็จ พื้นสำเร็จรูปอัดแรง เสาเข็มอัดแรง และผลิตภัณฑ์คอนกรีต","status":"ดำเนินกิจการ","lat":6.05227,"lon":102.007131},"00960000225396":{"id":"00960000225396","name":"NULL","owner":"นายอ้วน เต็มดี","displayRegistration":"ศ3-37-2/39นธ","province":"นราธิวาส","district":"แว้ง","subdistrict":"กายูคละ","industryType":"ทำเครื่องเรือนจากไม้","status":"ดำเนินกิจการ","lat":5.970346,"lon":101.908643},"10960000125404":{"id":"10960000125404","name":"เรือนจำจังหวัดนราธิวาส","owner":"กรมราชทัณฑ์","displayRegistration":"3-37-1/40นธ","province":"นราธิวาส","district":"เมืองนราธิวาส","subdistrict":"บางนาค","industryType":"ทำเฟอร์นิเจอร์ และผลิตภัณฑ์จากไม้","status":"ดำเนินกิจการ","lat":6.424511,"lon":101.823891},"20960000325408":{"id":"20960000325408","name":"ห้างหุ้นส่วนจำกัด นราธิวาสทักษิณคอนกรีต","owner":"ห้างหุ้นส่วนจำกัด นราธิวาสทักษิณคอนกรีต","displayRegistration":"จ3-58(1)-3/40นธ","province":"นราธิวาส","district":"เมืองนราธิวาส","subdistrict":"กะลุวอเหนือ","industryType":"ผลิตคอนกรีตผสมเสร็จ","status":"ดำเนินกิจการ","lat":6.410073,"lon":101.839127},"20960000225418":{"id":"20960000225418","name":"ปิติพานิชย์","owner":"นายปิติ ฉลองวงศ์","displayRegistration":"จ3-14-2/41นธ","province":"นราธิวาส","district":"สุไหงโก-ลก","subdistrict":"สุไหงโก-ลก","industryType":"ทำน้ำแข็งหลอดและทำน้ำแข็งซอง วันละ 179 ซอง","status":"ดำเนินกิจการ","lat":6.015794,"lon":101.96063},"20960000225426":{"id":"20960000225426","name":"ศูนย์บริการ อีซูซุนราธิวาส","owner":"บริษัท ปัตตานีเจริญเทรดดิ้ง (1972)จำกัด","displayRegistration":"จ3-95(1)-2/42นธ","province":"นราธิวาส","district":"เมืองนราธิวาส","subdistrict":"บางนาค","industryType":"ซ่อมแซมยานพาหนะที่ขับเคลื่อนด้วยเครื่องยนต์","status":"ดำเนินกิจการ","lat":6.416138,"lon":101.811394},"20960100125435":{"id":"20960100125435","name":"บริษัท นราเพชรมั่นคง จำกัด","owner":"บริษัท นราเพชรมั่นคง จำกัด","displayRegistration":"จ3-14-1/43นธ","province":"นราธิวาส","district":"เมืองนราธิวาส","subdistrict":"ลำภู","industryType":"ทำน้ำดื่ม และน้ำแข็งบริโภค","status":"ดำเนินกิจการ","lat":6.407689,"lon":101.802509},"20960200125442":{"id":"20960200125442","name":"ร้านอยู่เฮงการช่าง","owner":"นายปรีชา อังตระการศิริ","displayRegistration":"จ3-95(1)-1/44นธ","province":"นราธิวาส","district":"ระแงะ","subdistrict":"ตันหยงมัส","industryType":"ซ่อมรถยนต์","status":"ดำเนินกิจการ","lat":6.291902,"lon":101.710281},"30960000125400":{"id":"30960000125400","name":"บริษัท ฝู๋ไทยคอนสตรัคชั่น จำกัด","owner":"บริษัท ฝู๋ไทยคอนสตรัคชั่น จำกัด","displayRegistration":"ธ3-3(1)-1/40นธ","province":"นราธิวาส","district":"เมืองนราธิวาส","subdistrict":"โคกเคียน","industryType":"โม บด ย่อยหิน","status":"ดำเนินกิจการ","lat":6.1599,"lon":101.7059},"10960000825474":{"id":"10960000825474","name":"ห้างหุ้นส่วนจำกัด อาหารสำเร็จรูปสุไหงโก-ลก","owner":"บริษัท อาหารสำเร็จรูปสุไหงโก-ลก จำกัด","displayRegistration":"3-10(3)-8/47นธ","province":"นราธิวาส","district":"สุไหงโก-ลก","subdistrict":"สุไหงโก-ลก","industryType":"ผลิตบะหมี่สำเร็จรูป","status":"ดำเนินกิจการ","lat":6.016654,"lon":101.96697},"20960015125470":{"id":"20960015125470","name":"บริษัท เอส.โอ.เอ็น.เอ็นจิเนียริ่ง จำกัด","owner":"บริษัท เอส.โอ.เอ็นจิเนียริ่ง จำกัด","displayRegistration":"จ3-3(2)-151/47นธ","province":"นราธิวาส","district":"เมืองนราธิวาส","subdistrict":"มะนังตายอ","industryType":"การขุดหรือลอก กรวด ทรายหรือดิน","status":"ดำเนินกิจการ","lat":6.377566,"lon":101.747756},"20960300125458":{"id":"20960300125458","name":"-","owner":"นายสมศักดิ์ วีระวัฒน์","displayRegistration":"จ3-64(13)-1/45นธ","province":"นราธิวาส","district":"เมืองนราธิวาส","subdistrict":"บางนาค","industryType":"การกลึง เจาะ คว้าน กัด ไส และเชื่อมโลหะทั่วไป","status":"ดำเนินกิจการ","lat":6.417675,"lon":101.824727},"20960003025476":{"id":"20960003025476","name":"โรงงานน้ำแข็งยินดี","owner":"นายภทรธร แช่ม","displayRegistration":"จ3-14-30/47นธ","province":"นราธิวาส","district":"ศรีสาคร","subdistrict":"ซากอ","industryType":"ทำน้ำแข็งหลอด","status":"ดำเนินกิจการ","lat":6.239277,"lon":101.500287},"10960002425513":{"id":"10960002425513","name":"T.F.R พาราวู๊ด","owner":"นายซูมกี เต็งสุรี","displayRegistration":"3-34(1)-24/51นธ","province":"นราธิวาส","district":"รือเสาะ","subdistrict":"สาวอ","industryType":"แปรรูปไม้ยางพารา และไม้ที่ปลูกขึ้นโดยเฉพาะ 13 ชนิด ตามมติคณะรัฐมนตรีเพื่อจำหน่าย","status":"ดำเนินกิจการ","lat":6.44497,"lon":101.49167},"20960004225513":{"id":"20960004225513","name":"ห้างหุ้นส่วนจำกัด พิชัยอุปกรณ์ก่อสร้าง","owner":"ห้างหุ้นส่วนจำกัด พิชัยอุกรณ์ก่อสร้าง","displayRegistration":"จ3-58(1)-42/51นธ","province":"นราธิวาส","district":"สุไหงโก-ลก","subdistrict":"สุไหงโก-ลก","industryType":"ผลิตคอนกรีตผสมเสร็จ","status":"ดำเนินกิจการ","lat":6.054189,"lon":102.013953},"20960000325515":{"id":"20960000325515","name":"สุไหงโก-ลก รีไซเคิล","owner":"ห้างหุ้นส่วนจำกัด สุไหงโก-ลก รีไซเคิล","displayRegistration":"จ3-64(11)-3/51นธ","province":"นราธิวาส","district":"สุไหงโก-ลก","subdistrict":"สุไหงโก-ลก","industryType":"การอัดเศษโลหะพร้อมกระดาษหรือวัสดุอื่น ๆ","status":"ดำเนินกิจการ","lat":6.02048,"lon":101.940637},"20960000525536":{"id":"20960000525536","name":"ท่าทรายมะนังตายอ","owner":"นายวิศิทย์ หวันหมาน","displayRegistration":"จ3-3(2)-5/53นธ","province":"นราธิวาส","district":"เมืองนราธิวาส","subdistrict":"มะนังตายอ","industryType":"การขุดหรือลอก กรวด ทรายหรือดิน","status":"ดำเนินกิจการ","lat":6.377064,"lon":101.739512},"20960004625530":{"id":"20960004625530","name":"NULL","owner":"นายสมพงษ์ เงินมาก","displayRegistration":"จ3-14-46/53นธ","province":"นราธิวาส","district":"ระแงะ","subdistrict":"บาโงสะโต","industryType":"ทำน้ำแข็ง, น้ำดื่ม","status":"ดำเนินกิจการ","lat":6.255961,"lon":101.687311},"10960001525545":{"id":"10960001525545","name":"ห้างหุ้นส่วนจำกัด มานะวณิชย์ตันหยงมัส","owner":"ห้างหุ้นส่วนจำกัด มานะวณิชย์ตันหยงมัส โดยนางจุฑารัตน์ มานะ","displayRegistration":"3-50(4)-15/54นธ","province":"นราธิวาส","district":"ระแงะ","subdistrict":"บาโงสะโต","industryType":"ผลิตแอสฟัลท์ติกคอนกรีต","status":"ดำเนินกิจการ","lat":6.28687,"lon":101.70452},"20960100525535":{"id":"20960100525535","name":"การประปาส่วนภูมิภาค สาขานราธิวาส","owner":"การประปาส่วนภูมิภาค สาขานราธิวาส","displayRegistration":"จ3-20(1)-5/53นธ","province":"นราธิวาส","district":"ระแงะ","subdistrict":"ตันหยงมัส","industryType":"ผลิต และจำหน่ายน้ำประปา","status":"ดำเนินกิจการ","lat":6.2926593,"lon":101.7364508},"20960001825547":{"id":"20960001825547","name":"โรงงานน้ำแข็งรือเสาะ","owner":"นายภทรธร แช่ม","displayRegistration":"จ3-14-18/54นธ","province":"นราธิวาส","district":"รือเสาะ","subdistrict":"รือเสาะออก","industryType":"ทำน้ำแข็งหลอด","status":"ดำเนินกิจการ","lat":6.405231,"lon":101.518575},"00960000125398":{"id":"00960000125398","name":"บริษัท นรามุทธากิจ จำกัด","owner":"บริษัท นรามุทธากิจ จำกัด","displayRegistration":"ศ3-34(1)-1/39นธ","province":"นราธิวาส","district":"ระแงะ","subdistrict":"ตันหยงมัส","industryType":"แปรรูปไม้ยางพาราเพื่อจำหน่าย อัดน้ำยา และอบไม้ยางพารา แปรรูปไม้ที่ปลูกขึ้นโดยเฉพาะ 13 ชนิดเพื่อจำหน่าย","status":"ดำเนินกิจการ","lat":6.323221,"lon":101.754408},"20960001225524":{"id":"20960001225524","name":"บริษัท สินธุ์ธนาเทค จำกัด","owner":"บริษัท สินธุ์ธนาเทค จำกัด","displayRegistration":"จ3-14-12/52นธ","province":"นราธิวาส","district":"เมืองนราธิวาส","subdistrict":"บางนาค","industryType":"ทำน้ำแข็งซอง กำลังการผลิตเพิ่มขึ้นวันละ 350 ซอง รวมกับของเดิมเป็นวันละ 800 ซอง","status":"ดำเนินกิจการ","lat":6.42446,"lon":101.830355},"10960001025538":{"id":"10960001025538","name":"โรงงานสกัดน้ำมันปาล์มสหกรณ์นิคมบาเจาะ จำกัด","owner":"สหกรณ์นิคมบาเจาะ จำกัด","displayRegistration":"3-7(1)-10/53นธ","province":"นราธิวาส","district":"เมืองนราธิวาส","subdistrict":"โคกเคียน","industryType":"สกัดน้ำมันปาล์ม","status":"ดำเนินกิจการ","lat":6.486722,"lon":101.762738},"10960002725524":{"id":"10960002725524","name":"กรมส่งเสริมอุตสาหกรรม","owner":"กรมส่งเสริมอุตสาหกรรม","displayRegistration":"3-28(1)-27/52นธ","province":"นราธิวาส","district":"รือเสาะ","subdistrict":"รือเสาะ","industryType":"ตัดเย็บเสื้อผ้าสำเร็จรูปเพื่อการส่งออก","status":"ดำเนินกิจการ","lat":6.361765,"lon":101.502172},"20960021725560":{"id":"20960021725560","name":"คอนกรีตผสมเสร็จ ยะกังทราย กรุ๊ป","owner":"ห้างหุ้นส่วนจำกัด ยะกังวิศวกรรม","displayRegistration":"จ3-58(1)-217/56นธ","province":"นราธิวาส","district":"เมืองนราธิวาส","subdistrict":"ลำภู","industryType":"ผลิตคอนกรีตผสมเสร็จ","status":"ดำเนินกิจการ","lat":6.398388,"lon":101.821182},"20960000125576":{"id":"20960000125576","name":"แมนไอศครีม","owner":"ห้างหุ้นส่วนจำกัด แมน ไอศครีม","displayRegistration":"จ3-12(11)-1/57นธ","province":"นราธิวาส","district":"สุไหงโก-ลก","subdistrict":"สุไหงโก-ลก","industryType":"ผลิตไอศกรีม","status":"ดำเนินกิจการ","lat":6.026029,"lon":101.959952},"20960000425554":{"id":"20960000425554","name":"เลาะเฟอร์นิเจอร์","owner":"นายอับดุลรอแม สะแม","displayRegistration":"จ3-34(2)-4/55นธ","province":"นราธิวาส","district":"ระแงะ","subdistrict":"ตันหยงมัส","industryType":"ทำวงกบประตู หน้าต่าง บานประตู บานหน้าต่าง เครื่องเรือน เครื่อใช้ภายในอาคาร","status":"ดำเนินกิจการ","lat":6.342913,"lon":101.700711},"20960008725567":{"id":"20960008725567","name":"ยูกี เฟอร์นิเจอร์","owner":"นายมะยากี ดือราแม","displayRegistration":"จ3-34(2)-87/56นธ","province":"นราธิวาส","district":"เมืองนราธิวาส","subdistrict":"โคกเคียน","industryType":"ทำบานประตู บานหน้าต่าง วงกบประตู วงกบหน้าต่าง เครื่องเรือน เฟอร์นิเจอร์จากไม้ทุกชนิด","status":"ดำเนินกิจการ","lat":6.474171,"lon":101.785451},"20960000525577":{"id":"20960000525577","name":"ห้างหุ้นส่วนจำกัด ฟาร์เซาท์ รับเบอร์","owner":"ห้างหุ้นส่วนจำกัด ฟาร์เซาร์ รับเบอร์","displayRegistration":"จ3-52(3)-5/57นธ","province":"นราธิวาส","district":"รือเสาะ","subdistrict":"รือเสาะ","industryType":"ยางแผ่นรมควัน","status":"ดำเนินกิจการ","lat":6.3874,"lon":101.513},"20960009125569":{"id":"20960009125569","name":"จูลีเฟอร์นิเจอร์","owner":"นายซูลกิฟลี บินยะโกะ","displayRegistration":"จ3-34(2)-91/56นธ","province":"นราธิวาส","district":"เมืองนราธิวาส","subdistrict":"โคกเคียน","industryType":"ทำวงกบประตู-หน้าต่าง บานประตู-หน้าต่าง เครื่องเรือน และเฟอร์นิเจอร์จากไม้ทุกชนิด","status":"ดำเนินกิจการ","lat":6.536946,"lon":101.738699},"20960013125563":{"id":"20960013125563","name":"บริษัท พิธานพาณิชย์ จำกัด","owner":"บริษัท พิธานพาณิชย์ จำกัด","displayRegistration":"จ3-95(1)-131/56นธ","province":"นราธิวาส","district":"เมืองนราธิวาส","subdistrict":"บางนาค","industryType":"เคาะพ่นสีรถยนต์ และล้างอัดฉีดรถยนต์","status":"ดำเนินกิจการ","lat":6.42177,"lon":101.819122},"20960005225561":{"id":"20960005225561","name":"บริษัท พัฒนาทรัพย์วู้ด จำกัด","owner":"บริษัท พัฒนาทรัพย์วู้ด จำกัด","displayRegistration":"จ3-34(2)-52/56นธ","province":"นราธิวาส","district":"สุไหงโก-ลก","subdistrict":"ปาเสมัส","industryType":"ทำวงกบประตู - หน้าต่าง บานประตู บานหน้าต่าง เครื่องเรือน เครื่องตกแต่งภายในอาคาร","status":"ดำเนินกิจการ","lat":6.051098,"lon":102.003222},"10960003725572":{"id":"10960003725572","name":"บริษัท ศรีตรังแอโกรอินดัสทรี จำกัด (มหาชน)","owner":"บริษัท ศรีตรังแอโกรอินดัสทรี จำกัด (มหาชน)","displayRegistration":"3-52(3)-37/57นธ","province":"นราธิวาส","district":"ยี่งอ","subdistrict":"ลุโบะบือซา","industryType":"ผลิตยางเครป ยางแท่งเอสทีอาร์ 20 ยางผสม","status":"ดำเนินกิจการ","lat":6.4376,"lon":101.68998},"20960016625577":{"id":"20960016625577","name":"นราทองวู้เวิร์ค","owner":"บริษัท นราทองพลัส จำกัด","displayRegistration":"จ3-34(2)-166/57นธ","province":"นราธิวาส","district":"เมืองนราธิวาส","subdistrict":"ลำภู","industryType":"ทำวงกบประตู วงกบหน้าต่าง บานประตู บานหน้าต่าง เครื่องเรือนเครื่องใช้ภายในอาคาร","status":"ดำเนินกิจการ","lat":6.408316,"lon":101.809268},"20960001425603":{"id":"20960001425603","name":"บริษัท ซัน โฟรเซ่น ฟรุ้ต จำกัด","owner":"บริษัท ซัน โฟรเซ่น ฟรุ้ต จำกัด","displayRegistration":"จ3-8(2)-14/60นธ","province":"นราธิวาส","district":"ยี่งอ","subdistrict":"ละหาร","industryType":"เกษตรแปรรูป ผลไม้แช่แข็ง เพื่อการส่งออกภายในและภายนอกประเทศ","status":"ดำเนินกิจการ","lat":6.406792,"lon":101.753274},"40960002725585":{"id":"40960002725585","name":"บริษัท ไพร์ซ ออฟ วู้ด กรีน เอนเนอร์จี จำกัด","owner":"บริษัท ไพร์ซ ออฟ วู้ด กรีน เอนเนอร์จี จำกัด","displayRegistration":"3-88(2)-27/58นธ","province":"นราธิวาส","district":"แว้ง","subdistrict":"กายูคละ","industryType":"โรงงานผลิตไฟฟ้าพลังงานชีวมวล","status":"ดำเนินกิจการ","lat":5.98099,"lon":101.93999},"20960022625595":{"id":"20960022625595","name":"อู่จรัญการช่าง","owner":"นายจรัญ อบโอ","displayRegistration":"จ3-95(1)-226/59นธ","province":"นราธิวาส","district":"สุไหงโก-ลก","subdistrict":"สุไหงโก-ลก","industryType":"เคาะพ่นสีรถยนต์","status":"ดำเนินกิจการ","lat":6.019978,"lon":101.938723},"10960004625599":{"id":"10960004625599","name":"ห้างหุ้นส่วนจำกัด อารีย์มัง เอ็นจิเนียริ่ง","owner":"ห้างหุ้นส่วนจำกัด อารีย์มัง เอ็นจิเนียริ่ง","displayRegistration":"3-50(4)-46/59นธ","province":"นราธิวาส","district":"เมืองนราธิวาส","subdistrict":"ลำภู","industryType":"ผลิตแอสฟัลต์ติกคอนกรีต","status":"ดำเนินกิจการ","lat":6.396901,"lon":101.788357},"20960000925595":{"id":"20960000925595","name":"โรงฆ่าสัตว์เทศบาลเมืองสุไหงโก-ลก","owner":"เทศบาลเมืองสุไหงโก-ลก","displayRegistration":"จ3-4(1)-9/59นธ","province":"นราธิวาส","district":"สุไหงโก-ลก","subdistrict":"สุไหงโก-ลก","industryType":"การฆ่าสัตว์","status":"ดำเนินกิจการ","lat":6.020398,"lon":101.92714},"10960000625536":{"id":"10960000625536","name":"การประปาส่วนภูมิภาค สาขานราธิวาส","owner":"การประปาส่วนภูมิภาค สาขานราธิวาส","displayRegistration":"3-20(1)-6/53นธ","province":"นราธิวาส","district":"เมืองนราธิวาส","subdistrict":"ลำภู","industryType":"ผลิต และจำหน่ายน้ำประปา","status":"ดำเนินกิจการ","lat":6.411881,"lon":101.804766},"20960000325598":{"id":"20960000325598","name":"โรงงานสกัดน้ำมันปาล์มฟาร์มตัวอย่างบ้านไอร์บือแต","owner":"พลโทอรรฐพร โบสุวรรณ โครงการพระราชดำริในสมเด็จพระนางเจ้าสิริกิติ์พระบรมราชินีนาถ","displayRegistration":"จ3-7(1)-3/59นธ","province":"นราธิวาส","district":"จะแนะ","subdistrict":"ช้างเผือก","industryType":"สลัดน้ำมันปาล์ม (25 ตันทลาย/ชม.)","status":"หยุดชั่วคราว","lat":6.051511,"lon":101.579108},"10960006625613":{"id":"10960006625613","name":"ภิญโญรีไซเคิล","owner":"นางสาวพัชนีย์ นครจันทร์","displayRegistration":"3-105-66/61นธ","province":"นราธิวาส","district":"เมืองนราธิวาส","subdistrict":"บางนาค","industryType":"คัดแยกวัสดุที่ไม่ใช้แล้วที่ไม่เป็นของเสียอันตราย","status":"ดำเนินกิจการ","lat":6.417141,"lon":101.830753},"20960002025618":{"id":"20960002025618","name":"บริษัท วัลภา เมทัลชีท จำกัด","owner":"บริษัท วัลภา เมทัลชีท จำกัด","displayRegistration":"จ3-63(2)-20/61นธ","province":"นราธิวาส","district":"ยี่งอ","subdistrict":"ละหาร","industryType":"ทำส่วนประกอบสำหรับก่อสร้างอาคาร เช่น เมทัลชีท","status":"ดำเนินกิจการ","lat":6.407246,"lon":101.779503},"40960001325619":{"id":"40960001325619","name":"บริษัท พลังงานไทยเสริมสุข จำกัด","owner":"บริษัท พลังงานไทยเสริมสุข จำกัด","displayRegistration":"3-88(2)-13/61นธ","province":"นราธิวาส","district":"เมืองนราธิวาส","subdistrict":"โคกเคียน","industryType":"ผลิตและจำหน่ายไฟฟ้าจากก๊าซชีวภาพ","status":"ดำเนินกิจการ","lat":6.481306,"lon":101.764833},"10960004825595":{"id":"10960004825595","name":"ห้างหุ้นส่วนจำกัด รุสลันโยธา","owner":"ห้างหุ้นส่วนจำกัด รุสลันโยธา","displayRegistration":"3-50(4)-48/59นธ","province":"นราธิวาส","district":"เมืองนราธิวาส","subdistrict":"ลำภู","industryType":"ผลิตแอสฟัลท์ติกคอนกรีต","status":"ดำเนินกิจการ","lat":6.382688,"lon":101.807043},"20960002625565":{"id":"20960002625565","name":"เฮมเฟอร์นิเจอร์","owner":"นายอิบรอเฮม ยูนุ","displayRegistration":"จ3-34(2)-26/56นธ","province":"นราธิวาส","district":"ระแงะ","subdistrict":"ตันหยงมัส","industryType":"ทำวงกบ ประตู หน้าต่าง เครื่องเรือน และเฟอร์นิเจอร์","status":"ดำเนินกิจการ","lat":6.331631,"lon":101.700282},"20960000225574":{"id":"20960000225574","name":"ห้างหุ้นส่วนจำกัด โชคนิธิวัฒน์ รับซื้อของเก่า","owner":"ห้างหุ้นส่วนจำกัด โชคนิธิวัฒน์ รับซื้อของเก่า","displayRegistration":"จ3-64(11)-2/57นธ","province":"นราธิวาส","district":"สุไหงโก-ลก","subdistrict":"สุไหงโก-ลก","industryType":"อัดเศษโลหะ","status":"ดำเนินกิจการ","lat":6.020536,"lon":101.955535},"20960000225376":{"id":"20960000225376","name":"บริษัท ตากใบการโยธา จำกัด","owner":"บริษัท ตากใบการโยธา จำกัด","displayRegistration":"จ3-58(1)-2/37นธ","province":"นราธิวาส","district":"แว้ง","subdistrict":"กายูคละ","industryType":"การทำผลิตภัณฑ์คอนกรีต ผลิตภัณฑ์คอนกรีตผสมเสร็จ แผ่นพื้นสำเร็จ และเสาเข็มคอนกรีต","status":"ดำเนินกิจการ","lat":5.985116,"lon":101.936473},"20960097625629":{"id":"20960097625629","name":"ห้างหุ้นส่วนจำกัด เจตาซีเมนต์และวัสดุก่อสร้าง","owner":"ห้างหุ้นส่วนจำกัด เจตาซีเมนต์และวัสดุก่อสร้าง","displayRegistration":"จ3-58(1)-54/62นธ","province":"นราธิวาส","district":"ยี่งอ","subdistrict":"ตะปอเยาะ","industryType":"การทำผลิตภัณฑ์คอนกรีต ผลิตภัณฑ์คอนกรีตผสม","status":"ดำเนินกิจการ","lat":6.4508,"lon":101.6844},"20960111425626":{"id":"20960111425626","name":"ทีดี เฟอร์นิเจอร์","owner":"นางสาวอนิสา เจ๊ะหะ","displayRegistration":"จ3-34(2)-15/62นธ","province":"นราธิวาส","district":"ระแงะ","subdistrict":"บาโงสะโต","industryType":"การทำวงกบ ขอบประตู - หน้าต่าง บานประตู - หน้าต่าง หรือส่วนประกอบที่ทำด้วยไม้ของอาคาร ทำเครื่องเรือนหรือเครื่องตกแต่งภายในอาคารจากไม้ หรือเครื่องตกแต่งภายในอาคารจากพลาสติกเข้ารูป รวมถึงชิ้นส่วนของผลิตภัณฑ์","status":"ดำเนินกิจการ","lat":6.297077,"lon":101.676154},"20960270325641":{"id":"20960270325641","name":"ห้างหุ้นส่วนจำกัด เพชรมั่นคงน้ำแข็งหลอด","owner":"ห้างหุ้นส่วนจำกัด เพชรมั่นคงน้ำแข็งหลอด","displayRegistration":"จ2-53(4)-41/64นธ","province":"นราธิวาส","district":"ตากใบ","subdistrict":"เจ๊ะเห","industryType":"ผลิตขวดบรรจุน้ำดื่มบริโภค","status":"ดำเนินกิจการ","lat":6.262923,"lon":102.038248},"20960002325612":{"id":"20960002325612","name":"บริษัท ทักษิณ 2000 จำกัด","owner":"บริษัท ทักษิณ 2000 จำกัด","displayRegistration":"จ3-34(2)-23/61นธ","province":"นราธิวาส","district":"สุไหงโก-ลก","subdistrict":"ปาเสมัส","industryType":"การทำวงกบ ขอบประตู-หน้าต่าง บานประตู-หน้าต่าง หรือส่วนประกอบที่ทำด้วยไม้ของอาคาร ทำเครื่องเรือนหรือเครื่องตกแต่งภายในอาคารจากไม้","status":"ดำเนินกิจการ","lat":6.03903,"lon":101.98323},"40960001725610":{"id":"40960001725610","name":"บริษัท ทีพีซีเอช เพาเวอร์5 จำกัด","owner":"บริษัท ทีพีซีเอช เพาเวอร์5 จำกัด","displayRegistration":"3-88(2)-17/61นธ","province":"นราธิวาส","district":"เมืองนราธิวาส","subdistrict":"บางปอ","industryType":"ผลิตและจำหน่ายกระแสไฟฟ้าจากชีวมวล ขนาดกำลังการผลิตติดตั้ง6.3 เมกะวัตต์","status":"ดำเนินกิจการ","lat":6.345485,"lon":101.833541},"20960007025613":{"id":"20960007025613","name":"บริษัท กิมซันเจริญวู้ด จำกัด","owner":"บริษัท กิมซันเจริญวู้ด จำกัด","displayRegistration":"จ3-34(1)-70/61นธ","province":"นราธิวาส","district":"สุไหงโก-ลก","subdistrict":"ปาเสมัส","industryType":"เกี่ยวกับไม้อย่างใดอย่างหนึ่ง หรือหลายอย่างได้ เช่น การเลื่อย ไส ซอย เซาะร่อง หรือการแปรรูปไม้ด้วยวิธีอื่น หรือที่คล้ายคลึงกัน","status":"ดำเนินกิจการ","lat":6.05022,"lon":102.000618},"20960101325612":{"id":"20960101325612","name":"บริษัท บี แอนด์ เอ็ม โกลด์ ฟรุ๊ต จำกัด","owner":"บริษัท บี แอนด์ เอ็ม โกลด์ ฟรุ๊ต จำกัด","displayRegistration":"จ3-8(2)-13/61นธ","province":"นราธิวาส","district":"เจาะไอร้อง","subdistrict":"บูกิต","industryType":"โรงงานแปรรูปผัก ผลไม้ และอาหารอื่น ๆ และทำให้เยือกแข็งโดยฉับพลันหรือเหือดแห้ง นำเข้าและส่งออก ผักและผลไม้แช่แข็ง","status":"ดำเนินกิจการ","lat":6.195907,"lon":101.820853},"20960323125642":{"id":"20960323125642","name":"บริษัท นราทองซอว์มิลล์ จำกัด","owner":"บริษัท นราทองซอว์มิลล์ จำกัด","displayRegistration":"จ3-34(1)-13/64นธ","province":"นราธิวาส","district":"เมืองนราธิวาส","subdistrict":"กะลุวอ","industryType":"แปรรูปไม้โดยใช้เครื่องจักร (โรงเลื่อยจักร)","status":"ดำเนินกิจการ","lat":6.351679,"lon":101.89123},"20960428225644":{"id":"20960428225644","name":"-","owner":"นายอาทิตย์ ซิเดะ","displayRegistration":"จ3-3(2)-167/64นธ","province":"นราธิวาส","district":"รือเสาะ","subdistrict":"บาตง","industryType":"ขุดตักดิน ทราย และคัดแยกกรวด ทราย เพื่อใช้ในการก่อสร้าง","status":"ดำเนินกิจการ","lat":6.377281,"lon":101.468631},"20960350325644":{"id":"20960350325644","name":"นราแปรรูปเปลือกมะพร้าว","owner":"นายฮวด แซ่อึ้ง","displayRegistration":"จ3-2(6)-2/64นธ","province":"นราธิวาส","district":"เมืองนราธิวาส","subdistrict":"โคกเคียน","industryType":"บด ย่อย เปลือกมะพร้าว","status":"ดำเนินกิจการ","lat":6.570865,"lon":101.715219},"10960088825628":{"id":"10960088825628","name":"เอ็นเอสอาร์ พาราวู้ด","owner":"นางสาวหนิมาลาตี หนิสาเร๊ะ","displayRegistration":"3-34(1)-24/62นธ","province":"นราธิวาส","district":"ระแงะ","subdistrict":"บองอ","industryType":"โรงงานแปรรูปไม้ยางพาราและไม้ที่ปลูกขึ้นเฉพาะ 13 ชนิด ตามมติรัฐมนตรี เพื่อจำหน่าย","status":"ดำเนินกิจการ","lat":6.219363,"lon":101.743765},"20960108425654":{"id":"20960108425654","name":"โต๊ะยาบาล แซนด์","owner":"นายอูมา ตาซา และนายนิอาสรี โต๊ะพง","displayRegistration":"จ3-3(4)-24/65นธ","province":"นราธิวาส","district":"ศรีสาคร","subdistrict":"ตะมะยูง","industryType":"ดูดทรายในแม่น้ำสายบุรี","status":"ดำเนินกิจการ","lat":6.305904,"lon":101.503633},"20960476125647":{"id":"20960476125647","name":"มุสลิมค้าประตู","owner":"นายมูฮำหมัดซู เจะนิ","displayRegistration":"จ3-34(2)-19/64นธ","province":"นราธิวาส","district":"รือเสาะ","subdistrict":"รือเสาะ","industryType":"ทำวงกบ ขอบประตู ขอบหน้าต่าง บานหน้าต่าง บานประตู หรือส่วนประกอบที่ทำด้วยไม้ของอาคาร","status":"ดำเนินกิจการ","lat":6.357917,"lon":101.499954},"20960112325650":{"id":"20960112325650","name":"ห้างหุ้นส่วนจำกัด ทรัพย์เจริญ วัสดุภัณฑ์","owner":"ห้างหุ้นส่วนจำกัด ทรัพย์เจริญ วัสดุภัณฑ์","displayRegistration":"จ3-3(2)-119/65นธ","province":"นราธิวาส","district":"ตากใบ","subdistrict":"ไพรวัน","industryType":"ขุดตักดิน ทราย เพื่อใช้ในการก่อสร้าง","status":"ดำเนินกิจการ","lat":6.339361,"lon":101.933405},"20960143425651":{"id":"20960143425651","name":"-","owner":"นายอาหะมะ เจ๊ะอุมา","displayRegistration":"จ3-3(2)-154/65นธ","province":"นราธิวาส","district":"รือเสาะ","subdistrict":"บาตง","industryType":"ขุดตักดิน ทราย และคัดแยกกรวด ทราย เพื่อใช้ในการก่อสร้าง","status":"ดำเนินกิจการ","lat":6.378794,"lon":101.468251},"10960000125198":{"id":"10960000125198","name":"ห้างหุ้นส่วนจำกัด พันธุ์วิภา","owner":"ห้างหุ้นส่วนจำกัด พันธุ์วิภา","displayRegistration":"3-14-1/19นธ","province":"นราธิวาส","district":"เมืองนราธิวาส","subdistrict":"บางนาค","industryType":"ทำน้ำแข็งซอง","status":"ดำเนินกิจการ","lat":6.420693,"lon":101.824317},"10960000425432":{"id":"10960000425432","name":"บริษัท ชาเล่ต์ ฟอร์เรส นรา จำกัด","owner":"บริษัท ชาเล่ต์ ฟอร์เรส นรา จำกัด","displayRegistration":"3-34(1)-4/43นธ","province":"นราธิวาส","district":"จะแนะ","subdistrict":"ผดุงมาตร","industryType":"แปรรูปไม้ยางพารา อัดน้ำยา อบไม้ ไม้รองสินค้าและไม้ลัง จากไม้ยางพารา","status":"ดำเนินกิจการ","lat":6.1599,"lon":101.7059},"20960000125469":{"id":"20960000125469","name":"ห้างหุ้นส่วนจำกัด เพชรมั่นคงน้ำแข็งหลอด","owner":"ห้างหุ้นส่วนจำกัด เพชรมั่นคงน้ำแข็งหลอด","displayRegistration":"จ3-14-1/46นธ","province":"นราธิวาส","district":"ตากใบ","subdistrict":"เจ๊ะเห","industryType":"ผลิตน้ำแข็งหลอดเล็ก หลอดใหญ่ น้ำดื่มบริโภค","status":"ดำเนินกิจการ","lat":6.262923,"lon":102.038248},"20960001625608":{"id":"20960001625608","name":"บริษัท นครธารา (สุไหงโก-ลก) จำกัด","owner":"บริษัท นครธารา (สุไหงโก-ลก) จำกัด","displayRegistration":"จ3-20(1)-16/60นธ","province":"นราธิวาส","district":"สุไหงโก-ลก","subdistrict":"สุไหงโก-ลก","industryType":"ผลิตน้ำดื่มบรรจุขวดพลาสติก","status":"ดำเนินกิจการ","lat":6.020962,"lon":101.931156},"20960000925504":{"id":"20960000925504","name":"ห้างหุ้นส่วนจำกัด ธนศักดิ์ ทิมเบอร์","owner":"นายธีระศักดิ์ เทพวารินทร์","displayRegistration":"จ3-34(1)-9/50นธ","province":"นราธิวาส","district":"ตากใบ","subdistrict":"เจ๊ะเห","industryType":"ไส ซอย เซาะร่องไม้แปรรูป และประดิษฐ์กรรมจากไม้","status":"ดำเนินกิจการ","lat":6.2401488,"lon":102.088516},"20960010825561":{"id":"20960010825561","name":"ห้างหุ้นส่วนจำกัด นราสมาน คอนกรีต","owner":"ห้างหุ้นส่วนจำกัด นราสมาน คอนกรีต","displayRegistration":"จ3-58(1)-108/56นธ","province":"นราธิวาส","district":"เมืองนราธิวาส","subdistrict":"ลำภู","industryType":"คอนกรีตผสมเสร็จ","status":"ดำเนินกิจการ","lat":6.397509,"lon":101.787241},"20960000525403":{"id":"20960000525403","name":"-","owner":"บริษัท ปัตตานีเจริญเทรดดิ้ง(1972) จำกัด","displayRegistration":"จ3-95(1)-5/40นธ","province":"นราธิวาส","district":"เมืองนราธิวาส","subdistrict":"บางนาค","industryType":"ซ่อมรถยนต์","status":"ดำเนินกิจการ","lat":6.417678,"lon":101.813065},"20960000925405":{"id":"20960000925405","name":"บริษัท นราธิวาสฮอนด้าคาร์ส์ จำกัด","owner":"บริษัท นราธิวาสฮอนด้าคาร์ส์ จำกัด","displayRegistration":"จ3-95(1)-9/40นธ","province":"นราธิวาส","district":"สุไหงโก-ลก","subdistrict":"ปาเสมัส","industryType":"ซ่อมรถยนต์","status":"ดำเนินกิจการ","lat":6.040135,"lon":101.987148},"00960000125364":{"id":"00960000125364","name":"NULL","owner":"นายแวปกเฮง หะยีแวนิ","displayRegistration":"ศ3-34(2)-1/36นธ","province":"นราธิวาส","district":"เมืองนราธิวาส","subdistrict":"บางนาค","industryType":"ทำวงกบ ขอบประตู-หน้าต่าง บานประตู-หน้าต่าง และเครื่องเรือนจากไม้","status":"ดำเนินกิจการ","lat":6.435674,"lon":101.820495},"20960143225655":{"id":"20960143225655","name":"-","owner":"นายอาหะมะ เจ๊ะอุมา","displayRegistration":"จ3-3(2)-153/65นธ","province":"นราธิวาส","district":"รือเสาะ","subdistrict":"บาตง","industryType":"ขุดตักดิน ทราย และคัดแยกกรวด ทราย เพื่อใช้ในการก่อสร้าง","status":"ดำเนินกิจการ","lat":6.376172,"lon":101.469789}}