{"10390000125263":{"id":"10390000125263","name":"ห้างหุ้นส่วนจำกัด อุดรไพบูลย์","owner":"ห้างหุ้นส่วนจำกัด อุดรไพบูลย์","displayRegistration":"3-9(6)-1/26นภ","province":"หนองบัวลำภู","district":"เมืองหนองบัวลำภู","subdistrict":"โนนทัน","industryType":"ผลิตมันเม็ดอัดแข็ง","status":"หยุดชั่วคราว","lat":17.24202,"lon":102.54508},"10390000225188":{"id":"10390000225188","name":"ห้างหุ้นส่วนจำกัด โรงน้ำแข็งหนองบัวลำภูสายฝน","owner":"ห้างหุ้นส่วนจำกัด โรงน้ำแข็งหนองบัวลำภูสายฝน","displayRegistration":"3-14-2/18นภ","province":"หนองบัวลำภู","district":"เมืองหนองบัวลำภู","subdistrict":"หนองบัว","industryType":"ทำน้ำแข็ง ได้วันละ 128 ซอง","status":"ดำเนินกิจการ","lat":17.18159,"lon":102.43201},"20390000125386":{"id":"20390000125386","name":"บริษัท พรทิพย์วัสดุก่อสร้าง จำกัด","owner":"บริษัท พรทิพย์วัสดุก่อสร้าง จำกัด","displayRegistration":"จ3-58(1)-1/38นภ","province":"หนองบัวลำภู","district":"ศรีบุญเรือง","subdistrict":"หันนางาม","industryType":"ทำผลิตภัณฑ์คอนกรีต ประเภท คอนกรีต บล็อก เสา ท่อขนาดต่าง ๆ","status":"ดำเนินกิจการ","lat":16.95851,"lon":102.2648},"10390000225394":{"id":"10390000225394","name":"บริษัท โชคอนันต์ก่อสร้างอุดรธานี จำกัด","owner":"บริษัท โชคอนันต์ก่อสร้างอุดรธานี จำกัด","displayRegistration":"3-3(1)-2/39นภ","province":"หนองบัวลำภู","district":"นากลาง","subdistrict":"อุทัยสวรรค์","industryType":"โม่ บด ย่อยหิน กำลังการผลิต 182,500 ลูกบาศก์เมตรต่อปี","status":"ดำเนินกิจการ","lat":17.26913,"lon":102.14211},"20390100125393":{"id":"20390100125393","name":"บริษัท โตโยต้าหนองบัวลำภู จำกัด","owner":"บริษัท โตโยต้าหนองบัวลำภู จำกัด","displayRegistration":"จ3-95(1)-1/39นภ","province":"หนองบัวลำภู","district":"เมืองหนองบัวลำภู","subdistrict":"ลำภู","industryType":"ซ่อมรถยนต์","status":"ดำเนินกิจการ","lat":17.2093,"lon":102.45358},"20390000225384":{"id":"20390000225384","name":"ห้างหุ้นส่วนจำกัด นาซ่า คอนกรีต","owner":"ห้างหุ้นส่วนจำกัด นาซ่า คอนกรีต","displayRegistration":"จ3-58(1)-2/38นภ","province":"หนองบัวลำภู","district":"เมืองหนองบัวลำภู","subdistrict":"หนองบัว","industryType":"คอนกรีตผสมเสร็จ แผ่นพื้นสำเร็จรูป","status":"ดำเนินกิจการ","lat":17.160648,"lon":102.43559},"20390000125410":{"id":"20390000125410","name":"กันตินันท์ อัครศรีวิวัฒน์","owner":"นายกันตินันท์ อัครศรีวัฒน์","displayRegistration":"จ3-9(2)-1/41นภ","province":"หนองบัวลำภู","district":"เมืองหนองบัวลำภู","subdistrict":"บ้านพร้าว","industryType":"ทำแป้งข้าวจ้าวชนิดเปียกสำหรับทำขนม เช่น ขนมจีน","status":"ดำเนินกิจการ","lat":17.08502,"lon":102.37957},"20390000125394":{"id":"20390000125394","name":"บริษัท เบสท์-แพค คอนกรีต จำกัด","owner":"บริษัท เบสท์-แพค คอนกรีต จำกัด","displayRegistration":"จ3-58(1)-1/39นภ","province":"หนองบัวลำภู","district":"เมืองหนองบัวลำภู","subdistrict":"หนองภัยศูนย์","industryType":"ทำผลิตภัณฑ์คอนกรีต คอนกรีตผสมเสร็จ แผ่นพื้น ท่อคอนกรีต เสาเข","status":"ดำเนินกิจการ","lat":17.23888,"lon":102.393113},"20390000125436":{"id":"20390000125436","name":"ศรีบุญเรืองพลาสติก (เอส.บี.อาร์)","owner":"ห้างหุ้นส่วนจำกัด ศรีบุญเรืองพลาสติก (เอส.บี.อาร์)","displayRegistration":"จ3-53(5)-1/43นภ","province":"หนองบัวลำภู","district":"ศรีบุญเรือง","subdistrict":"ยางหล่อ","industryType":"ฉีดพลาสติก,ขวดน้ำดื่ม,ฝาขวด,ผลิตภัณฑ์จากเม็ดพลาสติกเป็นรูปทรงต่าง ๆ","status":"ดำเนินกิจการ","lat":17.05268,"lon":102.19079},"20390000225400":{"id":"20390000225400","name":"ห้างหุ้นส่วนจำกัด สมพรรุ่งเรืองค้าไม้","owner":"ห้างหุ้นส่วนจำกัด สมพรรุ่งเรืองค้าไม้","displayRegistration":"จ3-34(2)-2/40นภ","province":"หนองบัวลำภู","district":"ศรีบุญเรือง","subdistrict":"หันนางาม","industryType":"ทำวงกบ ขอบประตู ขอบหน้าต่างฯ","status":"ดำเนินกิจการ","lat":16.95852,"lon":102.2648},"20390100125450":{"id":"20390100125450","name":"สหกรณ์สวนป่าภาคเอกชนหนองบัวลำภู จำกัด","owner":"สหกรณ์สวนป่าภาคเอกชนหนองบัวลำภู จำกัด","displayRegistration":"จ3-34(1)-1/45นภ","province":"หนองบัวลำภู","district":"นากลาง","subdistrict":"ด่านช้าง","industryType":"เลื่อย ไส ซอย แปรรูปไม้เพื่อประดิษฐกรรม เช่น ตู้โชว์ โต๊ะ เก้าอี้ วงกบประตู-หน้าต่าง","status":"หยุดชั่วคราว","lat":17.30299,"lon":102.17576},"10390005125474":{"id":"10390005125474","name":"บริษัท กล้าทิพย์ จำกัด","owner":"บริษัท กล้าทิพย์ จำกัด","displayRegistration":"3-9(1)-51/47นภ","province":"หนองบัวลำภู","district":"เมืองหนองบัวลำภู","subdistrict":"หนองบัว","industryType":"สีข้าว กำลังสีสูงสุดของร้านสีข้าว 400 เกวียน/วัน","status":"ดำเนินกิจการ","lat":17.139239,"lon":102.408463},"20390005825477":{"id":"20390005825477","name":"ห้างหุ้นส่วนจำกัด เก๋าไซร์ ไอซ์ หนองบัวลำภู","owner":"หจก.เก๋าไซร์ ไอซ์ หนองบัวลำภู","displayRegistration":"จ3-14-58/47นภ","province":"หนองบัวลำภู","district":"โนนสัง","subdistrict":"โนนสัง","industryType":"ผลิตน้ำแข็งก้อนเล็ก","status":"ดำเนินกิจการ","lat":16.89007,"lon":102.57991},"20390000125451":{"id":"20390000125451","name":"ท่าทรายวังหิน","owner":"นางสาวพิมพ์ยอร พงษ์ภักดิ์","displayRegistration":"จ3-3(2)-1/45นภ","province":"หนองบัวลำภู","district":"ศรีบุญเรือง","subdistrict":"ทรายทอง","industryType":"ขุดทราย","status":"ดำเนินกิจการ","lat":16.87984,"lon":102.31005},"30390000125400":{"id":"30390000125400","name":"บริษัท ศรีนาวัง จำกัด","owner":"บริษัท ศรีนาวัง จำกัด","displayRegistration":"ธ3-3(1)-1/40นภ","province":"หนองบัวลำภู","district":"นาวัง","subdistrict":"เทพคีรี","industryType":"โม่ บด ย่อยหิน","status":"ดำเนินกิจการ","lat":17.32155,"lon":102.11723},"20390016325483":{"id":"20390016325483","name":"อู่เลิศหนองบัวการช่าง","owner":"นายวิชัย เวียนศรี","displayRegistration":"จ3-95(1)-163/48นภ","province":"หนองบัวลำภู","district":"เมืองหนองบัวลำภู","subdistrict":"หนองภัยศูนย์","industryType":"เคาะพ่นสีรถยนต์","status":"ดำเนินกิจการ","lat":17.22582,"lon":102.4094},"20390004125481":{"id":"20390004125481","name":"บริษัท ศรีไทยใหม่การเกษตร จำกัด","owner":"บริษัท ศรีไทยใหม่การเกษตร จำกัด","displayRegistration":"จ3-9(1)-41/48นภ","province":"หนองบัวลำภู","district":"เมืองหนองบัวลำภู","subdistrict":"หนองบัว","industryType":"สีข้าว (กำลังสีสูงสุด 80 เกวียน/วัน)","status":"ดำเนินกิจการ","lat":17.203653,"lon":102.435021},"10390003825505":{"id":"10390003825505","name":"บริษัท กิตตินครลำภู จำกัด","owner":"บริษัท กิตตินครลำภู จำกัด","displayRegistration":"3-14-38/50นภ","province":"หนองบัวลำภู","district":"เมืองหนองบัวลำภู","subdistrict":"ลำภู","industryType":"ผลิตน้ำแข็งก้อนเล็ก ได้วันละ 200 ตัน และน้ำดื่ม","status":"ดำเนินกิจการ","lat":17.21213,"lon":102.44563},"10390001225500":{"id":"10390001225500","name":"บริษัท กิตตินครลำภู จำกัด (สาขานาวัง)","owner":"บริษัท กิตตินครลำภู จำกัด","displayRegistration":"3-14-12/50นภ","province":"หนองบัวลำภู","district":"นาวัง","subdistrict":"เทพคีรี","industryType":"ผลิตน้ำแข็งก้อนเล็ก กำลังการผลิต 130 ตัน/วัน และน้ำดื่ม","status":"ดำเนินกิจการ","lat":17.32202,"lon":102.11913},"20390000925504":{"id":"20390000925504","name":"บริษัท ซี เอช ซี รับเบอร์ จำกัด","owner":"บริษัท ซี เอช ซี รับเบอร์ จำกัด","displayRegistration":"จ3-52(3)-9/50นภ","province":"หนองบัวลำภู","district":"เมืองหนองบัวลำภู","subdistrict":"โนนทัน","industryType":"ผลิตน้ำยางข้น สกิมเครฟและสกิมบลอค","status":"ดำเนินกิจการ","lat":17.244806,"lon":102.543256},"10390000225493":{"id":"10390000225493","name":"บริษัท หนองบัวพัฒนาอุตสาหกรรม จำกัด","owner":"บริษัท หนองบัวพัฒนาอุตสาหกรรม จำกัด","displayRegistration":"3-59-2/49นภ","province":"หนองบัวลำภู","district":"เมืองหนองบัวลำภู","subdistrict":"โนนทัน","industryType":"ผลิตเหล็กเส้น","status":"ดำเนินกิจการ","lat":17.25435,"lon":102.57894},"20390002425495":{"id":"20390002425495","name":"ห้างหุ้นส่วนจำกัด โรงน้ำแข็งหนองบัวลำภูสายฝน","owner":"ห้างหุ้นส่วนจำกัด โรงน้ำแข็งหนองบัวลำภูสายฝน","displayRegistration":"จ3-14-24/49นภ","province":"หนองบัวลำภู","district":"เมืองหนองบัวลำภู","subdistrict":"หนองบัว","industryType":"ผลิตน้ำแข็งหลอด ( กำลังผลิต 80 ตัน/วัน )","status":"ดำเนินกิจการ","lat":17.20712,"lon":102.4453},"20390000125543":{"id":"20390000125543","name":"บริษัท โรงน้ำแข็งหนองบัวลำภูกิจวารี จำกัด","owner":"บริษัท โรงน้ำแข็งหนองบัวลำภูกิจวารี จำกัด","displayRegistration":"จ3-14-1/54นภ","province":"หนองบัวลำภู","district":"ศรีบุญเรือง","subdistrict":"หันนางาม","industryType":"ผลิตน้ำแข็งก้อนเล็กและน้ำดื่ม","status":"ดำเนินกิจการ","lat":16.993402,"lon":102.255466},"20390005825535":{"id":"20390005825535","name":"NULL","owner":"นายวิธวัช ศรีสุระพล","displayRegistration":"จ3-3(4)-58/53นภ","province":"หนองบัวลำภู","district":"ศรีบุญเรือง","subdistrict":"ศรีบุญเรือง","industryType":"ขุดตักทราย","status":"หยุดชั่วคราว","lat":16.89334,"lon":102.29407},"20390012425543":{"id":"20390012425543","name":"บริษัท หนองบัวฮอนด้าออโตโมบิล จำกัด","owner":"บริษัท หนองบัวฮอนด้าออโตโมบิล จำกัด","displayRegistration":"จ3-95(1)-124/54นภ","province":"หนองบัวลำภู","district":"เมืองหนองบัวลำภู","subdistrict":"หนองภัยศูนย์","industryType":"ซ่อมรถยนต์","status":"ดำเนินกิจการ","lat":17.227945,"lon":102.405364},"10390000125537":{"id":"10390000125537","name":"บริษัท ไทยไดมอนด์ เน็ต จำกัด","owner":"บริษัท ไทยไดมอนด์ เน็ต จำกัด","displayRegistration":"3-26(2)-1/53นภ","province":"หนองบัวลำภู","district":"ศรีบุญเรือง","subdistrict":"นากอก","industryType":"ผลิตแห-อวน","status":"ดำเนินกิจการ","lat":16.882567,"lon":102.19751},"10390002725516":{"id":"10390002725516","name":"ห้างหุ้นส่วนจำกัด พรทิพย์พืชผล","owner":"ห้างหุ้นส่วนจำกัด พรทิพย์พืชผล","displayRegistration":"3-34(4)-27/51นภ","province":"หนองบัวลำภู","district":"ศรีบุญเรือง","subdistrict":"ศรีบุญเรือง","industryType":"ผลิตชิ้นไม้สับจากไม้ที่ปลูกขึ้นโดยเฉพาะ 13 ชนิด ตามมติคณะรัฐมนตรีเพื่อจำหน่าย","status":"ดำเนินกิจการ","lat":16.94424,"lon":102.26129},"20390010525518":{"id":"20390010525518","name":"วิรัช คอนกรีต 2013","owner":"ห้างหุ้นส่วนจำกัด วิรัช คอนกรีต 2013","displayRegistration":"จ3-58(1)-105/51นภ","province":"หนองบัวลำภู","district":"นากลาง","subdistrict":"นากลาง","industryType":"ทำผลิตภัณฑ์คอนกรีต เช่น คอนกรีตผสมเสร็จ, คอนกรีตอิฐบล็อก","status":"ดำเนินกิจการ","lat":17.29256,"lon":102.22096},"20390004125515":{"id":"20390004125515","name":"บุญให้พืชผล","owner":"นายทวีศักดิ์ เจริญทิพย์ปัญญา","displayRegistration":"จ3-9(6)-41/51นภ","province":"หนองบัวลำภู","district":"นากลาง","subdistrict":"กุดดินจี่","industryType":"ทำมันเส้น","status":"ดำเนินกิจการ","lat":17.35823,"lon":102.25935},"20390006325519":{"id":"20390006325519","name":"ปรีชาน้ำแข็งหลอด","owner":"นางเครือวัลย์ จ้ายหนองบัว","displayRegistration":"จ3-14-63/51นภ","province":"หนองบัวลำภู","district":"ศรีบุญเรือง","subdistrict":"เมืองใหม่","industryType":"ผลิตน้ำแข็งหลอด (ขนาด 70 ตัน/วัน)","status":"ดำเนินกิจการ","lat":16.96281,"lon":102.27567},"20390000225525":{"id":"20390000225525","name":"NULL","owner":"นางสาวเสาวภา อรรคฮาด","displayRegistration":"จ3-34(1)-2/52นภ","province":"หนองบัวลำภู","district":"เมืองหนองบัวลำภู","subdistrict":"โนนทัน","industryType":"เลื่อย ไส ซอย และทำเครื่องเรือนจากไม้ เช่น วงกบประตู,หน้าต่าง,บานประตู","status":"ดำเนินกิจการ","lat":17.75212,"lon":102.68585},"20390001825521":{"id":"20390001825521","name":"บริษัท พี แอนด์ เจ มีท โปรดักส์ จำกัด","owner":"บริษัท พี แอนด์ เจ มีท โปรดักส์ จำกัด","displayRegistration":"จ3-4(1)-18/52นภ","province":"หนองบัวลำภู","district":"เมืองหนองบัวลำภู","subdistrict":"หนองบัว","industryType":"โรงฆ่าสัตว์ เช่น สุกร","status":"ดำเนินกิจการ","lat":17.16003,"lon":102.4206},"20390003425528":{"id":"20390003425528","name":"บริษัท โรงน้ำแข็งโนนสังกิจวารี จำกัด","owner":"บริษัท โรงน้ำแข็งโนนสังกิจวารี จำกัด","displayRegistration":"จ3-14-34/52นภ","province":"หนองบัวลำภู","district":"โนนสัง","subdistrict":"โนนสัง","industryType":"ผลิตน้ำแข็ง,น้ำดื่ม","status":"ดำเนินกิจการ","lat":16.904984,"lon":102.587933},"20390000725532":{"id":"20390000725532","name":"ห้างหุ้นส่วนจำกัด เอส อาร์ ซี เฟอร์นิเจอร์ (2009)","owner":"ห้างหุ้นส่วนจำกัด เอส อาร์ ซี เฟอร์นิเจอร์(2009)","displayRegistration":"จ3-34(1)-7/53นภ","province":"หนองบัวลำภู","district":"เมืองหนองบัวลำภู","subdistrict":"นาคำไฮ","industryType":"ทำเครื่องเรือนจากไม้ เช่น ตู้เสื้อผ้า ตู้เอกสาร","status":"ดำเนินกิจการ","lat":17.29078,"lon":102.27345},"10390000225550":{"id":"10390000225550","name":"บริษัท น้ำตาลเอราวัณ จำกัด","owner":"บริษัท น้ำตาลเอราวัณ จำกัด","displayRegistration":"3-11(3)-2/55นภ","province":"หนองบัวลำภู","district":"นากลาง","subdistrict":"นากลาง","industryType":"ผลิตน้ำตาลทรายขาว,น้ำตาลทรายขาวบริสุทธิ์,น้ำตาลดิบ","status":"ดำเนินกิจการ","lat":17.29336,"lon":102.2535},"10390002125600":{"id":"10390002125600","name":"บริษัท เอ็น.บี.แอล.เพลเล็ต จำกัด","owner":"บริษัท เอ็น.บี.แอล.เพลเล็ต จำกัด","displayRegistration":"3-34(4)-21/60นภ","province":"หนองบัวลำภู","district":"ศรีบุญเรือง","subdistrict":"โนนม่วง","industryType":"ผลิตไม้เชื้อเพลิงแบบแท่ง","status":"ดำเนินกิจการ","lat":17.123208,"lon":102.212398},"20390000825506":{"id":"20390000825506","name":"บริษัท รวมชัยพลาสติก (1995) จำกัด","owner":"บริษัท รวมชัยพลาสติก(1995) จำกัด","displayRegistration":"จ3-53(4)-8/50นภ","province":"หนองบัวลำภู","district":"เมืองหนองบัวลำภู","subdistrict":"นาคำไฮ","industryType":"ผลิตผลิตภัณฑ์พลาสติก ( เช่น ขวด ฯลฯ )","status":"หยุดชั่วคราว","lat":17.25174,"lon":102.34374},"20390002525583":{"id":"20390002525583","name":"บริษัท อุดรพรทิพย์ก่อสร้าง (1992) จำกัด","owner":"บริษัท อุดรพรทิพย์ก่อสร้าง (1992) จำกัด","displayRegistration":"จ3-50(4)-25/58นภ","province":"หนองบัวลำภู","district":"ศรีบุญเรือง","subdistrict":"นากอก","industryType":"ผลิตแอสฟัลท์ติกคอนกรีต","status":"ดำเนินกิจการ","lat":16.911389,"lon":102.224722},"10390000325392":{"id":"10390000325392","name":"บริษัท โชคอนันต์ก่อสร้างอุดรธานี จำกัด","owner":"บริษัท โชคอนันต์ก่อสร้างอุดรธานี จำกัด","displayRegistration":"3-3(1)-3/39นภ","province":"หนองบัวลำภู","district":"นากลาง","subdistrict":"อุทัยสวรรค์","industryType":"โม่ บด ย่อยหิน กำลังการผลิต 182,500 ลูกบาศก์เมตรต่อปี","status":"ดำเนินกิจการ","lat":17.26156,"lon":102.14516},"20390010925544":{"id":"20390010925544","name":"บริษัท ไพโรจน์คอนกรีต จำกัด","owner":"บริษัท ไพโรจน์คอนกรีต จำกัด","displayRegistration":"จ3-58(1)-109/54นภ","province":"หนองบัวลำภู","district":"ศรีบุญเรือง","subdistrict":"ศรีบุญเรือง","industryType":"ทำผลิตภัณฑ์คอนกรีต เช่น คอนกรีตผสมเสร็จ","status":"ดำเนินกิจการ","lat":16.942329,"lon":102.260602},"20390291025634":{"id":"20390291025634","name":"ห้างหุ้นส่วนจำกัด นาซ่า คอนกรีต","owner":"ห้างหุ้นส่วนจำกัด นาซ่า คอนกรีต","displayRegistration":"จ2-58(1)-81/63นภ","province":"หนองบัวลำภู","district":"นากลาง","subdistrict":"ด่านช้าง","industryType":"คอนกรีตผสมเสร็จ,แผ่นพื้นสำเร็จรูป","status":"ดำเนินกิจการ","lat":17.319937,"lon":102.14602},"20390165325623":{"id":"20390165325623","name":"บริษัท มิตซูออโต้ หนองบัวลำภู จำกัด","owner":"บริษัท มิตซูออโต้ หนองบัวลำภู","displayRegistration":"จ3-95(1)-95/62นภ","province":"หนองบัวลำภู","district":"เมืองหนองบัวลำภู","subdistrict":"ลำภู","industryType":"ซ่อมแซม บำรุงรักษา ยานพาหนะทุกประเภท","status":"ดำเนินกิจการ","lat":17.21537,"lon":102.45853},"20390012025640":{"id":"20390012025640","name":"ห้างหุ้นส่วนจำกัด กุดดู่ เมทัลชีท","owner":"ห้างหุ้นส่วนจำกัด กุดดู่ เมทัลชีท","displayRegistration":"จ2-63(2)-8/64นภ","province":"หนองบัวลำภู","district":"โนนสัง","subdistrict":"กุดดู่","industryType":"ผลิตหลังตาเหล็ก และแปสำเร็จรูป","status":"ดำเนินกิจการ","lat":16.974822,"lon":102.567478},"40390002825617":{"id":"40390002825617","name":"บริษัท ไทย กรีน จำกัด (สหกรณ์การเกษตรโนนสัง) จำกัด","owner":"บริษัท ไทย กรีน จำกัด","displayRegistration":"3-88(1)-28/61นภ","province":"หนองบัวลำภู","district":"โนนสัง","subdistrict":"บ้านค้อ","industryType":"ผลิตพลังงานไฟฟ้าจากเซลล์แสงอาทิตย์ กำลังการผลิต 3.9996 เมกะวัตต์","status":"ดำเนินกิจการ","lat":16.85215,"lon":102.618474},"10390050825622":{"id":"10390050825622","name":"บริษัท เอ็น.อี.ไบโอ เอ็นเนอยี จำกัด","owner":"บริษัท เอ็น.อี.ไบโอ เอ็นเนอยี จำกัด","displayRegistration":"3-34(4)-8/62นภ","province":"หนองบัวลำภู","district":"นากลาง","subdistrict":"นากลาง","industryType":"ตั้งโรงงานเพื่อผลิตไม้แปรรูปและชิ้นไม้สับโดยใช้เครื่องจักร จากไม้ปลูกขึ้นเองโดยเฉพาะ 13 ชนิด และไม้ยางพารา","status":"ดำเนินกิจการ","lat":17.288661,"lon":102.248067},"10390002625526":{"id":"10390002625526","name":"บริษัท ไนซ์ แอพพาเรล จำกัด","owner":"บริษัท ไนซ์ แอพพาเรล จำกัด","displayRegistration":"3-28(1)-26/52นภ","province":"หนองบัวลำภู","district":"เมืองหนองบัวลำภู","subdistrict":"นาคำไฮ","industryType":"ผลิตเสื้อผ้าสำเร็จรูปส่งออก และผลิตพลังงานไฟฟ้าจากพลังงานแสงอาทิตย์ ขนาด 649.6 กิโลวัตต์ เพื่อใช้ในกิจการของตนเองเท่านั้น","status":"ดำเนินกิจการ","lat":17.25514,"lon":102.35926},"10390000125149":{"id":"10390000125149","name":"โรงงานโม่หินสากล","owner":"นายสมศักดิ์ เชยคำแหง","displayRegistration":"3-3(1)-1/14นภ","province":"หนองบัวลำภู","district":"นากลาง","subdistrict":"ด่านช้าง","industryType":"โม่ บด ย่อยหิน","status":"ดำเนินกิจการ","lat":17.32209,"lon":102.11916},"10390000125511":{"id":"10390000125511","name":"บริษัท เวิลด์ ฟิชซิ่งเน็ต (ประเทศไทย) จำกัด","owner":"บริษัท เวิลด์ ฟิชซิ่งเน็ต(ประเทศไทย)จำกัด","displayRegistration":"3-26(2)-1/51นภ","province":"หนองบัวลำภู","district":"ศรีบุญเรือง","subdistrict":"นากอก","industryType":"ผลิตแหอวน","status":"ดำเนินกิจการ","lat":16.88238,"lon":102.19767},"20390004125531":{"id":"20390004125531","name":"NULL","owner":"นายอดิศักดิ์ ในชัยภูมิ","displayRegistration":"จ3-3(4)-41/53นภ","province":"หนองบัวลำภู","district":"ศรีบุญเรือง","subdistrict":"ศรีบุญเรือง","industryType":"ขุดตักทราย","status":"ดำเนินกิจการ","lat":16.89334,"lon":102.29407},"20390009925489":{"id":"20390009925489","name":"สงกรานต์ค้าไม้","owner":"นายไพศาล ทองทา","displayRegistration":"จ3-34(2)-99/48นภ","province":"หนองบัวลำภู","district":"นากลาง","subdistrict":"นากลาง","industryType":"ทำวงกบ ประตู หน้าต่าง โต๊ะ ตู้","status":"ดำเนินกิจการ","lat":17.29525,"lon":102.22246},"20390014525613":{"id":"20390014525613","name":"บริษัท ฑีฆเจริญ จำกัด","owner":"บริษัท ฑีฆเจริญ จำกัด","displayRegistration":"จ3-95(1)-145/61นภ","province":"หนองบัวลำภู","district":"เมืองหนองบัวลำภู","subdistrict":"ลำภู","industryType":"ศูนย์บริการซ่อมรถยนต์","status":"ดำเนินกิจการ","lat":17.207708,"lon":102.451033}}