{"20370002125162":{"id":"20370002125162","name":"ห้างหุ้นส่วนจำกัด พงษ์วัฒน์การเกษตร","owner":"ห้างหุ้นส่วนจำกัด พงษ์วัฒน์การเกษตร","displayRegistration":"จ3-9(1)-21/16อจ","province":"อำนาจเจริญ","district":"เมืองอำนาจเจริญ","subdistrict":"บุ่ง","industryType":"สีข้าว กำลังสีสูงสุดของร้านสีข้าว 146 เกวียน/วัน","status":"ดำเนินกิจการ","lat":15.846384,"lon":104.631111},"20370000225360":{"id":"20370000225360","name":"ห้างหุ้นส่วนจำกัดพยงค์พืชผล","owner":"ห้างหุ้นส่วนจำกัด พยงค์พืชผล","displayRegistration":"จ3-9(1)-2/36อจ","province":"อำนาจเจริญ","district":"เมืองอำนาจเจริญ","subdistrict":"บุ่ง","industryType":"สีข้าว กำลังสีสูงสุด 24 เกวียน/วัน","status":"ดำเนินกิจการ","lat":15.867977,"lon":104.692989},"20370000125347":{"id":"20370000125347","name":"บริษัท ไทยสินไรซ์มิล จำกัด","owner":"บริษัท ไทยสินไรซ์มิล จำกัด","displayRegistration":"จ3-9(1)-1/34อจ","province":"อำนาจเจริญ","district":"เมืองอำนาจเจริญ","subdistrict":"นาผือ","industryType":"สีข้าว ขนาดกำลังการผลิต 150 เกวียน/วัน","status":"ดำเนินกิจการ","lat":15.994356,"lon":104.638511},"10370000525357":{"id":"10370000525357","name":"โชคทวี","owner":"นายจารุพงษ์ ตาแสง","displayRegistration":"3-9(6)-5/35อจ","province":"อำนาจเจริญ","district":"ปทุมราชวงศา","subdistrict":"นาหว้า","industryType":"ทำมันเส้น","status":"ดำเนินกิจการ","lat":15.904604,"lon":104.948043},"20370000125396":{"id":"20370000125396","name":"บริษัท โตโยต้าอำนาจเจริญ จำกัด","owner":"บริษัท โตโยต้าอำนาจเจริญ จำกัด","displayRegistration":"จ3-95(1)-1/39อจ","province":"อำนาจเจริญ","district":"เมืองอำนาจเจริญ","subdistrict":"บุ่ง","industryType":"ซ่อมแซมยานที่ขับเคลื่อนด้วยเครื่องยนต์หรือส่วนประกอบของยานดั","status":"ดำเนินกิจการ","lat":15.85241,"lon":104.63134},"20370000225386":{"id":"20370000225386","name":"ห้างหุ้นส่วนจำกัด ทวีธัญญา","owner":"นายทวี ศรีสะอาด","displayRegistration":"จ3-9(1)-2/38อจ","province":"อำนาจเจริญ","district":"ลืออำนาจ","subdistrict":"เปือย","industryType":"สีข้าว","status":"ดำเนินกิจการ","lat":15.684146,"lon":104.678613},"10370000225354":{"id":"10370000225354","name":"ห้างหุ้นส่วนจำกัด โรงสีเกษตรธัญญเจริญ","owner":"ห้างหุ้นส่วนจำกัด โรงสีเกษตรธัญญเจริญ","displayRegistration":"3-9(1)-2/35อจ","province":"อำนาจเจริญ","district":"เมืองอำนาจเจริญ","subdistrict":"บุ่ง","industryType":"สีข้าว กำลังสีข้าวสูงสุด 320 เกวียน/วันเท่าเดิม เพิ่มคนงานอีก 4 คน รวมเป็น 39 คน","status":"ดำเนินกิจการ","lat":15.885869,"lon":104.672909},"10370000125422":{"id":"10370000125422","name":"ป.รุ่งเรือง","owner":"นายปกาสิต ศรีวรารักษ์","displayRegistration":"3-10(3)-1/42อจ","province":"อำนาจเจริญ","district":"เมืองอำนาจเจริญ","subdistrict":"นายม","industryType":"ทำเส้นก๋วยเตี๋ยวและแป้งขนมจีน","status":"ดำเนินกิจการ","lat":15.85746,"lon":104.518177},"20370000125222":{"id":"20370000125222","name":"รัตนยนต์เซอร์วิส","owner":"นายยิ่งยง กมลรัตน์","displayRegistration":"จ3-95(1)-1/22อจ","province":"อำนาจเจริญ","district":"เมืองอำนาจเจริญ","subdistrict":"บุ่ง","industryType":"ซ่อม-เคาะพ่นสีรถยนต์ และกลึงโลหะทั่วไป","status":"ดำเนินกิจการ","lat":15.86482,"lon":104.62933},"20370000125420":{"id":"20370000125420","name":"ห้างหุ้นส่วนจำกัด พงษ์วัฒน์การเกษตร","owner":"ห้างหุ้นส่วนจำกัด พงษ์วัฒน์การเกษตร","displayRegistration":"จ3-2(1)-1/42อจ","province":"อำนาจเจริญ","district":"เมืองอำนาจเจริญ","subdistrict":"บุ่ง","industryType":"อบพืชหรืออบเมล็ดพืช","status":"ดำเนินกิจการ","lat":15.847031,"lon":104.631325},"20370009825475":{"id":"20370009825475","name":"ห้างหุ้นส่วนจำกัด โรงสีโชคประเสริฐอำนาจเจริญ","owner":"ห้างหุ้นส่วนจำกัด โรงสีโชคประเสริฐอำนาจเจริญ","displayRegistration":"จ3-9(1)-98/47อจ","province":"อำนาจเจริญ","district":"ปทุมราชวงศา","subdistrict":"คำโพน","industryType":"สีข้าว กำลังการผลิต 500 ตัน/วัน และอบข้าวเปลือก","status":"ดำเนินกิจการ","lat":15.944536,"lon":104.990906},"20370035025470":{"id":"20370035025470","name":"ห้างหุ้นส่วนจำกัด ภาคอิสาณอุบล(ตังปัก) สาขาอำนาจเจริญ","owner":"ห้างหุ้นส่วนจำกัด ภาคอิสาณอุบล(ตังปัก) สาขาอำนาจเจริญ","displayRegistration":"จ3-95(1)-350/47อจ","province":"อำนาจเจริญ","district":"เมืองอำนาจเจริญ","subdistrict":"บุ่ง","industryType":"ซ่อมรถยนต์","status":"ดำเนินกิจการ","lat":15.87914,"lon":104.62508},"20370000125461":{"id":"20370000125461","name":"ห้างหุ้นส่วนจำกัด พงษ์พัฒนาการเกษตร","owner":"ห้างหุ้นส่วนจำกัด พงษ์พัฒนาการเกษตร","displayRegistration":"จ3-9(1)-1/46อจ","province":"อำนาจเจริญ","district":"ปทุมราชวงศา","subdistrict":"นาหว้า","industryType":"สีข้าว","status":"ดำเนินกิจการ","lat":15.892664,"lon":104.925568},"20370003925248":{"id":"20370003925248","name":"โรงสีข้าวรุ่งทรัพย์เจริญผล","owner":"นายยงศักดิ์ กิเลนทอง","displayRegistration":"จ3-9(1)-39/24อจ","province":"อำนาจเจริญ","district":"เมืองอำนาจเจริญ","subdistrict":"บุ่ง","industryType":"สีข้าว","status":"ดำเนินกิจการ","lat":15.865556,"lon":104.594659},"10370008925476":{"id":"10370008925476","name":"โรงสีธัญญาทรัพย์","owner":"บริษัท โรงสีธัญญาทรัพย์ จำกัด","displayRegistration":"3-9(1)-89/47อจ","province":"อำนาจเจริญ","district":"เมืองอำนาจเจริญ","subdistrict":"นาผือ","industryType":"สีข้าว กำลังสีสูงสุดของร้านสีข้าว 120 เกวียน/วัน","status":"ดำเนินกิจการ","lat":15.983451,"lon":104.636083},"20370100125460":{"id":"20370100125460","name":"โรงน้ำแข็งหลอดอำนาจ","owner":"นายนิวัติ กอบุญช่วย","displayRegistration":"จ3-14-1/46อจ","province":"อำนาจเจริญ","district":"เมืองอำนาจเจริญ","subdistrict":"บุ่ง","industryType":"ทำน้ำแข็งก้อนเล็กและน้ำดื่ม","status":"ดำเนินกิจการ","lat":15.872031,"lon":104.626247},"20370031525473":{"id":"20370031525473","name":"รังสิงห์เฟอร์นิเจอร์","owner":"นายรังสิงห์ พลอาษา","displayRegistration":"จ3-37-315/47อจ","province":"อำนาจเจริญ","district":"เมืองอำนาจเจริญ","subdistrict":"น้ำปลีก","industryType":"ทำเครื่องเรือนจากไม้","status":"ดำเนินกิจการ","lat":15.804804,"lon":104.535456},"10370002225477":{"id":"10370002225477","name":"บริษัท ข้าวเสนางค์ จำกัด","owner":"บริษัท ข้าวเสนางค์ จำกัด","displayRegistration":"3-2(1)-22/47อจ","province":"อำนาจเจริญ","district":"เสนางคนิคม","subdistrict":"เสนางคนิคม","industryType":"อบเมล็ดข้าว และสีข้าว กำลังสีสูงสุดของร้านสีข้าว 180 เกวียน/วัน","status":"ดำเนินกิจการ","lat":16.026744,"lon":104.640029},"20370005325470":{"id":"20370005325470","name":"คูเฮงฮวด","owner":"นายนคร ครุประทีป","displayRegistration":"จ3-9(6)-53/47อจ","province":"อำนาจเจริญ","district":"ปทุมราชวงศา","subdistrict":"นาหว้า","industryType":"ทำมันเส้น","status":"ดำเนินกิจการ","lat":15.902947,"lon":104.944283},"20370200125469":{"id":"20370200125469","name":"บริษัท บุษยาการสร้าง จำกัด","owner":"บริษัท บุษยาการสร้าง จำกัด","displayRegistration":"จ3-58(1)-1/46อจ","province":"อำนาจเจริญ","district":"เมืองอำนาจเจริญ","subdistrict":"บุ่ง","industryType":"ผลิตคอนกรีตผสมเสร็จ ทำผลิตภัณฑ์คอนกรีต","status":"ดำเนินกิจการ","lat":15.861733,"lon":104.606678},"20370000225469":{"id":"20370000225469","name":"วารีเทพอำนาจเจริญ","owner":"บริษัท วารีเทพ อำนาจเจริญ จำกัด","displayRegistration":"จ3-14-2/46อจ","province":"อำนาจเจริญ","district":"เมืองอำนาจเจริญ","subdistrict":"บุ่ง","industryType":"ทำน้ำแข็งก้อนเล็กและน้ำดื่ม","status":"ดำเนินกิจการ","lat":15.871216,"lon":104.671405},"20370001225484":{"id":"20370001225484","name":"อำนาจเจริญค้าของเก่า","owner":"นายเอกธนา สุขสวัสดิ์","displayRegistration":"จ3-64(11)-12/48อจ","province":"อำนาจเจริญ","district":"เมืองอำนาจเจริญ","subdistrict":"นาผือ","industryType":"อัดเศษโลหะและกระดาษ","status":"ดำเนินกิจการ","lat":15.970783,"lon":104.633279},"20370003225482":{"id":"20370003225482","name":"พ่อซออิฐแดง","owner":"นางวาสนา วายโสกา","displayRegistration":"จ3-56-32/48อจ","province":"อำนาจเจริญ","district":"เมืองอำนาจเจริญ","subdistrict":"นายม","industryType":"ผลิตอิฐจากดินเหนียว","status":"ดำเนินกิจการ","lat":15.862177,"lon":104.515858},"20370007025490":{"id":"20370007025490","name":"บุญอนันต์เฟอร์นิเจอร์","owner":"นายอนัน บุญประวงศ์","displayRegistration":"จ3-37-70/49อจ","province":"อำนาจเจริญ","district":"หัวตะพาน","subdistrict":"โพนเมืองน้อย","industryType":"ทำเครื่องเรือนจากไม้","status":"ดำเนินกิจการ","lat":15.653731,"lon":104.624129},"20370009825517":{"id":"20370009825517","name":"ส. พานิช","owner":"นางมัจฉา บุญมาศ","displayRegistration":"จ3-9(6)-98/51อจ","province":"อำนาจเจริญ","district":"ปทุมราชวงศา","subdistrict":"คำโพน","industryType":"ทำมันเส้น","status":"ดำเนินกิจการ","lat":15.926637,"lon":104.961156},"20370003425504":{"id":"20370003425504","name":"โชคฮวดเฮง","owner":"นายภากร ครุประทีป","displayRegistration":"จ3-9(6)-34/50อจ","province":"อำนาจเจริญ","district":"ชานุมาน","subdistrict":"โคกก่ง","industryType":"ทำมันเส้น","status":"ดำเนินกิจการ","lat":16.033562,"lon":104.913889},"20370002325515":{"id":"20370002325515","name":"พนาน้ำแข็งหลอด","owner":"นายนิวัติ กอบุญช่วย","displayRegistration":"จ3-14-23/51อจ","province":"อำนาจเจริญ","district":"พนา","subdistrict":"พระเหลา","industryType":"ผลิตน้ำแข็งก้อนเล็กและน้ำดื่ม","status":"ดำเนินกิจการ","lat":15.681824,"lon":104.850266},"20370000825516":{"id":"20370000825516","name":"วารีเทพลืออำนาจ","owner":"บริษัท วารีเทพ อำนาจเจริญ จำกัด","displayRegistration":"จ3-14-8/51อจ","province":"อำนาจเจริญ","district":"ลืออำนาจ","subdistrict":"เปือย","industryType":"ผลิตน้ำแข็งซองและน้ำแข็งก้อนเล็ก","status":"ดำเนินกิจการ","lat":15.680083,"lon":104.701582},"20370014625514":{"id":"20370014625514","name":"บริษัท เพชร พลอย รีไซเคิล จำกัด","owner":"บริษัท เพชร พลอย รีไซเคิล จำกัด","displayRegistration":"จ3-105-146/51อจ","province":"อำนาจเจริญ","district":"เสนางคนิคม","subdistrict":"โพนทอง","industryType":"คัดแยกสิ่งปฏิกูลหรือวัสดุที่ไม่ใช้แล้วที่ไม่เป็นอันตราย ได้แก่ เกล็ก สแตนเลส อลูมิเนียม กระดาษ และอื่นๆ หรือการโม่บดย่อยพลาสติกหนือโฟม การอัดเศษโลหะ อัดเศษกระดาษ เป็นต้น","status":"ดำเนินกิจการ","lat":16.020695,"lon":104.727833},"20370003725507":{"id":"20370003725507","name":"ร้านนันทวันวัสดุ","owner":"นางนันทวัน ชมภูศรี","displayRegistration":"จ3-58(1)-37/50อจ","province":"อำนาจเจริญ","district":"ลืออำนาจ","subdistrict":"เปือย","industryType":"ทำผลิตภัณฑ์คอนกรีต","status":"ดำเนินกิจการ","lat":15.679125,"lon":104.701276},"20370002925496":{"id":"20370002925496","name":"วารีเทพปทุมราชวงศา","owner":"บริษัท วารีเทพ อำนาจเจริญ จำกัด","displayRegistration":"จ3-14-29/49อจ","province":"อำนาจเจริญ","district":"ปทุมราชวงศา","subdistrict":"นาหว้า","industryType":"ทำน้ำแข็งก้อนเล็กและน้ำดื่ม","status":"ดำเนินกิจการ","lat":15.876962,"lon":104.915308},"20370002025495":{"id":"20370002025495","name":"ประดิษฐอิฐมอญ","owner":"นายประดิษฐ ฝนทั่ง","displayRegistration":"จ3-56-20/49อจ","province":"อำนาจเจริญ","district":"เมืองอำนาจเจริญ","subdistrict":"นายม","industryType":"ผลิตอิฐมอญ","status":"ดำเนินกิจการ","lat":15.864444,"lon":104.511957},"20370001725509":{"id":"20370001725509","name":"เจริญทอง","owner":"นายวิชัย ลำทอง","displayRegistration":"จ3-58(1)-17/50อจ","province":"อำนาจเจริญ","district":"ปทุมราชวงศา","subdistrict":"นาหว้า","industryType":"ทำผลิตภัณฑ์คอนกรีต","status":"ดำเนินกิจการ","lat":15.88585,"lon":104.910806},"20370001725558":{"id":"20370001725558","name":"สุรชัยทรัพย์ไพศาล","owner":"นายสุรชัย จันทร์แดง","displayRegistration":"จ3-9(6)-17/55อจ","province":"อำนาจเจริญ","district":"ปทุมราชวงศา","subdistrict":"คำโพน","industryType":"ทำมันเส้น","status":"ดำเนินกิจการ","lat":15.990704,"lon":104.971265},"20370004325539":{"id":"20370004325539","name":"โรงสีข้าวไทยสามัคคีไรซ์","owner":"ห้างหุ้นส่วนจำกัด โรงสีไทยสามัคคีไรซ์","displayRegistration":"จ3-9(1)-43/53อจ","province":"อำนาจเจริญ","district":"เมืองอำนาจเจริญ","subdistrict":"ปลาค้าว","industryType":"สีข้าว ขนาดกำลังการผลิต 160 เกวียนต่อวัน","status":"ดำเนินกิจการ","lat":15.801249,"lon":104.763798},"20370003825539":{"id":"20370003825539","name":"โรงสีโชคสว่าง","owner":"นายชัชวาลย์ มารักษ์","displayRegistration":"จ3-9(6)-38/53อจ","province":"อำนาจเจริญ","district":"เมืองอำนาจเจริญ","subdistrict":"นายม","industryType":"ทำมันเส้น","status":"ดำเนินกิจการ","lat":15.861236,"lon":104.523153},"20370467225648":{"id":"20370467225648","name":"ห้างหุ้นส่วนจำกัด ฮุ่นกี่พืชผลพาณิชย์","owner":"ห้างหุ้นส่วนจำกัด ฮุ่นกี่พืชผลพาณิชย์","displayRegistration":"จ3-50(4)-96/64อจ","province":"อำนาจเจริญ","district":"เมืองอำนาจเจริญ","subdistrict":"นายม","industryType":"ผลิตแอสฟัลท์ติกคอนกรีต","status":"ดำเนินกิจการ","lat":15.84682,"lon":104.497936},"20370014925534":{"id":"20370014925534","name":"เจษฎาเฟอร์นิเจอร์","owner":"นางสุพิญญา ธรรมลี","displayRegistration":"จ3-34(2)-149/53อจ","province":"อำนาจเจริญ","district":"เมืองอำนาจเจริญ","subdistrict":"น้ำปลีก","industryType":"ทำวงกบประตูหน้าต่างและเครื่องเรือนจากไม้","status":"ดำเนินกิจการ","lat":15.79973,"lon":104.525058},"20370001225542":{"id":"20370001225542","name":"ห้างหุ้นส่วนจำกัด กิเลนทอง 2011","owner":"ห้างหุ้นส่วนจำกัด กิเลนทอง 2011","displayRegistration":"จ3-9(1)-12/54อจ","province":"อำนาจเจริญ","district":"ปทุมราชวงศา","subdistrict":"นาป่าแซง","industryType":"สีข้าว","status":"ดำเนินกิจการ","lat":15.879595,"lon":104.879104},"20370100825549":{"id":"20370100825549","name":"พ่อสารร่ำรวย","owner":"นางสาววราภรณ์ ราชชมภู","displayRegistration":"จ3-64(11)-8/54อจ","province":"อำนาจเจริญ","district":"เมืองอำนาจเจริญ","subdistrict":"บุ่ง","industryType":"อัดเศษโลหะและกระดาษ","status":"ดำเนินกิจการ","lat":15.863194,"lon":104.620992},"20370000425556":{"id":"20370000425556","name":"พงษ์เทพเฟอร์นิเจอร์","owner":"นายเดช ธรรมลี","displayRegistration":"จ3-34(2)-4/55อจ","province":"อำนาจเจริญ","district":"เมืองอำนาจเจริญ","subdistrict":"น้ำปลีก","industryType":"ทำวงกบประตูหน้าต่างและเครื่องเรือนจากไม้","status":"ดำเนินกิจการ","lat":15.79973,"lon":104.525197},"20370000925530":{"id":"20370000925530","name":"ห้างหุ้นส่วนจำกัด เกษตรธัญญเจริญลานมัน","owner":"ห้างหุ้นส่วนจำกัด เกษตรธัญญเจริญลานมัน","displayRegistration":"จ3-9(6)-9/53อจ","province":"อำนาจเจริญ","district":"เสนางคนิคม","subdistrict":"ไร่สีสุก","industryType":"ทำมันเส้น","status":"ดำเนินกิจการ","lat":16.111904,"lon":104.607903},"20370005225514":{"id":"20370005225514","name":"บริษัท กิมชุนไอซ์ ชานุมาน จำกัด","owner":"บริษัท กิมชุนไอซ์ ชานุมาน จำกัด","displayRegistration":"จ3-14-52/51อจ","province":"อำนาจเจริญ","district":"ชานุมาน","subdistrict":"ชานุมาน","industryType":"ผลิตน้ำแข็งก้อนเล็กและน้ำดื่ม","status":"ดำเนินกิจการ","lat":16.205971,"lon":104.992541},"10370004225517":{"id":"10370004225517","name":"ห้างหุ้นส่วนจำกัด อุบลถาวรค้าพืช","owner":"ห้างหุ้นส่วนจำกัด อุบลถาวรค้าพืช","displayRegistration":"3-9(1)-42/51อจ","province":"อำนาจเจริญ","district":"เมืองอำนาจเจริญ","subdistrict":"ห้วยไร่","industryType":"สีข้าว กำลังสีสูงสุดของร้านสีข้าว 350 เกวียน/วัน","status":"ดำเนินกิจการ","lat":15.866824,"lon":104.696641},"20370004525526":{"id":"20370004525526","name":"สุรพลก่อสร้าง","owner":"นายสุรพล ภาคะ","displayRegistration":"จ3-58(1)-45/52อจ","province":"อำนาจเจริญ","district":"ปทุมราชวงศา","subdistrict":"นาหว้า","industryType":"ทำผลิตภัณฑ์คอนกรีต","status":"ดำเนินกิจการ","lat":15.884177,"lon":104.910118},"20370005825529":{"id":"20370005825529","name":"ลานมันสำราญสุข","owner":"นางรุ่งนภา สำราญสุข","displayRegistration":"จ3-9(6)-58/52อจ","province":"อำนาจเจริญ","district":"ชานุมาน","subdistrict":"คำเขื่อนแก้ว","industryType":"ทำมันเส้น","status":"ดำเนินกิจการ","lat":16.139453,"lon":104.922735},"20370006025525":{"id":"20370006025525","name":"พูลจิตรฟาร์ม","owner":"บริษัทพูลจิตฟาร์ม จำกัด","displayRegistration":"จ3-43(1)-60/52อจ","province":"อำนาจเจริญ","district":"เมืองอำนาจเจริญ","subdistrict":"นาแต้","industryType":"ผลิตปุ๋ยจากมูลสัตว์","status":"ดำเนินกิจการ","lat":15.921167,"lon":104.695903},"20370010225525":{"id":"20370010225525","name":"เพิ่มพูน ธัญทิพย์","owner":"นายศรีประจักษ์ สุวะไกร","displayRegistration":"จ3-9(6)-102/52อจ","province":"อำนาจเจริญ","district":"เมืองอำนาจเจริญ","subdistrict":"บุ่ง","industryType":"ทำมันเส้น","status":"ดำเนินกิจการ","lat":15.784592,"lon":104.634361},"20370001525537":{"id":"20370001525537","name":"ลานมัน ห้างหุ้นส่วนจำกัด โรงสีโชคประเสริฐ อำนาจเจริญ","owner":"ห้างหุ้นส่วนจำกัด โรงสีโชคประเสริฐ อำนาจเจริญ","displayRegistration":"จ3-9(6)-15/53อจ","province":"อำนาจเจริญ","district":"ปทุมราชวงศา","subdistrict":"คำโพน","industryType":"ทำมันเส้น","status":"ดำเนินกิจการ","lat":15.945548,"lon":104.990596},"20370007125571":{"id":"20370007125571","name":"บรรธุปาก่อสร้าง","owner":"นายปณชัย บรรธุปา","displayRegistration":"จ3-58(1)-71/57อจ","province":"อำนาจเจริญ","district":"ปทุมราชวงศา","subdistrict":"นาหว้า","industryType":"ทำผลิตภัณฑ์คอนกรีต","status":"ดำเนินกิจการ","lat":15.88017,"lon":104.913179},"20370002725573":{"id":"20370002725573","name":"สิทธิ์โชค","owner":"นายถนัด ผิวทอง","displayRegistration":"จ3-9(6)-27/57อจ","province":"อำนาจเจริญ","district":"ชานุมาน","subdistrict":"คำเขื่อนแก้ว","industryType":"ทำมันเส้น","status":"ดำเนินกิจการ","lat":16.165556,"lon":104.949963},"20370001925570":{"id":"20370001925570","name":"ฤกษ์ลาฏนำทรัพย์","owner":"นายสมพงษ์ นาแพง","displayRegistration":"จ3-53(9)-19/57อจ","province":"อำนาจเจริญ","district":"พนา","subdistrict":"พนา","industryType":"บดย่อยพลาสติก","status":"ดำเนินกิจการ","lat":15.699805,"lon":104.798788},"20370008625579":{"id":"20370008625579","name":"ศิลาการช่าง","owner":"นายศิลา โกมล","displayRegistration":"จ3-58(1)-86/57อจ","province":"อำนาจเจริญ","district":"เมืองอำนาจเจริญ","subdistrict":"ไก่คำ","industryType":"ทำผลิตภัณฑ์คอนกรีต","status":"ดำเนินกิจการ","lat":15.822616,"lon":104.631418},"20370004625573":{"id":"20370004625573","name":"NULL","owner":"นายสุชาติ ขันอาสวะ","displayRegistration":"จ3-37-46/57อจ","province":"อำนาจเจริญ","district":"เมืองอำนาจเจริญ","subdistrict":"บุ่ง","industryType":"ทำเครื่องเรือนจากไม้","status":"ดำเนินกิจการ","lat":15.843322,"lon":104.630281},"20370014225570":{"id":"20370014225570","name":"บริษัท บุษยาคอนกรีต อำนาจเจริญ จำกัด","owner":"บริษัท บุษยาคอนกรีต อำนาจเจริญ จำกัด","displayRegistration":"จ3-58(1)-142/57อจ","province":"อำนาจเจริญ","district":"ปทุมราชวงศา","subdistrict":"คำโพน","industryType":"ผลิตคอนกรีตผสมเสร็จ","status":"ดำเนินกิจการ","lat":15.938584,"lon":104.978336},"20370015225553":{"id":"20370015225553","name":"ห้างหุ้นส่วนจำกัด พยงค์พืชผล","owner":"ห้างหุ้นส่วนจำกัด พยงค์พืชผล","displayRegistration":"จ3-9(6)-152/55อจ","province":"อำนาจเจริญ","district":"เมืองอำนาจเจริญ","subdistrict":"ห้วยไร่","industryType":"ทำมันเส้น","status":"ดำเนินกิจการ","lat":15.867996,"lon":104.692943},"20370000225568":{"id":"20370000225568","name":"ห้างหุ้นส่วนจำกัด ศุภกิจการยาง","owner":"ห้างหุ้นส่วนจำกัด ศุภกิจการยาง","displayRegistration":"จ3-52(2)-2/56อจ","province":"อำนาจเจริญ","district":"เสนางคนิคม","subdistrict":"เสนางคนิคม","industryType":"การหั่น ผสม รีดยางให้เป็นแผ่น และผลิตเครื่องจักร อุปกรณ์ที่ทำจากเหล็ก เช่น เครื่องหั่น เครื่องรีดยาง","status":"ดำเนินกิจการ","lat":16.045293,"lon":104.636681},"20370000825540":{"id":"20370000825540","name":"บริษัท นิยมฟู๊ดส์ จำกัด","owner":"บริษัท นิยมฟู๊ดส์ จำกัด","displayRegistration":"จ3-9(4)-8/54อจ","province":"อำนาจเจริญ","district":"เมืองอำนาจเจริญ","subdistrict":"บุ่ง","industryType":"ทำน้ำพริก","status":"ดำเนินกิจการ","lat":15.875725,"lon":104.629523},"20370014925542":{"id":"20370014925542","name":"สามเคอิฐบล็อก","owner":"นายอดุลย์ คณาเสน","displayRegistration":"จ3-58(1)-149/54อจ","province":"อำนาจเจริญ","district":"เมืองอำนาจเจริญ","subdistrict":"บุ่ง","industryType":"ทำผลิตภัณฑ์คอนกรีต","status":"ดำเนินกิจการ","lat":15.86232,"lon":104.598172},"20370002925553":{"id":"20370002925553","name":"บริษัท โรงสีข้าวเกษตรธัญญเจริญรุ่งเรือง จำกัด","owner":"บริษัท โรงสีข้าวเกษตรธัญญรุ่งเรือง จำกัด","displayRegistration":"จ3-9(1)-29/55อจ","province":"อำนาจเจริญ","district":"เมืองอำนาจเจริญ","subdistrict":"บุ่ง","industryType":"สีข้าว(ขนาดการผลิต 350 เกวียน/วัน)","status":"ดำเนินกิจการ","lat":15.887882,"lon":104.670656},"20370014025558":{"id":"20370014025558","name":"ลานมันสินเจริญ","owner":"นายอิทธิพล ทาพารักษ์","displayRegistration":"จ3-9(6)-140/55อจ","province":"อำนาจเจริญ","district":"ชานุมาน","subdistrict":"โคกก่ง","industryType":"ทำมันเส้น","status":"ดำเนินกิจการ","lat":16.092085,"lon":105.002909},"20370014125556":{"id":"20370014125556","name":"หมิ่งการเกษตร","owner":"นายสุพรชัย ผาดี","displayRegistration":"จ3-9(6)-141/55อจ","province":"อำนาจเจริญ","district":"ชานุมาน","subdistrict":"โคกก่ง","industryType":"ทำมันเส้น","status":"ดำเนินกิจการ","lat":16.057627,"lon":104.928398},"20370005925550":{"id":"20370005925550","name":"ห้างหุ้นส่วนจำกัด โชคทวี 2 ค้าข้าว","owner":"ห้างหุ้นส่วนจำกัด โชคทวี 2 ค้าข้าว","displayRegistration":"จ3-9(1)-59/55อจ","province":"อำนาจเจริญ","district":"ปทุมราชวงศา","subdistrict":"นาหว้า","industryType":"สีข้าว","status":"ดำเนินกิจการ","lat":15.904575,"lon":104.948068},"20370002825597":{"id":"20370002825597","name":"ลานมันพรทวี","owner":"นางหอมไกร หลวงมณี","displayRegistration":"จ3-9(6)-28/59อจ","province":"อำนาจเจริญ","district":"เสนางคนิคม","subdistrict":"ไร่สีสุก","industryType":"ทำมันเส้น","status":"ดำเนินกิจการ","lat":16.106764,"lon":104.611125},"20370001325573":{"id":"20370001325573","name":"โรงเส้น ช.ระติเดช","owner":"นายอิทธิพล ระติเดช","displayRegistration":"จ3-10(3)-13/57อจ","province":"อำนาจเจริญ","district":"เมืองอำนาจเจริญ","subdistrict":"ไก่คำ","industryType":"ทำเส้นก๋วยจั๊บ","status":"ดำเนินกิจการ","lat":15.786309,"lon":104.617143},"10370001225601":{"id":"10370001225601","name":"บริษัท ไทยสิน ไรซ์มิล จำกัด","owner":"บริษัท ไทยสิน ไรซ์มิล จำกัด","displayRegistration":"3-2(1)-12/60อจ","province":"อำนาจเจริญ","district":"เมืองอำนาจเจริญ","subdistrict":"นาผือ","industryType":"อบความชื้นข้าวเปลือก","status":"ดำเนินกิจการ","lat":15.994115,"lon":104.638349},"20370002625591":{"id":"20370002625591","name":"บริษัท พระนครศรีอยุธยาพาณิชย์และอุตสาหกรรม จำกัด","owner":"บริษัท พระนครศรีอยุธยาพาณิชย์และอุตสาหกรรม จำกัด","displayRegistration":"จ3-50(4)-26/59อจ","province":"อำนาจเจริญ","district":"ลืออำนาจ","subdistrict":"โคกกลาง","industryType":"ผลิตแอสฟัลท์ติกคอนกรีต","status":"ดำเนินกิจการ","lat":15.760342,"lon":104.635243},"10370001725592":{"id":"10370001725592","name":"ห้างหุ้นส่วนจำกัด สาม เค เครือเกษม","owner":"ห้างหุ้นส่วนจำกัด สาม เค เครือเกษตร","displayRegistration":"3-34(4)-17/59อจ","province":"อำนาจเจริญ","district":"เมืองอำนาจเจริญ","subdistrict":"นายม","industryType":"ผลิตชิ้นไม้สับจากยางพาราและไม้ที่ปลูกขึ้นโดยเฉพาะ 13 ชนิด ตามมติคณะรัฐมนตรี","status":"ดำเนินกิจการ","lat":15.842444,"lon":104.495071},"10370004625583":{"id":"10370004625583","name":"พี.พี.รุ่งเรืองกิจ วู๊ดชิพ","owner":"นายวุฒิกร รำมะนา","displayRegistration":"3-34(4)-46/58อจ","province":"อำนาจเจริญ","district":"เมืองอำนาจเจริญ","subdistrict":"ปลาค้าว","industryType":"ผลิตชิ้นไม้สับจากไม้ที่ปลูกขึ้นโดยเฉพาะ13ชนิดตามมติคณะรัฐมนตรี","status":"ดำเนินกิจการ","lat":15.772123,"lon":104.753764},"20370010125592":{"id":"20370010125592","name":"บริษัท กิมชุนไอซ์ เสนางคนิคม จำกัด","owner":"บริษัท กิมชุนไอซ์ เสนางคนิคม จำกัด","displayRegistration":"จ3-14-101/59อจ","province":"อำนาจเจริญ","district":"เสนางคนิคม","subdistrict":"ไร่สีสุก","industryType":"ทำน้ำแข็งก้อนเล็กและน้ำดื่ม","status":"ดำเนินกิจการ","lat":16.019965,"lon":104.638837},"20370003725580":{"id":"20370003725580","name":"โชคชัยเฟอร์นเจอร์","owner":"นายโชคชัย สุวะพันธ์","displayRegistration":"จ3-34(2)-37/58อจ","province":"อำนาจเจริญ","district":"เมืองอำนาจเจริญ","subdistrict":"น้ำปลีก","industryType":"ทำวงกบประตูหน้าต่างและเครื่องเรือนจากไม้","status":"ดำเนินกิจการ","lat":15.803137,"lon":104.523813},"10370001025605":{"id":"10370001025605","name":"พงษ์พัฒนาการเกษตร","owner":"ห้างหุ้นส่วนจำกัด พงษ์พัฒนาการเกษตร","displayRegistration":"3-2(1)-10/60อจ","province":"อำนาจเจริญ","district":"ปทุมราชวงศา","subdistrict":"นาหว้า","industryType":"อบความชื้นข้าวเปลือก","status":"ดำเนินกิจการ","lat":15.892476,"lon":104.925984},"10370004225582":{"id":"10370004225582","name":"ห้างหุ้นส่วนจำกัด คณากิจวู๊ดชิพ","owner":"ห้างหุ้นส่วนจำกัด คณากิจวู๊ดชิพ","displayRegistration":"3-34(4)-42/58อจ","province":"อำนาจเจริญ","district":"ปทุมราชวงศา","subdistrict":"นาป่าแซง","industryType":"ผลิตชิ้นไม้สับจากไม้ที่ปลูกขึ้นโดยเฉพาะ 13 ชนิดตามมติคณะรัฐมนตรีเพื่อจำหน่าย","status":"ดำเนินกิจการ","lat":15.879556,"lon":104.880826},"20370011925578":{"id":"20370011925578","name":"เทพฤทธิ์เฟอร์นิเจอร์","owner":"นางสาวชนาภา คูณมา","displayRegistration":"จ3-34(2)-119/57อจ","province":"อำนาจเจริญ","district":"เมืองอำนาจเจริญ","subdistrict":"น้ำปลีก","industryType":"ทำวงกบประตูหน้าต่างและเครื่องเรือนจากไม้","status":"ดำเนินกิจการ","lat":15.797255,"lon":104.527555},"20370005325579":{"id":"20370005325579","name":"NULL","owner":"นายอาทิตย์ รัตนมณีรัศมี","displayRegistration":"จ3-9(6)-53/57อจ","province":"อำนาจเจริญ","district":"ชานุมาน","subdistrict":"ป่าก่อ","industryType":"ทำมันเส้น","status":"ดำเนินกิจการ","lat":16.081674,"lon":104.853392},"20370008925573":{"id":"20370008925573","name":"หัวตะพานน้ำแข็งหลอด","owner":"นายนิวัติ กอบุญช่วย","displayRegistration":"จ3-14-89/57อจ","province":"อำนาจเจริญ","district":"หัวตะพาน","subdistrict":"สร้างถ่อน้อย","industryType":"ทำน้ำแข็งก้อนเล็กและน้ำดื่ม","status":"ดำเนินกิจการ","lat":15.691181,"lon":104.489748},"20370004425529":{"id":"20370004425529","name":"สมพรชัยเสาปูนดงแคนใหญ่","owner":"นายสุดใจ สุตะคาร","displayRegistration":"จ3-58(1)-44/52อจ","province":"อำนาจเจริญ","district":"เมืองอำนาจเจริญ","subdistrict":"นายม","industryType":"ทำผลิตภัณฑ์คอนกรีต","status":"ดำเนินกิจการ","lat":15.851337,"lon":104.505659},"10370003325607":{"id":"10370003325607","name":"ศรีประจักษ์","owner":"นายศรีประจักษ์ สุวะไกร","displayRegistration":"3-34(4)-33/60อจ","province":"อำนาจเจริญ","district":"เมืองอำนาจเจริญ","subdistrict":"ไก่คำ","industryType":"ผลิตชิ้นไม้สับจากไม้ยางพาราและไม้ที่ปลูกขึ้นโดยเฉพาะ 13 ชนิด ตามมติคณะรัฐมนตรีเพื่อจำหน่าย","status":"ดำเนินกิจการ","lat":15.784719,"lon":104.635307},"10370007025591":{"id":"10370007025591","name":"บริษัท อำนาจเจริญ วารีเทพ จำกัด","owner":"บริษัท อำนาจเจริญ วารีเทพอำนาจเจริญ จำกัด","displayRegistration":"3-14-70/59อจ","province":"อำนาจเจริญ","district":"เมืองอำนาจเจริญ","subdistrict":"หนองมะแซว","industryType":"ผลิตน้ำแข็งหลอดใหญ่","status":"ดำเนินกิจการ","lat":15.864345,"lon":104.718917},"20370003425579":{"id":"20370003425579","name":"บริษัท เค.พลาสติก ไลฟ์ จำกัด","owner":"บริษัท เค.พลาสติก ไลฟ์จำกัด","displayRegistration":"จ3-53(1)-34/57อจ","province":"อำนาจเจริญ","district":"เมืองอำนาจเจริญ","subdistrict":"สร้างนกทา","industryType":"ทำผลิตภัณฑ์จากพลาสติกเช่นขวดและฝาขวดพลาสติก","status":"ดำเนินกิจการ","lat":15.859453,"lon":104.745348},"20370026425580":{"id":"20370026425580","name":"อู่อำนาจออโต้กรุ๊ป","owner":"นางสาวเสาวนีย์ สิทธิไชยากุล","displayRegistration":"จ3-95(1)-264/58อจ","province":"อำนาจเจริญ","district":"ลืออำนาจ","subdistrict":"โคกกลาง","industryType":"ปะพุเคาะพ่นสี","status":"ดำเนินกิจการ","lat":15.77394,"lon":104.634916},"20370001025587":{"id":"20370001025587","name":"บริษัท ส.สิทธิโชคการโยธา จำกัด","owner":"บริษัท ส.สิทธิโชคการโยธา จำกัด","displayRegistration":"จ3-50(4)-10/58อจ","province":"อำนาจเจริญ","district":"ลืออำนาจ","subdistrict":"โคกกลาง","industryType":"ผลิตแอสฟัลท์ติกคอนกรีต","status":"ดำเนินกิจการ","lat":15.765211,"lon":104.635613},"10370004525585":{"id":"10370004525585","name":"ห้างหุ้นส่วนจำกัด เกษตรธัญญเจริญลานมัน","owner":"ห้างหุ้นส่วนจำกัด เกษตรธัญญเจริญลานมัน","displayRegistration":"3-34(4)-45/58อจ","province":"อำนาจเจริญ","district":"เสนางคนิคม","subdistrict":"ไร่สีสุก","industryType":"ผลิตชิ้นไม้สับจากไม้ที่ปลูกขึ้นโดยเฉพาะ 13 ชนิด ตามมติคณะรัฐมนตรี","status":"ดำเนินกิจการ","lat":16.112021,"lon":104.609182},"10370004325580":{"id":"10370004325580","name":"บริษัท ธัญญรุ่งเรืองวู๊ดชิพ จำกัด","owner":"บริษัท ธัญญรุ่งเรืองวู๊ดชิพ จำกัด","displayRegistration":"3-34(4)-43/58อจ","province":"อำนาจเจริญ","district":"เมืองอำนาจเจริญ","subdistrict":"บุ่ง","industryType":"ผลิตชิ้นไม้สับจากไม้ที่ปลูกขึ้นโดยเฉพาะ 13 ชนิด ตามมติคณะรัฐมนตรี","status":"ดำเนินกิจการ","lat":15.885954,"lon":104.671753},"20370000525603":{"id":"20370000525603","name":"โรงสีข้าวบ้านไร่","owner":"นายอาคม ซรีลาศักดิ์","displayRegistration":"จ3-9(1)-5/60อจ","province":"อำนาจเจริญ","district":"เสนางคนิคม","subdistrict":"ไร่สีสุก","industryType":"สีข้าว","status":"ดำเนินกิจการ","lat":16.076749,"lon":104.627467},"20370006425618":{"id":"20370006425618","name":"ห้างหุ้นส่วนจำกัด สามเคคอนกรีต","owner":"ห้างหุ้นส่วนจำกัด สามเค คอนกรีต","displayRegistration":"จ3-58(1)-64/61อจ","province":"อำนาจเจริญ","district":"เมืองอำนาจเจริญ","subdistrict":"นาหมอม้า","industryType":"ผลิตคอนกรีตผสมเสร็จ","status":"ดำเนินกิจการ","lat":15.840669,"lon":104.463056},"20370000825607":{"id":"20370000825607","name":"บริษัท ข้าวดินดี จำกัด","owner":"บริษัท ข้าวดินดี จำกัด","displayRegistration":"จ3-10(3)-8/60อจ","province":"อำนาจเจริญ","district":"เมืองอำนาจเจริญ","subdistrict":"ห้วยไร่","industryType":"ผลิตเส้นพาสต้าจากข้าวอินทรีย์","status":"ดำเนินกิจการ","lat":15.866368,"lon":104.697964},"20370001525602":{"id":"20370001525602","name":"ห้างหุ้นส่วนจำกัด นิตติยาคอนกรีต","owner":"ห้างหุ้นส่วนจำกัด นิตติยาคอนกรีต","displayRegistration":"จ3-64(13)-15/60อจ","province":"อำนาจเจริญ","district":"เสนางคนิคม","subdistrict":"ไร่สีสุก","industryType":"การกลึงเจาะคว้านกัดใสเจียนและซ่อมสร้างเครื่องจักร","status":"ดำเนินกิจการ","lat":16.049424,"lon":104.635983},"10370002025612":{"id":"10370002025612","name":"บริษัท หอมหอมฟาร์ม จำกัด","owner":"บริษัท หอมหอมฟาร์ม จำกัด","displayRegistration":"3-34(4)-20/61อจ","province":"อำนาจเจริญ","district":"เสนางคนิคม","subdistrict":"ไร่สีสุก","industryType":"ผลิตชิ้นไม้สับเพื่อจำหน่าย จากไม้ยางพาราและไม้ที่ปลูกขึ้นโดยเฉพาะ 13 ชนิด ตามมติคณะรัฐมนตรี","status":"ดำเนินกิจการ","lat":16.058706,"lon":104.645441},"20370004125582":{"id":"20370004125582","name":"ห้างหุ้นส่วนจำกัด โรงสีโชคประเสริฐอำนาจเจริญ","owner":"ห้างหุ้นส่วนจำกัด โรงสีโชคประเสริฐอำนาจเจริญ","displayRegistration":"จ3-43(1)-41/58อจ","province":"อำนาจเจริญ","district":"ปทุมราชวงศา","subdistrict":"คำโพน","industryType":"ผลิตปุ๋ยชีวภาพจากมูลสัตว์","status":"ดำเนินกิจการ","lat":15.947096,"lon":104.990019},"10370000225610":{"id":"10370000225610","name":"บริษัท น้ำตาลมิตรผล จำกัด สาขาอำนาจเจริญ","owner":"บริษัท น้ำตาลมิตรผล จำกัด","displayRegistration":"3-11(3)-2/61อจ","province":"อำนาจเจริญ","district":"เมืองอำนาจเจริญ","subdistrict":"น้ำปลีก","industryType":"การผลิตน้ำตาล น้ำตาลทรายดิบ กำลังการผลิต 20000 ตันอ้อนต่อวัน","status":"ดำเนินกิจการ","lat":15.834538,"lon":104.476974},"10370002925613":{"id":"10370002925613","name":"พีที รุ่งเรืองทรัพย์ วู๊ดชิพ","owner":"นางเพลินตา รำมะนา","displayRegistration":"3-34(4)-29/61อจ","province":"อำนาจเจริญ","district":"พนา","subdistrict":"ไม้กลอน","industryType":"ผลิตชิ้นไม้สับจากไม้ยางพาราและไม้ที่ปลูกขึ้นโดยเฉพาะ 13 ชนิด ตามมติคณะรัฐมนตรีเพื่อจำหน่าย","status":"ดำเนินกิจการ","lat":15.708099,"lon":104.827788},"20370006025590":{"id":"20370006025590","name":"เจริญพานิชย์","owner":"นายสุบรรณ ญาติเจริญ","displayRegistration":"จ3-34(2)-60/59อจ","province":"อำนาจเจริญ","district":"ปทุมราชวงศา","subdistrict":"นาป่าแซง","industryType":"ทำวงกบ ขอบประตู ขอบหน้าต่าง บานหน้าต่าง บานประตูหรือส่วนประกอบที่ทำด้วยไม้ของอาคาร","status":"ดำเนินกิจการ","lat":15.903965,"lon":104.875585},"20370002525593":{"id":"20370002525593","name":"บริษัท สาม เค ลานมัน จำกัด","owner":"บริษัท สาม เค ลานมัน จำกัด","displayRegistration":"จ3-9(6)-25/59อจ","province":"อำนาจเจริญ","district":"เมืองอำนาจเจริญ","subdistrict":"นาหมอม้า","industryType":"ทำมันเส้น","status":"ดำเนินกิจการ","lat":15.840207,"lon":104.462187},"40370001025583":{"id":"40370001025583","name":"บริษัท สวนสอง จำกัด","owner":"บริษัท สวนสอง จำกัด","displayRegistration":"3-88(2)-10/58อจ","province":"อำนาจเจริญ","district":"ปทุมราชวงศา","subdistrict":"คำโพน","industryType":"ผลิตพลังงานไฟฟ้าจากก๊าซชีวภาพ กำลังการผลิต 1 เมกะวัตต์","status":"ดำเนินกิจการ","lat":15.94348,"lon":104.988174},"20370007625570":{"id":"20370007625570","name":"บริษัท ไทเกอร์ไอซ์ จำกัด","owner":"บริษัท ไทเกอร์ไอซ์ จำกัด","displayRegistration":"จ3-14-76/57อจ","province":"อำนาจเจริญ","district":"เมืองอำนาจเจริญ","subdistrict":"นายม","industryType":"ทำน้ำแข็งก้อนเล็กและน้ำดื่ม","status":"ดำเนินกิจการ","lat":15.862756,"lon":104.524393},"20370024325592":{"id":"20370024325592","name":"ห้างหุ้นส่วนจำกัด พีพีอำนาจเจริญบิซิเนส","owner":"ห้างหุ้นส่วนจำกัด พีพีอำนาจเจริญบิซิเนส","displayRegistration":"จ3-58(1)-243/59อจ","province":"อำนาจเจริญ","district":"เมืองอำนาจเจริญ","subdistrict":"นาผือ","industryType":"ทำผลิตภัณฑ์คอนกรีต","status":"ดำเนินกิจการ","lat":15.968007,"lon":104.633271},"20370004225507":{"id":"20370004225507","name":"เจริญสินพืชผล","owner":"นายภูเบศ จุละกะ","displayRegistration":"จ3-58(1)-42/50อจ","province":"อำนาจเจริญ","district":"ปทุมราชวงศา","subdistrict":"นาหว้า","industryType":"ทำผลิตภัณฑ์คอนกรีต","status":"ดำเนินกิจการ","lat":15.805833,"lon":104.952353},"20370001225609":{"id":"20370001225609","name":"NULL","owner":"นางธันวดี โคตะสิน","displayRegistration":"จ3-9(6)-12/60อจ","province":"อำนาจเจริญ","district":"ชานุมาน","subdistrict":"ชานุมาน","industryType":"ทำมันเส้น","status":"ดำเนินกิจการ","lat":16.187905,"lon":105.006364},"20370003525188":{"id":"20370003525188","name":"อุบลถาวรค้าพืช","owner":"ห้างหุ้นส่วนจำกัด อุบลถาวรค้าพืช","displayRegistration":"จ3-9(1)-35/18อจ","province":"อำนาจเจริญ","district":"เมืองอำนาจเจริญ","subdistrict":"บุ่ง","industryType":"สีข้าว กำลังสีสูงสุดของร้านสีข้าว 60 เกวียน/วัน","status":"ดำเนินกิจการ","lat":15.873561,"lon":104.643711},"20370001225518":{"id":"20370001225518","name":"วิรัตน์เสาปูน","owner":"นายปรีชา สุตะคาน","displayRegistration":"จ3-58(1)-12/51อจ","province":"อำนาจเจริญ","district":"ลืออำนาจ","subdistrict":"โคกกลาง","industryType":"ผลิตภัณฑ์จากคอนกรีต","status":"ดำเนินกิจการ","lat":15.746676,"lon":104.637101},"20370007425609":{"id":"20370007425609","name":"ห้างหุ้นส่วนจำกัด พีพีอำนาจเจริญบิซิเนส","owner":"ห้างหุ้นส่วนจำกัด พีพีอำนาจเจริญบิซิเนส","displayRegistration":"จ3-58(1)-74/60อจ","province":"อำนาจเจริญ","district":"ลืออำนาจ","subdistrict":"โคกกลาง","industryType":"ทำผลิตภัณฑ์คอนกรีตและคอนกรีตผสมเสร็จ","status":"ดำเนินกิจการ","lat":15.770864,"lon":104.634685},"20370101225608":{"id":"20370101225608","name":"สุวรรณีเฟอร์นิเจอร์","owner":"นางสุวรรณี ถวิลผล","displayRegistration":"จ3-34(2)-12/60อจ","province":"อำนาจเจริญ","district":"เมืองอำนาจเจริญ","subdistrict":"น้ำปลีก","industryType":"ทำวงกบประตูหน้าต่างและเครื่องเรือนจากไม้","status":"ดำเนินกิจการ","lat":15.795978,"lon":104.514055},"20370000325608":{"id":"20370000325608","name":"ปัญญาเฟอร์นิเจอร์","owner":"นางราตรี จันทโสม","displayRegistration":"จ3-34(2)-3/60อจ","province":"อำนาจเจริญ","district":"เมืองอำนาจเจริญ","subdistrict":"น้ำปลีก","industryType":"ทำเครื่องเรือนเฟอร์นิเจอร์จากไม้ เช่น เปลระนาด ฯลฯ","status":"ดำเนินกิจการ","lat":15.80117,"lon":104.521496},"40370060025623":{"id":"40370060025623","name":"บริษัท มิตรผล ไบโอ-เพาเวอร์ (อำนาจเจริญ) จำกัด","owner":"บริษัท มิตรผล ไบโอ-เพาเวอร์ (อำนาจเจริญ) จำกัด","displayRegistration":"3-88(2)-3/62อจ","province":"อำนาจเจริญ","district":"เมืองอำนาจเจริญ","subdistrict":"น้ำปลีก","industryType":"ผลิตพลังงานไฟฟ้า จากเชื้อเพลิงชีวมวล กำลังการผลิตติดตั้ง 26 เมกะวัตต์ ผลิตและหรือจำหน่ายไอน้ำ จากเชื้อเพลิงชีวมวล","status":"ดำเนินกิจการ","lat":15.826167,"lon":104.469901},"20370007625521":{"id":"20370007625521","name":"ทรัพน์ไพศาล","owner":"นางวิลัยรัก รักพรม","displayRegistration":"จ3-9(6)-76/52อจ","province":"อำนาจเจริญ","district":"ชานุมาน","subdistrict":"คำเขื่อนแก้ว","industryType":"ทำมันเส้น","status":"ดำเนินกิจการ","lat":16.180564,"lon":104.961569},"10370061625633":{"id":"10370061625633","name":"กิจภิญโญ วูดชิป","owner":"นายสัญญา จารุภาค","displayRegistration":"3-34(4)-12/63อจ","province":"อำนาจเจริญ","district":"เมืองอำนาจเจริญ","subdistrict":"ดอนเมย","industryType":"ผลิตชิ้นไม้สับเพื่อจำหน่าย จากไม้ยางพาราและไม้ที่ปลูกขึ้นโดยเฉพาะ 13 ชนิด ตามมติคณะรัฐมนตรี","status":"ดำเนินกิจการ","lat":15.781952,"lon":104.546741},"20370062025633":{"id":"20370062025633","name":"ห้างหุ้นส่วนจำกัด เฉลิมชัยสุรินทร์ก่อสร้าง","owner":"ห้างหุ้นส่วนจำกัด เฉลิมชัยสุรินทร์ก่อสร้าง","displayRegistration":"จ3-50(4)-28/63อจ","province":"อำนาจเจริญ","district":"เสนางคนิคม","subdistrict":"ไร่สีสุก","industryType":"ผลิตแอสฟัลท์ติกคอนกรีต","status":"ดำเนินกิจการ","lat":16.111103,"lon":104.614687},"20370214825625":{"id":"20370214825625","name":"สันติเฟอร์นิเจอร์","owner":"นายสุขสานติ ศรีภิลา","displayRegistration":"จ3-37-67/62อจ","province":"อำนาจเจริญ","district":"หัวตะพาน","subdistrict":"เค็งใหญ่","industryType":"ทำเครื่องเรือนจากไม้ แคร่ไม้ไผ่","status":"ดำเนินกิจการ","lat":15.722577,"lon":104.529939},"20370097425634":{"id":"20370097425634","name":"ห้างหุ้นส่วนจำกัด เคทีพี กรุ๊ป","owner":"ห้างหุ้นส่วนจำกัด เคทีพี กรุ๊ป","displayRegistration":"จ3-58(1)-61/63อจ","province":"อำนาจเจริญ","district":"เมืองอำนาจเจริญ","subdistrict":"นาแต้","industryType":"ผลิตคอนกรีตผสมเสร็จ","status":"ดำเนินกิจการ","lat":15.921531,"lon":104.695566},"20370130825634":{"id":"20370130825634","name":"ห้างหุ้นส่วนจำกัด รัตนชาติก่อสร้าง","owner":"ห้างหุ้นส่วนจำกัด รัตนชาติก่อสร้าง","displayRegistration":"จ3-50(4)-60/63อจ","province":"อำนาจเจริญ","district":"เมืองอำนาจเจริญ","subdistrict":"โนนโพธิ์","industryType":"ผลิตแอสฟัลท์ติกคอนกรีต","status":"ดำเนินกิจการ","lat":15.862596,"lon":104.545115},"20370016225610":{"id":"20370016225610","name":"ห้างหุ้นส่วนจำกัด พีพีอำนาจเจริญบิซิเนส","owner":"ห้างหุ้นส่วนจำกัด พีพีอำนาจเจริญบิซิเนส","displayRegistration":"จ3-58(1)-162/61อจ","province":"อำนาจเจริญ","district":"ปทุมราชวงศา","subdistrict":"นาป่าแซง","industryType":"ทำผลิตภัณฑ์คอนกรีตและคอนกรีตผสมเสร็จ","status":"ดำเนินกิจการ","lat":15.877087,"lon":104.872579},"20370072725636":{"id":"20370072725636","name":"ห้างหุ้นส่วนจำกัด โชคเจริญ วาปีปทุม","owner":"ห้างหุ้นส่วนจำกัด โชคเจริญ วาปีปทุม","displayRegistration":"จ3-50(4)-35/63อจ","province":"อำนาจเจริญ","district":"เมืองอำนาจเจริญ","subdistrict":"นายม","industryType":"ผลิตแอสฟัลท์ติกคอนกรีต","status":"ดำเนินกิจการ","lat":15.842707,"lon":104.489079},"20370412825641":{"id":"20370412825641","name":"บริษัท บุษยาคอนกรีต อำนาจเจริญ จำกัด","owner":"บริษัท บุษยาคอนกรีต อำนาจเจริญ จำกัด","displayRegistration":"จ3-58(1)-204/64อจ","province":"อำนาจเจริญ","district":"เสนางคนิคม","subdistrict":"ไร่สีสุก","industryType":"ผลิตคอนกรีตผสมเสร็จ","status":"ดำเนินกิจการ","lat":16.048692,"lon":104.636265},"20370445025649":{"id":"20370445025649","name":"บริษัท อีเอเอ็น ไบโอก๊าซ จำกัด","owner":"บริษัท อีเอเอ็น ไบโอก๊าซ จำกัด","displayRegistration":"จ3-89-4/64อจ","province":"อำนาจเจริญ","district":"ชานุมาน","subdistrict":"โคกสาร","industryType":"ผลิตก๊าซชีวภาพ กำลังการผลิตรวม 9,408 ลูกบาศก์เมตรก๊าซต่อวัน","status":"ดำเนินกิจการ","lat":16.165056,"lon":104.989627},"60370117225643":{"id":"60370117225643","name":"โรงกลึงกิตติกิจเจริญ","owner":"นายสุเมธ ครองหินราช","displayRegistration":"อ2-64(13)-93/64อจ","province":"อำนาจเจริญ","district":"เสนางคนิคม","subdistrict":"เสนางคนิคม","industryType":"กลึงและเชื่อมโลหะทั่วไป","status":"ดำเนินกิจการ","lat":16.020104,"lon":104.63829},"60370118025646":{"id":"60370118025646","name":"บริษัท สตาร์เทค สตีล อำนาจเจริญ จำกัด","owner":"บริษัท สตาร์เทค สตีล อำนาจเจริญ จำกัด","displayRegistration":"อ2-63(2)-54/64อจ","province":"อำนาจเจริญ","district":"เมืองอำนาจเจริญ","subdistrict":"บุ่ง","industryType":"ทำส่วนประกอบสำหรับใช้ในการก่อสร้างอาคาร(หลังคาเหล็ก)","status":"ดำเนินกิจการ","lat":15.874273,"lon":104.646787},"20370461025648":{"id":"20370461025648","name":"บริษัท บุษยาคอนกรีต อำนาจเจริญ จำกัด","owner":"บริษัท บุษยาคอนกรีต อำนาจเจริญ จำกัด","displayRegistration":"จ3-58(1)-259/64อจ","province":"อำนาจเจริญ","district":"เมืองอำนาจเจริญ","subdistrict":"น้ำปลีก","industryType":"ผลิตคอนกรีตผสมเสร็จ","status":"ดำเนินกิจการ","lat":15.828237,"lon":104.461048},"20370444825643":{"id":"20370444825643","name":"ห้างหุ้นส่วนจำกัด สุริยาขนส่งอุบล","owner":"ห้างหุ้นส่วนจำกัด สุริยาขนส่งอุบล","displayRegistration":"จ3-50(4)-86/64อจ","province":"อำนาจเจริญ","district":"เสนางคนิคม","subdistrict":"เสนางคนิคม","industryType":"ผลิตแอสฟังท์ติกคอนกรีต","status":"ดำเนินกิจการ","lat":16.034,"lon":104.627099},"60370117725642":{"id":"60370117725642","name":"บุญศิริโฟรเซ่นโปรดักส์","owner":"บริษัท บุญศิริโฟรเซ่นโปรดักส์ จำกัด","displayRegistration":"อ2-92-17/64อจ","province":"อำนาจเจริญ","district":"เมืองอำนาจเจริญ","subdistrict":"บุ่ง","industryType":"ห้องเย็น","status":"ดำเนินกิจการ","lat":15.872126,"lon":104.648622},"20370086125641":{"id":"20370086125641","name":"บริษัท เอ บี ซี คอนกรีต(ลืออำนาจ) จำกัด","owner":"บริษัท เอ บี ซี คอนกรีต(ลืออำนาจ) จำกัด","displayRegistration":"จ3-58(1)-21/64อจ","province":"อำนาจเจริญ","district":"ลืออำนาจ","subdistrict":"โคกกลาง","industryType":"ผลิตคอนกรีตผสมเสร็จ","status":"ดำเนินกิจการ","lat":15.761179,"lon":104.635061},"20370117625643":{"id":"20370117625643","name":"แสงชัยเสาปูน","owner":"นายคำกอง เสาแก้ว","displayRegistration":"จ2-58(1)-49/64อจ","province":"อำนาจเจริญ","district":"เมืองอำนาจเจริญ","subdistrict":"สร้างนกทา","industryType":"ทำผลิตภัณฑ์คอนกรีต","status":"ดำเนินกิจการ","lat":15.854221,"lon":104.747209},"20370015625612":{"id":"20370015625612","name":"บริษัท ทีพี พลาสติก จำกัด","owner":"บริษัท ทีพี พลาสติก จำกัด","displayRegistration":"จ3-53(5)-156/61อจ","province":"อำนาจเจริญ","district":"เมืองอำนาจเจริญ","subdistrict":"โนนโพธิ์","industryType":"ทำพลาสติกเป็นเม็ด แท่ง ท่อ หลอด แผ่น ชิ้น ผง หรือรูปทรงต่าง ๆ","status":"ดำเนินกิจการ","lat":15.850322,"lon":104.553014},"60370117325641":{"id":"60370117325641","name":"แอ็ดวานซ์ ซีท หลังคาเหล็ก","owner":"บริษัท แอ็ดวานซ์ ซีท จำกัด","displayRegistration":"อ2-63(2)-53/64อจ","province":"อำนาจเจริญ","district":"ลืออำนาจ","subdistrict":"โคกกลาง","industryType":"ผลิตหลังคาเหล็กแผ่นรีดลอน","status":"ดำเนินกิจการ","lat":15.722537,"lon":104.639545},"60370118225642":{"id":"60370118225642","name":"กิจเจริญ","owner":"นายกมนต์ศักดิ์ วงศ์แก้ว","displayRegistration":"อ2-63(2)-55/64อจ","province":"อำนาจเจริญ","district":"เมืองอำนาจเจริญ","subdistrict":"บุ่ง","industryType":"ทำวงกบประตูหน้าต่างเหล็กดัด","status":"ดำเนินกิจการ","lat":15.832061,"lon":104.631349},"10370040625621":{"id":"10370040625621","name":"บริษัท ไทย เบสท์ สตาร์ช จำกัด","owner":"บริษัท ไทย เบสท์ สตาร์ช จำกัด","displayRegistration":"3-9(2)-2/62อจ","province":"อำนาจเจริญ","district":"เมืองอำนาจเจริญ","subdistrict":"เหล่าพรวน","industryType":"ผลิตแป้งมันสำปะหลัง กำลังการผลิต 200 ตันแป้งต่อวัน และผลิตก๊าซชีวภาพ","status":"ดำเนินกิจการ","lat":15.854438,"lon":104.781939},"60370117925648":{"id":"60370117925648","name":"โรงกลึงเทพพิทักษ์ยิ่งเจริญ","owner":"นายเทพพิทักษ์ ผดาจิตร","displayRegistration":"อ2-64(13)-94/64อจ","province":"อำนาจเจริญ","district":"เสนางคนิคม","subdistrict":"เสนางคนิคม","industryType":"กลึงและเชื่อมโลหะทั่วไป","status":"ดำเนินกิจการ","lat":16.024162,"lon":104.638301},"60370116325642":{"id":"60370116325642","name":"อู่อวยชัย","owner":"นายวิชัย เทียนทอง","displayRegistration":"อ2-65-16/64อจ","province":"อำนาจเจริญ","district":"เมืองอำนาจเจริญ","subdistrict":"บุ่ง","industryType":"ทำอุปกรณ์เครื่องยนต์ และอุปกรณ์รถไถนา","status":"ดำเนินกิจการ","lat":15.874438,"lon":104.624884},"20370322125645":{"id":"20370322125645","name":"ห้างหุ้นส่วนจำกัด เจริญชัย2019","owner":"นายชาญชัย สุภิวงค์","displayRegistration":"จ3-58(1)-120/64อจ","province":"อำนาจเจริญ","district":"เมืองอำนาจเจริญ","subdistrict":"กุดปลาดุก","industryType":"ผลิตคอนกรีตผสมเสร็จ","status":"ดำเนินกิจการ","lat":15.973143,"lon":104.53207},"20370395325643":{"id":"20370395325643","name":"ไข่มุกคอนกรีต","owner":"ห้างหุ้นส่วนจำกัด ศิริพรอนันต์","displayRegistration":"จ3-58(1)-175/64อจ","province":"อำนาจเจริญ","district":"หัวตะพาน","subdistrict":"สร้างถ่อน้อย","industryType":"ผลิตคอนกรีตผสมเสร็จ","status":"ดำเนินกิจการ","lat":15.686381,"lon":104.485873},"20370479825641":{"id":"20370479825641","name":"โรงสีโชคสว่าง","owner":"นายชัชวาล มารักษ์","displayRegistration":"จ3-9(6)-9/64อจ","province":"อำนาจเจริญ","district":"เมืองอำนาจเจริญ","subdistrict":"โนนโพธิ์","industryType":"ทำมันเส้น","status":"ดำเนินกิจการ","lat":15.894334,"lon":104.547932},"20370034425655":{"id":"20370034425655","name":"ห้างหุ้นส่วนจำกัด ปิยภัทร อิมปอร์ต-เอ็กซ์ปอร์ต","owner":"ห้างหุ้นส่วนจำกัด ปิยภัทร อิมปอร์ต-เอ็กซ์ปอร์ต","displayRegistration":"จ3-34(2)-2/65อจ","province":"อำนาจเจริญ","district":"หัวตะพาน","subdistrict":"หนองแก้ว","industryType":"ทำวงกบ ขอบประตู ขอบหน้าต่าง บานประตู บานหน้าต่าง หรือส่วนประกอบที่ทำด้วยไม้ของอาคารหรือเครื่องมือเครื่องใช้จากไม้ไสและซอยไม้","status":"ดำเนินกิจการ","lat":15.695807,"lon":104.557863},"10370000125604":{"id":"10370000125604","name":"บริษัท เอี่ยมอำนาจแป้งมัน จำกัด","owner":"บริษัท เอี่ยมอำนาจแป้งมัน จำกัด","displayRegistration":"3-9(2)-1/60อจ","province":"อำนาจเจริญ","district":"ชานุมาน","subdistrict":"โคกสาร","industryType":"ผลิตแป้งมันสำปะหลัง กำลังการผลิต 500 ตันแป้ง/วัน","status":"ดำเนินกิจการ","lat":16.170394,"lon":104.987996},"20370100125429":{"id":"20370100125429","name":"โชคทวี","owner":"ห้างหุ้นส่วนจำกัด โชคทวี 2 ค้าข้าว","displayRegistration":"จ3-9(1)-1/42อจ","province":"อำนาจเจริญ","district":"ปทุมราชวงศา","subdistrict":"นาหว้า","industryType":"สีข้าว","status":"ดำเนินกิจการ","lat":15.904627,"lon":104.948058},"20370005825560":{"id":"20370005825560","name":"บริษัท โรงสีธัญญาทรัพย์ จำกัด(สาขา2)","owner":"บริษัท โรงสีธัญญาทรัพย์ จำกัด","displayRegistration":"จ3-9(1)-58/56อจ","province":"อำนาจเจริญ","district":"เมืองอำนาจเจริญ","subdistrict":"ไก่คำ","industryType":"สีข้าว","status":"ดำเนินกิจการ","lat":15.781181,"lon":104.634591},"20370001425571":{"id":"20370001425571","name":"จ.เจริญพาณิชย์","owner":"นายธนเมศฐ นิธิกรกุลสิทธิ์","displayRegistration":"จ3-10(3)-14/57อจ","province":"อำนาจเจริญ","district":"เสนางคนิคม","subdistrict":"ไร่สีสุก","industryType":"ทำเส้นก๋วยเตี๋ยว","status":"ดำเนินกิจการ","lat":16.06489,"lon":104.637807},"20370001625592":{"id":"20370001625592","name":"ร้านแสงชัยพลาสติก","owner":"นายแสงชัย บุญหนา","displayRegistration":"จ3-53(9)-16/59อจ","province":"อำนาจเจริญ","district":"หัวตะพาน","subdistrict":"สร้างถ่อน้อย","industryType":"ล้าง บดหรือย่อยพลาสติก","status":"ดำเนินกิจการ","lat":15.666028,"lon":104.598821},"20370001425514":{"id":"20370001425514","name":"บึงเจริญศรี (4)","owner":"นายสมบูรณ์ ม่วงแก้ว","displayRegistration":"จ3-58(1)-14/51อจ","province":"อำนาจเจริญ","district":"ชานุมาน","subdistrict":"ป่าก่อ","industryType":"ทำผลิตภัณฑ์คอนกรีต","status":"ดำเนินกิจการ","lat":16.068679,"lon":104.861642},"20370015125498":{"id":"20370015125498","name":"สุทัศน์เสาปูน","owner":"นายสุทัศน์ ศรีบุญโฮม","displayRegistration":"จ3-58(1)-151/49อจ","province":"อำนาจเจริญ","district":"พนา","subdistrict":"พระเหลา","industryType":"ทำผลิตภัณฑ์คอนกรีต","status":"ดำเนินกิจการ","lat":15.734938,"lon":104.872594},"20370100125544":{"id":"20370100125544","name":"มณีพาณิชย์","owner":"นายประดิษฐ แก้วหกล้า","displayRegistration":"จ3-64(11)-1/54อจ","province":"อำนาจเจริญ","district":"ลืออำนาจ","subdistrict":"อำนาจ","industryType":"อัดเศษโลหะและกระดาษ","status":"ดำเนินกิจการ","lat":15.695785,"lon":104.648024},"10370004425588":{"id":"10370004425588","name":"ชินบัญชรวู๊ดชิพ","owner":"นายประวัติ หน่อแก้ว","displayRegistration":"3-34(4)-44/58อจ","province":"อำนาจเจริญ","district":"พนา","subdistrict":"พระเหลา","industryType":"ผลิตชิ้นไม้จากไม้ที่ปลูกขึ้นโดยเพาะ 13 ชนิด ตามมติคณะรัฐมนตรี","status":"ดำเนินกิจการ","lat":15.679425,"lon":104.829939},"20370002325614":{"id":"20370002325614","name":"ห้างหุ้นส่วนจำกัด เอ บี ซี คอนกรีต(อำนาจเจริญ)","owner":"ห้างหุ้นส่วนจำกัด เอ บี ซี คอนกรีต(อำนาจเจริญ)","displayRegistration":"จ3-58(1)-23/61อจ","province":"อำนาจเจริญ","district":"เสนางคนิคม","subdistrict":"ไร่สีสุก","industryType":"ผลิตคอนกรีตผสมเสร็จ","status":"ดำเนินกิจการ","lat":16.1113,"lon":104.6086}}