{"00250000125394":{"id":"00250000125394","name":"บริษัท ดั๊บเบิ้ล เอ (1991) จำกัด (มหาชน)","owner":"บริษัท ดั๊บเบิ้ล เอ (1991) จำกัด (มหาชน)","displayRegistration":"ศ3-34(1)-1/39ปจ","province":"ปราจีนบุรี","district":"ศรีมหาโพธิ","subdistrict":"ท่าตูม","industryType":"แปรรูปไม้เพื่อผลิตชิ้นไม้สับจากไม้ยูคาลิปตัส","status":"ดำเนินกิจการ","lat":13.92275,"lon":101.57637},"10250000125319":{"id":"10250000125319","name":"บริษัท สหปราจีนบุรีอุตสาหกรรมอาหาร จำกัด","owner":"บริษัท สหปราจีนบุรีอุตสาหกรรมอาหาร จำกัด","displayRegistration":"3-8(1)-1/31ปจ","province":"ปราจีนบุรี","district":"เมืองปราจีนบุรี","subdistrict":"ดงขี้เหล็ก","industryType":"ทำผักและผลไม้บรรจุกระป๋อง","status":"ดำเนินกิจการ","lat":14.13079,"lon":101.44286},"10250000225358":{"id":"10250000225358","name":"บริษัท ปูนซิเมนต์ไทย (ท่าหลวง) จำกัด","owner":"บริษัท ผลิตภัณฑ์และวัตถุก่อสร้าง จำกัด","displayRegistration":"3-58(1)-2/35ปจ","province":"ปราจีนบุรี","district":"กบินทร์บุรี","subdistrict":"เมืองเก่า","industryType":"ผลิตคอนกรีตผสมเสร็จ","status":"ดำเนินกิจการ","lat":13.98425,"lon":101.77446},"10250400125349":{"id":"10250400125349","name":"บริษัท แอดแวนเทจ ฟุตแวร์ จำกัด","owner":"บริษัท แอดแวนเทจ ฟุตแวร์ จำกัด","displayRegistration":"3-52(4)-1/34ปจ","province":"ปราจีนบุรี","district":"กบินทร์บุรี","subdistrict":"นนทรี","industryType":"ผลิต ผลิตภัณฑ์จากยางธรรมชาติและยางสังเคราะห์ เช่น พื้นรองเท้า รองเท้าบู๊ท","status":"ดำเนินกิจการ","lat":14.0115,"lon":101.69733},"10250000125301":{"id":"10250000125301","name":"โรงเลื่อยจักรศรีประจันตคาม","owner":"ห้างหุ้นส่วนจำกัด โรงเลื่อยจักรศรีประจันตคาม","displayRegistration":"3-34(1)-1/30ปจ","province":"ปราจีนบุรี","district":"ประจันตคาม","subdistrict":"คำโตนด","industryType":"เลื่อยไม้","status":"ดำเนินกิจการ","lat":14.06944,"lon":101.55111},"10250002525318":{"id":"10250002525318","name":"ชุนหลิม","owner":"นายประยูร พงษ์อ้อ","displayRegistration":"3-9(6)-25/31ปจ","province":"ปราจีนบุรี","district":"ศรีมหาโพธิ","subdistrict":"กรอกสมบูรณ์","industryType":"ทำมันเส้น","status":"ดำเนินกิจการ","lat":13.787,"lon":101.65133},"10250000425206":{"id":"10250000425206","name":"สินสมบูรณ์","owner":"นางสาวสิริพร ศรีสมบูรณ์สกุล","displayRegistration":"3-9(6)-4/20ปจ","province":"ปราจีนบุรี","district":"ศรีมหาโพธิ","subdistrict":"หนองโพรง","industryType":"ทำมันเส้น","status":"ดำเนินกิจการ","lat":13.85713,"lon":101.55442},"10250500125348":{"id":"10250500125348","name":"บริษัท อุตสาหกรรมผ้าเคลือบพลาสติกไทย จำกัด","owner":"บริษัท อุตสาหกรรมผ้าเคลือบพลาสติกไทย จำกัด","displayRegistration":"3-53(4)-1/34ปจ","province":"ปราจีนบุรี","district":"ศรีมหาโพธิ","subdistrict":"หนองโพรง","industryType":"ทำผลิตภัณฑ์พลาสติก เช่น กระสอบ ผ้าผืนพลาสติกสาน","status":"ดำเนินกิจการ","lat":13.86394,"lon":101.55586},"20250000125374":{"id":"20250000125374","name":"บริษัท เพิ่มพูล วิศวะ จำกัด","owner":"บริษัท เพิ่มพูล วิศวะ จำกัด","displayRegistration":"จ3-37-1/37ปจ","province":"ปราจีนบุรี","district":"ประจันตคาม","subdistrict":"เกาะลอย","industryType":"ทำเครื่องเรือนจากไม้และโลหะ","status":"ดำเนินกิจการ","lat":14.046,"lon":101.526},"20250200125380":{"id":"20250200125380","name":"บริษัท ไทยแน็กซิส จำกัด","owner":"บริษัท ไทยแน็กซิส จำกัด","displayRegistration":"จ3-22(2)-1/38ปจ","province":"ปราจีนบุรี","district":"กบินทร์บุรี","subdistrict":"นนทรี","industryType":"ผลิตแถบตราสำหรับเครื่องแต่งกาย","status":"ดำเนินกิจการ","lat":14.01883,"lon":101.70417},"20250900125383":{"id":"20250900125383","name":"บริษัท อินทรอนิคส์ จำกัด","owner":"บริษัท อินทรอนิคส์ จำกัด","displayRegistration":"จ3-73-1/38ปจ","province":"ปราจีนบุรี","district":"เมืองปราจีนบุรี","subdistrict":"ดงขี้เหล็ก","industryType":"ประกอบผลิตภัณฑ์อีเล็คทรอนิคส์","status":"ดำเนินกิจการ","lat":14.13204,"lon":101.45908},"10250000225382":{"id":"10250000225382","name":"บริษัท พิสิษฐ์ อินเตอร์กรุ๊ป จำกัด","owner":"บริษัท พิสิษฐ์ อินเตอร์กรุ๊ป จำกัด","displayRegistration":"3-42(1)-2/38ปจ","province":"ปราจีนบุรี","district":"ศรีมหาโพธิ","subdistrict":"หนองโพรง","industryType":"ผลิตเคมีและสีย้อม สีพิมพ์","status":"ดำเนินกิจการ","lat":13.88152,"lon":101.53931},"20250100225389":{"id":"20250100225389","name":"บริษัท สุนันทา พลาสติก กรุ๊ป จำกัด","owner":"บริษัท สุนันทา พลาสติก กรุ๊ป จำกัด","displayRegistration":"จ3-53(1)-2/38ปจ","province":"ปราจีนบุรี","district":"นาดี","subdistrict":"นาดี","industryType":"ผลิตผลิตภัณฑ์พลาสติก เช่น ชิ้นส่วนอุปกรณ์เครื่องใช้ไฟฟ้า","status":"ดำเนินกิจการ","lat":14.11133,"lon":101.83933},"20250800125384":{"id":"20250800125384","name":"บริษัท แอลไพน์ เทคโนโลยี แมนูแฟคเจอริ่ง (ประเทศไทย) จำกัด","owner":"บริษัท แอลไพน์ เทคโนโลยี แมนูแฟคเจอริ่ง (ประเทศไทย) จำกัด","displayRegistration":"จ3-72-1/38ปจ","province":"ปราจีนบุรี","district":"เมืองปราจีนบุรี","subdistrict":"ดงขี้เหล็ก","industryType":"ประกอบแผงวงจรระบบเครื่องรับวิทยุและอะไหล่","status":"ดำเนินกิจการ","lat":14.13211,"lon":101.45847},"20250300125389":{"id":"20250300125389","name":"บริษัท เอ เทค เท็กซ์ไทล์ จำกัด","owner":"บริษัท เอ เทค เท็กซ์ไทล์ จำกัด","displayRegistration":"จ3-23(4)-1/38ปจ","province":"ปราจีนบุรี","district":"กบินทร์บุรี","subdistrict":"นนทรี","industryType":"ปักผ้าลูกไม้","status":"ดำเนินกิจการ","lat":14.01467,"lon":101.70367},"10250200125382":{"id":"10250200125382","name":"บริษัท ยงไทย จำกัด (มหาชน)","owner":"บริษัท ยงไทย จำกัด (มหาชน)","displayRegistration":"3-42(1)-1/38ปจ","province":"ปราจีนบุรี","district":"ประจันตคาม","subdistrict":"คำโตนด","industryType":"ผลิตเซอร์โคเนียมซิลิเกต และเฟอร์รัสซัลเฟต","status":"หยุดชั่วคราว","lat":14.07287,"lon":101.55943},"20250001025367":{"id":"20250001025367","name":"โรงค้าไม้หนองตาหนวด","owner":"นายวิบูลย์ จิรัฐติเจริญ","displayRegistration":"จ3-37-10/36ปจ","province":"ปราจีนบุรี","district":"ประจันตคาม","subdistrict":"หนองแสง","industryType":"แปรรูปไม้โดยใช้เครื่องจักรเพื่อประดิษฐกรรม เช่น วงกบ ประตู หน้าต่าง","status":"ดำเนินกิจการ","lat":14.06897,"lon":101.54991},"20250200125364":{"id":"20250200125364","name":"ห้างหุ้นส่วนจำกัด โรงเลื่อยจักรศรีประจันตคาม","owner":"ห้างหุ้นส่วนจำกัด โรงเลื่อยจักรศรีประจันตคาม","displayRegistration":"จ3-34(2)-1/36ปจ","province":"ปราจีนบุรี","district":"ประจันตคาม","subdistrict":"คำโตนด","industryType":"ทำวงกบประตู หน้าต่าง","status":"ดำเนินกิจการ","lat":14.06991,"lon":101.55215},"10250000125269":{"id":"10250000125269","name":"ห้างหุ้นส่วนจำกัด ปราจีนบุรีอู่ทอง","owner":"ห้างหุ้นส่วนจำกัด ปราจีนบุรีอู่ทอง","displayRegistration":"3-55-1/26ปจ","province":"ปราจีนบุรี","district":"เมืองปราจีนบุรี","subdistrict":"โคกไม้ลาย","industryType":"บดและล้างดินเหนียว","status":"ดำเนินกิจการ","lat":14.13558,"lon":101.29812},"20250100125365":{"id":"20250100125365","name":"บริษัท เอส.ไอ.อินเตอร์เนชั่นแนล จำกัด","owner":"บริษัท เอส.ไอ.อินเตอร์เนชั่นแนล จำกัด","displayRegistration":"จ3-32(1)-1/36ปจ","province":"ปราจีนบุรี","district":"กบินทร์บุรี","subdistrict":"บ่อทอง","industryType":"ทำเครื่องเรือนจากไม้และหนัง","status":"ดำเนินกิจการ","lat":13.98351,"lon":101.80654},"20250500125387":{"id":"20250500125387","name":"บริษัท ฮาวาย อินดัสทรี จำกัด","owner":"บริษัท ฮาวาย อินดัสตรี จำกัด","displayRegistration":"จ3-37-1/38ปจ","province":"ปราจีนบุรี","district":"กบินทร์บุรี","subdistrict":"กบินทร์","industryType":"ผลิตเฟอร์นิเจอร์","status":"ดำเนินกิจการ","lat":13.90608,"lon":101.72108},"20250400125388":{"id":"20250400125388","name":"บริษัท ชูบับ จำกัด","owner":"บริษัท ชูบับ จำกัด","displayRegistration":"จ3-33-1/38ปจ","province":"ปราจีนบุรี","district":"เมืองปราจีนบุรี","subdistrict":"บ้านพระ","industryType":"ทำชิ้นส่วนรองเท้ากีฬา","status":"ดำเนินกิจการ","lat":14.10989,"lon":101.37051},"10250000225325":{"id":"10250000225325","name":"บริษัท สยามไบเซนท์ คอมเมอร์เชียล จำกัด","owner":"บริษัท สยามไบเซนท์ คอมเมอร์เชียล จำกัด","displayRegistration":"3-8(1)-2/32ปจ","province":"ปราจีนบุรี","district":"เมืองปราจีนบุรี","subdistrict":"ดงขี้เหล็ก","industryType":"ผลิตผักและผลไม้บรรจุกระป๋อง","status":"ดำเนินกิจการ","lat":14.14121,"lon":101.44348},"10250100125375":{"id":"10250100125375","name":"บริษัท ซาเดซ่า (ประเทศไทย) จำกัด","owner":"บริษัท ซาเดซ่า (ประเทศไทย) จำกัด","displayRegistration":"3-33-1/37ปจ","province":"ปราจีนบุรี","district":"กบินทร์บุรี","subdistrict":"นนทรี","industryType":"แต่งหนังสำเร็จทำรองเท้า แต่งหนังเทียม และผ้าทำรองเท้า","status":"ดำเนินกิจการ","lat":14.00817,"lon":101.70083},"10250000325257":{"id":"10250000325257","name":"ณรงค์การค้า","owner":"นางวัลลีย์ สุพรรณพงศ์","displayRegistration":"3-58(1)-3/25ปจ","province":"ปราจีนบุรี","district":"เมืองปราจีนบุรี","subdistrict":"บางบริบูรณ์","industryType":"ทำผลิตภัณฑ์คอนกรีต","status":"ดำเนินกิจการ","lat":14.05718,"lon":101.39427},"10250000125343":{"id":"10250000125343","name":"บริษัท ไทยกุลแซ่ จำกัด","owner":"บริษัท ไทยกุลแซ่ จำกัด","displayRegistration":"3-22(3)-1/34ปจ","province":"ปราจีนบุรี","district":"กบินทร์บุรี","subdistrict":"นนทรี","industryType":"ฟอก ย้อม ฟินิชชิ่ง ผ้าถัก","status":"ดำเนินกิจการ","lat":14.01317,"lon":101.69767},"10250000125350":{"id":"10250000125350","name":"บริษัท เอสเอสดีซี(ไทเกอร์เท็กซ์) จำกัด","owner":"บริษัท เอส เอส ดี ซี (ไทเกอร์เท็กซ์) จำกัด","displayRegistration":"3-22(3)-1/35ปจ","province":"ปราจีนบุรี","district":"กบินทร์บุรี","subdistrict":"นนทรี","industryType":"ฟอกย้อม แต่งสำเร็จ ด้าย และผ้า","status":"ดำเนินกิจการ","lat":14.01715,"lon":101.7001},"20250000525367":{"id":"20250000525367","name":"บริษัท ภัทยากบินทร์บุรี จำกัด","owner":"บริษัท ภัทยากบินทร์บุรี จำกัด","displayRegistration":"จ3-28(1)-5/36ปจ","province":"ปราจีนบุรี","district":"กบินทร์บุรี","subdistrict":"นนทรี","industryType":"ผลิตชุดชั้นในสตรีและเสื้อผ้าสำเร็จรูปสตรี","status":"ดำเนินกิจการ","lat":14.01694,"lon":101.70284},"20250000325370":{"id":"20250000325370","name":"บริษัท แชมป์กบินทร์ จำกัด","owner":"บริษัท แชมป์กบินทร์ จำกัด","displayRegistration":"จ3-28(1)-3/37ปจ","province":"ปราจีนบุรี","district":"กบินทร์บุรี","subdistrict":"นนทรี","industryType":"ผลิตเสื้อผ้าสำเร็จรูป","status":"ดำเนินกิจการ","lat":14.012,"lon":101.7045},"10250300125373":{"id":"10250300125373","name":"บริษัท สหพัฒนาอินเตอร์โฮลดิ้ง จำกัด (มหาชน)","owner":"บริษัท สหพัฒนาอินเตอร์โฮลดิ้ง จำกัด (มหาชน)","displayRegistration":"3-101-1/37ปจ","province":"ปราจีนบุรี","district":"กบินทร์บุรี","subdistrict":"วังดาล","industryType":"บำบัดน้ำเสียรวมจากชุมชน ได้ 8,000 ลูกบาศก์เมตร/วัน","status":"ดำเนินกิจการ","lat":14.01566,"lon":101.69953},"10250000125376":{"id":"10250000125376","name":"บริษัท ไทยทาเคดะเลซ จำกัด","owner":"บริษัท ไทยทาเคดะเลช จำกัด","displayRegistration":"3-24-1/37ปจ","province":"ปราจีนบุรี","district":"กบินทร์บุรี","subdistrict":"นนทรี","industryType":"ถักผ้าลูกไม้ ได้ปีละ 525,000 เมตร (จำนวนเครื่องถักผ้าลูกไม้ 27 เครื่อง)","status":"ดำเนินกิจการ","lat":14.01333,"lon":101.703},"10250300125381":{"id":"10250300125381","name":"บริษัท พีบี ไพพ์ (ไทยแลนด์) จำกัด","owner":"บริษัท พีบี ไพพ์ (ไทยแลนด์) จำกัด","displayRegistration":"3-53(5)-1/38ปจ","province":"ปราจีนบุรี","district":"กบินทร์บุรี","subdistrict":"ลาดตะเคียน","industryType":"ผลิตท่อน้ำพลาสติกและอุปกรณ์ข้อต่อ ได้ปีละ 1,315,000 เมตร, การผลิตผลิตภัณฑ์อุปกรณ์ซ่อมท่อ (REPAIR CLAMP)","status":"ดำเนินกิจการ","lat":13.90978,"lon":101.66667},"20250100125381":{"id":"20250100125381","name":"บริษัท เค.ที.วาย.อินดัสตรี จำกัด","owner":"บริษัท เค.ที.วาย.อินดัสตรี จำกัด","displayRegistration":"จ3-22(1)-1/38ปจ","province":"ปราจีนบุรี","district":"กบินทร์บุรี","subdistrict":"นนทรี","industryType":"ตีเกลียว แต่งสำเร็จเส้นด้าย ฯลฯ โดยไม่มีการฟอกย้อมสี","status":"ดำเนินกิจการ","lat":14.01233,"lon":101.70383},"10250100125318":{"id":"10250100125318","name":"บริษัท พี.พี.พี.อกริคัลเจอร์ จำกัด","owner":"บริษัท ผ.เพิ่มพูน จำกัด","displayRegistration":"3-43(1)-1/31ปจ","province":"ปราจีนบุรี","district":"กบินทร์บุรี","subdistrict":"ลาดตะเคียน","industryType":"ผสมปุ๋ยเคมี","status":"ดำเนินกิจการ","lat":13.82879,"lon":101.67907},"10250000525310":{"id":"10250000525310","name":"-","owner":"นายพงษ์ขรินทร์ เดชอนันทวิทยา","displayRegistration":"3-9(6)-5/31ปจ","province":"ปราจีนบุรี","district":"กบินทร์บุรี","subdistrict":"บ่อทอง","industryType":"ทำมันเส้น","status":"ดำเนินกิจการ","lat":13.97906,"lon":101.82032},"10250200125341":{"id":"10250200125341","name":"บริษัท ไทยกุลแซ่ จำกัด","owner":"บริษัท ไทยกุลแซ่ จำกัด","displayRegistration":"3-28(1)-1/34ปจ","province":"ปราจีนบุรี","district":"กบินทร์บุรี","subdistrict":"นนทรี","industryType":"ตัดเย็บเสื้อผ้าสำเร็จรูป (จำนวนจักรเย็บผ้า 52 เครื่อง)","status":"ดำเนินกิจการ","lat":14.01317,"lon":101.69767},"10250100125342":{"id":"10250100125342","name":"บริษัท ไทยกุลแซ่ จำกัด","owner":"บริษัท ไทยกุลแซ่ จำกัด","displayRegistration":"3-24-1/34ปจ","province":"ปราจีนบุรี","district":"กบินทร์บุรี","subdistrict":"นนทรี","industryType":"ถักผ้า (จำนวนเครื่องถักผ้า 11 เครื่อง)","status":"ดำเนินกิจการ","lat":14.01317,"lon":101.69767},"10250000425289":{"id":"10250000425289","name":"เจริญชัยพืชผล","owner":"นายวิสูตร ปุญญนิรันดร์","displayRegistration":"3-9(6)-4/28ปจ","province":"ปราจีนบุรี","district":"กบินทร์บุรี","subdistrict":"บ่อทอง","industryType":"ทำมันเส้น","status":"ดำเนินกิจการ","lat":13.97683,"lon":101.827},"10250001125268":{"id":"10250001125268","name":"ห้างหุ้นส่วนจำกัด ผาติวานิช","owner":"ห้างหุ้นส่วนจำกัด ผาติวานิช","displayRegistration":"3-9(6)-11/26ปจ","province":"ปราจีนบุรี","district":"กบินทร์บุรี","subdistrict":"เมืองเก่า","industryType":"ทำมันเส้น","status":"ดำเนินกิจการ","lat":13.98456,"lon":101.79194},"10250001525269":{"id":"10250001525269","name":"บริษัท วี เอฟ อินเตอร์เทรด จำกัด","owner":"บริษัท วี เอฟ อินเตอร์เทรด จำกัด","displayRegistration":"3-9(6)-15/26ปจ","province":"ปราจีนบุรี","district":"กบินทร์บุรี","subdistrict":"บ้านนา","industryType":"ทำมันเม็ดแข็งและมันเส้น","status":"ดำเนินกิจการ","lat":13.96038,"lon":101.87828},"10250000125186":{"id":"10250000125186","name":"บริษัท วารีเทพบูรพา จำกัด","owner":"บริษัท วารีเทพบูรพา จำกัด","displayRegistration":"3-14-1/18ปจ","province":"ปราจีนบุรี","district":"กบินทร์บุรี","subdistrict":"กบินทร์","industryType":"ทำน้ำแข็ง น้ำแข็งหลอดและน้ำแข็งซอง","status":"ดำเนินกิจการ","lat":13.96851,"lon":101.73464},"10250200125374":{"id":"10250200125374","name":"บริษัท ดั๊บเบิ้ล เอ (1991) จำกัด (มหาชน)","owner":"บริษัท ดั๊บเบิ้ล เอ (1991) จำกัด (มหาชน)","displayRegistration":"3-38(2)-1/37ปจ","province":"ปราจีนบุรี","district":"ศรีมหาโพธิ","subdistrict":"ท่าตูม","industryType":"ผลิตกระดาษพิมพ์เขีนยนชนิดเคลือบผิว ได้ปีละ 120,000 ตัน และไม่เคลือบผิว ได้ปีละ 120,000 ตัน","status":"ดำเนินกิจการ","lat":13.9225,"lon":101.57683},"00250000125360":{"id":"00250000125360","name":"บริษัท แลคตาซอย จำกัด","owner":"บริษัท แลคตาซอย จำกัด","displayRegistration":"ศ3-9(4)-1/36ปจ","province":"ปราจีนบุรี","district":"ศรีมหาโพธิ","subdistrict":"ศรีมหาโพธิ","industryType":"ผลิตน้ำนมถั่วเหลือง เดือนละ 500000 ลิตร น้ำอัดลม เดือนละ 250000 ลิตร และนมสด เดือนละ 120000 ลิตร","status":"ดำเนินกิจการ","lat":13.88215,"lon":101.562764},"10250400125380":{"id":"10250400125380","name":"บริษัท วัฒนไพศาลเอ็นยิเนียริ่ง จำกัด","owner":"บริษัท วัฒนไพศาลเอ็นยิเนียริ่ง จำกัด","displayRegistration":"3-63(1)-1/38ปจ","province":"ปราจีนบุรี","district":"ศรีมโหสถ","subdistrict":"โคกไทย","industryType":"ทำผลิตภัณฑ์โลหะที่ใช้ในการก่อสร้างหรือติดตั้ง เช่น โครงสร้างเหล็กต่าง ๆ ได้ปีละ 17,000 ชิ้น","status":"ดำเนินกิจการ","lat":13.78911,"lon":101.52693},"20250000425386":{"id":"20250000425386","name":"NULL","owner":"นายธงชัย ชาติทำ","displayRegistration":"จ3-3(4)-4/38ปจ","province":"ปราจีนบุรี","district":"กบินทร์บุรี","subdistrict":"นาแขม","industryType":"ดูดทราย","status":"ดำเนินกิจการ","lat":14.03317,"lon":101.72333},"20250000225380":{"id":"20250000225380","name":"บริษัท ไทย พี เอ ซี อินดัสตรี จำกัด","owner":"บริษัท ไทย พี เอ ซี อินดัสตรี จำกัด","displayRegistration":"จ3-42(1)-2/38ปจ","province":"ปราจีนบุรี","district":"กบินทร์บุรี","subdistrict":"ลาดตะเคียน","industryType":"ผลิตโพลีอลูมิเนียมคลอไรด์","status":"ดำเนินกิจการ","lat":13.90104,"lon":101.66791},"20250200225388":{"id":"20250200225388","name":"บริษัท อาร์มสตรองรับเบอร์ แอนด์ เคมีคัลโปรดักส์ จำกัด","owner":"บริษัท อาร์มสตรองรับเบอร์ แอนด์ เคมีคัลโปรดักส์ จำกัด","displayRegistration":"จ3-72-2/38ปจ","province":"ปราจีนบุรี","district":"ศรีมหาโพธิ","subdistrict":"หนองโพรง","industryType":"ผลิตชิ้นส่วนอิเล็กทรอนิกส์","status":"ดำเนินกิจการ","lat":13.8265,"lon":101.548},"10250000125384":{"id":"10250000125384","name":"บริษัท เอ เทค เท็กซ์ไทล์ จำกัด","owner":"บริษัท เอ เทค เท็กซ์ไทล์ จำกัด","displayRegistration":"3-22(3)-1/38ปจ","province":"ปราจีนบุรี","district":"กบินทร์บุรี","subdistrict":"นนทรี","industryType":"ฟอกย้อมพิมพ์และแต่งสำเร็จสิ่งทอสิ่งถัก","status":"ดำเนินกิจการ","lat":14.0114,"lon":101.4205},"20250600125386":{"id":"20250600125386","name":"บริษัท พี.เพาเวอร์ โพรดักท์ จำกัด","owner":"บริษัท พี.เพาเวอร์ โพรดักท์ จำกัด","displayRegistration":"จ3-53(4)-1/38ปจ","province":"ปราจีนบุรี","district":"ศรีมหาโพธิ","subdistrict":"ศรีมหาโพธิ","industryType":"ผลิตบรรจุภัณฑ์ที่ทำจากพลาสติก","status":"ดำเนินกิจการ","lat":13.94045,"lon":101.51399},"10250600125388":{"id":"10250600125388","name":"บริษัท คีนิค-ไทย จำกัด","owner":"บริษัท คีนิค-ไทย จำกัด","displayRegistration":"3-67(8)-1/38ปจ","province":"ปราจีนบุรี","district":"ศรีมโหสถ","subdistrict":"โคกปีบ","industryType":"ผลิตแผ่นตัดและแผ่นเจียรโลหะ","status":"ดำเนินกิจการ","lat":13.8729,"lon":101.41455},"20250600125394":{"id":"20250600125394","name":"บริษัท วนวิทย์ เมทัล เวิร์ด จำกัด","owner":"บริษัท วนวิทย์ เมทัล เวิร์ด จำกัด","displayRegistration":"จ3-73-1/39ปจ","province":"ปราจีนบุรี","district":"เมืองปราจีนบุรี","subdistrict":"ดงขี้เหล็ก","industryType":"ผลิตชิ้นส่วนเครื่องใช้ไฟฟ้า เช่น ตะแกรงพัดลม ฯลฯ","status":"ดำเนินกิจการ","lat":14.12968,"lon":101.43477},"10250300125399":{"id":"10250300125399","name":"บริษัท ประชาอาภรณ์ จำกัด (มหาชน)","owner":"บริษัท ประชาอาภรณ์ จำกัด (มหาชน)","displayRegistration":"3-28(1)-1/39ปจ","province":"ปราจีนบุรี","district":"กบินทร์บุรี","subdistrict":"นนทรี","industryType":"ตัดเย็บเสื้อผ้าสำเร็จรูป ได้ปีละ 600,000 ชิ้น (จักรเย็บผ้า จำนวน 131 เครื่อง) และถักผ้ายืด ได้ปีละ 300,000 กิโลกรัม (เครื่องถักผ้าจำนวน 8 เครื่อง)","status":"ดำเนินกิจการ","lat":14.017,"lon":101.70467},"20250300125397":{"id":"20250300125397","name":"บริษัท วัฒนไพศาลเอ็นยิเนียริ่ง จำกัด","owner":"บริษัท วัฒนไพศาลเอ็นยิเนียริ่ง จำกัด","displayRegistration":"จ3-63(1)-1/39ปจ","province":"ปราจีนบุรี","district":"ศรีมโหสถ","subdistrict":"โคกไทย","industryType":"ผลิตงานเหล็ก","status":"ดำเนินกิจการ","lat":13.78729,"lon":101.53147},"20250800125392":{"id":"20250800125392","name":"บริษัท ดั๊บเบิ้ล เอ (1991) จำกัด (มหาชน)","owner":"บริษัท แอ๊ควานซ์ อะโกร จำกัด (มหาชน)","displayRegistration":"จ3-90-1/39ปจ","province":"ปราจีนบุรี","district":"ศรีมหาโพธิ","subdistrict":"ท่าตูม","industryType":"โรงงานจัดหาน้ำ, ทำน้ำให้บริสุทธิ์หรือจำหน่ายไปยังอาคาร  หรือโรงงานอุตสาหกรรม","status":"ดำเนินกิจการ","lat":13.9225,"lon":101.57683},"20250100125399":{"id":"20250100125399","name":"บริษัท ดั๊บเบิ้ล เอ (1991) จำกัด(มหาชน)","owner":"บริษัท ดับเบิ้ล เอ (1991) จำกัด (มหาชน)","displayRegistration":"จ3-40(1)-1/39ปจ","province":"ปราจีนบุรี","district":"ศรีมหาโพธิ","subdistrict":"ท่าตูม","industryType":"ผลิตแกนกระดาษ","status":"ดำเนินกิจการ","lat":13.92533,"lon":101.58733},"00250000125378":{"id":"00250000125378","name":"บริษัท ยูโรเปี้ยนฟู้ด จำกัด (มหาชน)","owner":"บริษัท ยูโรเปี้ยนฟู้ด จำกัด (มหาชน)","displayRegistration":"ศ3-10(1)-1/37ปจ","province":"ปราจีนบุรี","district":"ศรีมหาโพธิ","subdistrict":"หนองโพรง","industryType":"ทำขนมต่าง ๆ เช่น เค้ก เยลลี่ เวเฟอร์ ขนมสอดไส้ ลูกกวาด หมากฝรั่ง และเครื่องดื่ม","status":"ดำเนินกิจการ","lat":13.901,"lon":101.52478},"10250700125395":{"id":"10250700125395","name":"บริษัท ไฮ-เทค สเปเซียลตี้ มิเนอรัล จำกัด","owner":"บริษัท ไฮ-เทค สเปเซียลตี้ มิเนอรัล จำกัด","displayRegistration":"3-42(1)-1/39ปจ","province":"ปราจีนบุรี","district":"ศรีมหาโพธิ","subdistrict":"ท่าตูม","industryType":"ผลิตแคลเซียมคาร์บอเนต","status":"ดำเนินกิจการ","lat":13.92415,"lon":101.58129},"10250100225399":{"id":"10250100225399","name":"บริษัท ไทย เจ. เพรส จำกัด","owner":"บริษัท ไทย เจ. เพรส จำกัด","displayRegistration":"3-24-2/39ปจ","province":"ปราจีนบุรี","district":"กบินทร์บุรี","subdistrict":"บ่อทอง","industryType":"ผลิตถุงน่อง (จำนวนเครื่องถักถุงน่อง 50 เครื่อง) ได้ปีละ 600,000 โหล","status":"ดำเนินกิจการ","lat":13.96363,"lon":101.86757},"10251100125399":{"id":"10251100125399","name":"บริษัท ยาโน่ อิเล็คทรอนิคส์ (ประเทศไทย) จำกัด","owner":"บริษัท ยาโน่ อิเล็คทรอนิคส์ (ประเทศไทย) จำกัด","displayRegistration":"3-72-1/39ปจ","province":"ปราจีนบุรี","district":"ศรีมหาโพธิ","subdistrict":"ท่าตูม","industryType":"ผลิตและประกอบชิ้นส่วนหรือกล้องวีดีโอ เครื่องเล่นเทปคลาสเซท เครื่องเล่นคอมแพคดิสซ์ และชิ้นส่วนสำหรับใช้กับเครื่องอิเล็คทรอนิคส์ และกิจการผลิตพลาสติกหรือเคลือบเคมีพลาสติกสำหรับอุปกรณ์เครื่องใช้ไฟฟ้าอิเล็คทรอนิคส์ และอื่น ๆ","status":"ดำเนินกิจการ","lat":13.914,"lon":101.57133},"10250400225396":{"id":"10250400225396","name":"บริษัท 304 อินดัสเตรียลปาร์ค จำกัด","owner":"บริษัท 304 อินดัสเตรียลปาร์ค จำกัด","displayRegistration":"3-101-2/39ปจ","province":"ปราจีนบุรี","district":"ศรีมหาโพธิ","subdistrict":"ท่าตูม","industryType":"โรงงานบำบัดน้ำเสียรวม","status":"ดำเนินกิจการ","lat":13.9145,"lon":101.57233},"10250000225390":{"id":"10250000225390","name":"บริษัท แกรนด์เดอร์ ไฟเบอร์ จำกัด","owner":"บริษัท แกรนด์เดอร์ ไฟเบอร์ จำกัด","displayRegistration":"3-22(3)-2/39ปจ","province":"ปราจีนบุรี","district":"ศรีมหาโพธิ","subdistrict":"กรอกสมบูรณ์","industryType":"ย้อมสีเส้นด้าย และผ้า ได้ปีละ 24,000,000 หลา","status":"ดำเนินกิจการ","lat":13.84567,"lon":101.6095},"20250000225398":{"id":"20250000225398","name":"บริษัท ภัทยากบินทร์บุรี จำกัด","owner":"บริษัท ภัทยากบินทร์บุรี จำกัด","displayRegistration":"จ3-28(1)-2/39ปจ","province":"ปราจีนบุรี","district":"กบินทร์บุรี","subdistrict":"นนทรี","industryType":"ผลิตชุนชั้นในและเสื้อผ้าสำเร็จรูปสตรี","status":"ดำเนินกิจการ","lat":14.01669,"lon":101.70254},"00250100125393":{"id":"00250100125393","name":"บริษัท อะโกร ไฟเบอร์ จำกัด","owner":"บริษัท อะโกร ไฟเบอร์ จำกัด","displayRegistration":"ศ3-34(3)-1/39ปจ","province":"ปราจีนบุรี","district":"ศรีมหาโพธิ","subdistrict":"ท่าตูม","industryType":"ผลิตแผ่นใบไม้ดัดความหนาแน่นปานกลาง","status":"ดำเนินกิจการ","lat":13.92049,"lon":101.58586},"91120300125396":{"id":"91120300125396","name":"บริษัท อิโนแอ็ค อินดัสตรี้ส์ (ประเทศไทย) จำกัด","owner":"บริษัท อิโนแอ็ค อินดัสตรี้ส์ (ประเทศไทย) จำกัด","displayRegistration":"ข3-44-1/39ปจ","province":"ปราจีนบุรี","district":"กบินทร์บุรี","subdistrict":"หนองกี่","industryType":"ผลิตผลิตภัณฑ์พลาสติกหรือเคลือบด้วยพลาสติก","status":"ดำเนินกิจการ","lat":14.07317,"lon":101.83317},"20250000325396":{"id":"20250000325396","name":"บริษัท วาโก้กบินทร์บุรี จำกัด","owner":"บริษัท วาโก้กบินทร์บุรี จำกัด","displayRegistration":"จ3-28(1)-3/39ปจ","province":"ปราจีนบุรี","district":"กบินทร์บุรี","subdistrict":"นนทรี","industryType":"ผลิตชุดชั้นในและเสื้อผ้าสำเร็จรูปสตรี","status":"ดำเนินกิจการ","lat":14.01561,"lon":101.70293},"91120900125390":{"id":"91120900125390","name":"บริษัท ไทยซินเนอร์จี้ เวิร์คส์ จำกัด","owner":"บริษัท ไทยซินเนอร์จี้ เวิร์คส์ จำกัด","displayRegistration":"ข3-77(2)-1/39ปจ","province":"ปราจีนบุรี","district":"กบินทร์บุรี","subdistrict":"หนองกี่","industryType":"ผลิตชิ้นส่วนโชคอัพรถยนต์","status":"ดำเนินกิจการ","lat":14.07733,"lon":101.83117},"20250100225397":{"id":"20250100225397","name":"บริษัท ไทรอัมพ์ อินดัสตรีส์ (ประเทศไทย) จำกัด","owner":"บริษัท ไทรอัมพ์ อินดัสตรีส์ (ประเทศไทย) จำกัด","displayRegistration":"จ3-53(1)-2/39ปจ","province":"ปราจีนบุรี","district":"ศรีมหาโพธิ","subdistrict":"หนองโพรง","industryType":"ผลิตต้นไม้เทียม","status":"ดำเนินกิจการ","lat":13.88605,"lon":101.53583},"10250400125398":{"id":"10250400125398","name":"บริษัท ดั๊บเบิ้ล เอ (1991) จำกัด (มหาชน)","owner":"บริษัท ดั๊บเบิ้ล เอ (1991) จำกัด (มหาชน)","displayRegistration":"3-38(1)-1/39ปจ","province":"ปราจีนบุรี","district":"ศรีมหาโพธิ","subdistrict":"ท่าตูม","industryType":"ผลิตเยื่อกระดาษฟอกขาว","status":"ดำเนินกิจการ","lat":13.9225,"lon":101.57683},"20250400125404":{"id":"20250400125404","name":"บริษัท ทีมพลาส จำกัด","owner":"บริษัท ทีมพลาส จำกัด","displayRegistration":"จ3-53(5)-1/40ปจ","province":"ปราจีนบุรี","district":"กบินทร์บุรี","subdistrict":"หนองกี่","industryType":"ผลิตผลิตภัณฑ์พลาสติก","status":"ดำเนินกิจการ","lat":14.04097,"lon":101.84142},"20250300225403":{"id":"20250300225403","name":"NULL","owner":"นายทองคำ ดุสิทธิ์","displayRegistration":"จ3-64(1)-2/40ปจ","province":"ปราจีนบุรี","district":"ประจันตคาม","subdistrict":"ดงบัง","industryType":"ทำถังน้ำจากโลหะ","status":"ดำเนินกิจการ","lat":14.05875,"lon":101.60721},"10250100125409":{"id":"10250100125409","name":"บริษัท คาร์กิลล์สยาม จำกัด","owner":"บริษัท คาร์กิลล์สยาม จำกัด","displayRegistration":"3-15(2)-1/40ปจ","province":"ปราจีนบุรี","district":"กบินทร์บุรี","subdistrict":"บ้านนา","industryType":"ผลิตอาหารสัตว์","status":"ดำเนินกิจการ","lat":13.97667,"lon":101.82821},"10250000125418":{"id":"10250000125418","name":"บริษัท ดั๊บเบิ้ล เอ (1991) จำกัด (มหาชน)","owner":"บริษัท ดั๊บเบิ้ล เอ (1991) จำกัด (มหาชน)","displayRegistration":"3-38(1)-1/41ปจ","province":"ปราจีนบุรี","district":"ศรีมหาโพธิ","subdistrict":"ท่าตูม","industryType":"ผลิตเยื่อกระดาษใยสั้นฟอกขาวจากยูคาลิปตัส","status":"ดำเนินกิจการ","lat":13.9225,"lon":101.57683},"10250000125392":{"id":"10250000125392","name":"บริษัท โชคชัยพิบูล จำกัด","owner":"บริษัท โชคชัยพิบูล จำกัด","displayRegistration":"3-10(3)-1/39ปจ","province":"ปราจีนบุรี","district":"กบินทร์บุรี","subdistrict":"นนทรี","industryType":"ทำผลิตภัณฑ์อาหารจากแป้งเป็นเส้น เม็ด หรือชิ้น (บะหมี่, เส้นหมี่, ก๋วยเตี๋ยว, ก๋วยจั๊บกึ่งสำเร็จรูป)","status":"ดำเนินกิจการ","lat":14.02667,"lon":101.70833},"20250300125413":{"id":"20250300125413","name":"บริษัท โอฮาชิ เทคนิคก้า(ไทยแลนด์) จำกัด","owner":"บริษัท โอฮาชิ เทคนิคก้า(ไทยแลนด์) จำกัด","displayRegistration":"จ3-65-1/41ปจ","province":"ปราจีนบุรี","district":"ศรีมหาโพธิ","subdistrict":"ท่าตูม","industryType":"ผลิตชิ้นส่วนรถยนต์ เช่น โดเวล ทิน","status":"ดำเนินกิจการ","lat":13.8961666666667,"lon":101.561},"20250400125412":{"id":"20250400125412","name":"บริษัท เวลบิ้ลท์ แมนูแฟคเจอริ่ง (ไทยแลนด์) จำกัด","owner":"บริษัท เวลบิ้ลท์ แมนูแฟคเจอริ่ง (ไทยแลนด์) จำกัด","displayRegistration":"จ3-70-1/41ปจ","province":"ปราจีนบุรี","district":"เมืองปราจีนบุรี","subdistrict":"โนนห้อม","industryType":"ผลิตตู้แช่เย็น ตู้แช่แข็ง ห้องเย็น ส่วนประกอบอะไหล่สำหรับทำต","status":"ดำเนินกิจการ","lat":14.12261,"lon":101.47542},"10251300125405":{"id":"10251300125405","name":"บริษัท ไทยโตโย เดนโซ จำกัด","owner":"บริษัท ไทย โตโย เดนโซ จำกัด","displayRegistration":"3-78(2)-1/40ปจ","province":"ปราจีนบุรี","district":"กบินทร์บุรี","subdistrict":"ลาดตะเคียน","industryType":"ผลิตอุปกรณ์ไฟฟ้าสำหรับรถยนต์หรือรถจักรยานยนต์ เช่น IGNITION COIL COMBINATION SWITCH, HANDLE SWITCH,KNOB และเครื่องกำเนิดไฟฟ้า (GENERATOR)","status":"ดำเนินกิจการ","lat":13.90517,"lon":101.6525},"10250000325406":{"id":"10250000325406","name":"บริษัท โอจิ เปเปอร์ (ไทยแลนด์) จำกัด","owner":"บริษัท โอจิ เปเปอร์ (ไทยแลนด์) จำกัด","displayRegistration":"3-38(2)-3/40ปจ","province":"ปราจีนบุรี","district":"ศรีมหาโพธิ","subdistrict":"ท่าตูม","industryType":"ผลิตกระดาษทำสำเนาชนิดไร้คาร์บอน","status":"ดำเนินกิจการ","lat":13.914,"lon":101.57533},"10250500125405":{"id":"10250500125405","name":"บริษัท ดั๊บเบิ้ล เอ (1991) จำกัด (มหาชน)","owner":"บริษัท ดั๊บเบิ้ล เอ (1991) จำกัด (มหาชน)","displayRegistration":"3-38(2)-1/40ปจ","province":"ปราจีนบุรี","district":"ศรีมหาโพธิ","subdistrict":"ท่าตูม","industryType":"ผลิตกระดาษพิมพ์เขียนชนิดไม่เคลือบผิว","status":"ดำเนินกิจการ","lat":13.9225,"lon":101.57683},"10250003225215":{"id":"10250003225215","name":"เพียรประเสริฐ","owner":"นายมนัส เก้าอุดม","displayRegistration":"3-9(1)-32/21ปจ","province":"ปราจีนบุรี","district":"กบินทร์บุรี","subdistrict":"เมืองเก่า","industryType":"สีข้าว","status":"ดำเนินกิจการ","lat":13.975538,"lon":101.748804},"10250300225405":{"id":"10250300225405","name":"บริษัท เนชั่นแนล เพาเวอร์ ซัพพลาย จำกัด (มหาชน)","owner":"บริษัท เนชั่นแนล เพาเวอร์ ซัพพลาย จำกัด (มหาชน)","displayRegistration":"3-88-2/40ปจ","province":"ปราจีนบุรี","district":"ศรีมหาโพธิ","subdistrict":"ท่าตูม","industryType":"ผลิตกระแสไฟฟ้า ผลิตน้ำปราศจากอิออน รับกำจัด วัสดุที่ไม่ใช้แล้วมาเป็นเชื้อเพลิงสำหรับผลิตกระแสไฟฟ้า","status":"ดำเนินกิจการ","lat":13.932499,"lon":101.587568},"20250900125409":{"id":"20250900125409","name":"บริษัท ทรัพย์ทวีอุตสาหกรรม จำกัด","owner":"บริษัท ทรัพย์ทวีอุตสาหกรรมร่ม จำกัด","displayRegistration":"จ3-87(4)-1/40ปจ","province":"ปราจีนบุรี","district":"ศรีมหาโพธิ","subdistrict":"หัวหว้า","industryType":"ผลิตร่ม","status":"ดำเนินกิจการ","lat":13.81902,"lon":101.54589},"10250100225407":{"id":"10250100225407","name":"บริษัท ทริค แมนูแฟคเชอร์ริ่ง (ประเทศไทย)จำกัด","owner":"บริษัท ทริค แมนูแฟคเชอร์ริ่ง (ประเทศไทย)จำกัด","displayRegistration":"3-64(10)-2/40ปจ","province":"ปราจีนบุรี","district":"ศรีมหาโพธิ","subdistrict":"ท่าตูม","industryType":"ชุบเคลือบผิวผลิตภัณฑ์โลหะและพลาสติกสำเร็จรูป","status":"ดำเนินกิจการ","lat":13.902048,"lon":101.569156},"10250300125407":{"id":"10250300125407","name":"บริษัท เอ เทค เท็กซ์ไทล์ จำกัด","owner":"บริษัท เอ เทค เท็กซ์ไทล์ จำกัด","displayRegistration":"3-24-1/40ปจ","province":"ปราจีนบุรี","district":"กบินทร์บุรี","subdistrict":"นนทรี","industryType":"ถักผ้ายืด","status":"ดำเนินกิจการ","lat":14.019,"lon":101.70083},"20250800125400":{"id":"20250800125400","name":"บริษัท ลีน่า พี.แอล.เอ็นจิเนียริ่ง จำกัด","owner":"บริษัท ลีน่า พี.แอล.เอ็นจิเนียริ่ง จำกัด","displayRegistration":"จ3-74(3)-1/40ปจ","province":"ปราจีนบุรี","district":"ศรีมโหสถ","subdistrict":"โคกไทย","industryType":"ผลิตอุปกรณ์ไฟฟ้า เช่น ตู้ควบคุมไฟ,รางเดินสายไฟ","status":"ดำเนินกิจการ","lat":13.85413,"lon":101.42761},"20250700125401":{"id":"20250700125401","name":"บริษัท อินเตอร์ลักซ์ ไลท์ติ้ง จำกัด","owner":"บริษัท อินเตอร์ลักซ์ ไลท์ติ้ง จำกัด","displayRegistration":"จ3-74(1)-1/40ปจ","province":"ปราจีนบุรี","district":"ประจันตคาม","subdistrict":"โพธิ์งาม","industryType":"ผลิตโคมไฟฟ้า","status":"ดำเนินกิจการ","lat":14.10865,"lon":101.51112},"10251700125401":{"id":"10251700125401","name":"บริษัท ดั๊บเบิ้ล เอ (1991) จำกัด (มหาชน)","owner":"บริษัท ดั๊บเบิ้ล เอ (1991) จำกัด (มหาชน)","displayRegistration":"3-101-1/40ปจ","province":"ปราจีนบุรี","district":"ศรีมหาโพธิ","subdistrict":"ท่าตูม","industryType":"โรงงานปรับคุณภาพน้ำเสียรวม (โรงงานที่ 2) (23,000 ลบม./วัน)","status":"ดำเนินกิจการ","lat":13.9225,"lon":101.57683},"20250000225430":{"id":"20250000225430","name":"นางสาวศิริพร ฉายวัฒนะ","owner":"นางสาวศิริพร ฉายวัฒนะ","displayRegistration":"จ3-9(6)-2/43ปจ","province":"ปราจีนบุรี","district":"นาดี","subdistrict":"นาดี","industryType":"ทำมันเส้น","status":"ดำเนินกิจการ","lat":14.11583,"lon":101.84917},"10250001025187":{"id":"10250001025187","name":"บริบูรณ์รัตน์พานิช","owner":"นายไพศาล บริบูรณ์รัตน์","displayRegistration":"3-9(1)-10/18ปจ","province":"ปราจีนบุรี","district":"ประจันตคาม","subdistrict":"คำโตนด","industryType":"สีข้าว กำลังสีสูงสุดของร้านสีข้าว 20 เกวียน/วัน","status":"ดำเนินกิจการ","lat":14.07033,"lon":101.55312},"20250000125432":{"id":"20250000125432","name":"บริษัท ที เอส แอล อุตสาหกรรมสิ่งทอ จำกัด","owner":"บริษัท ที เอส แอล อุตสาหกรรมสิ่งทอ จำกัด","displayRegistration":"จ3-22(2)-1/43ปจ","province":"ปราจีนบุรี","district":"ศรีมโหสถ","subdistrict":"โคกไทย","industryType":"ทอผ้า","status":"ดำเนินกิจการ","lat":13.84735,"lon":101.44952},"10251000125408":{"id":"10251000125408","name":"บริษัท ทานาเบะ (ประเทศไทย) จำกัด","owner":"บริษัท ทานาเบะ (ประเทศไทย) จำกัด","displayRegistration":"3-64(10)-1/40ปจ","province":"ปราจีนบุรี","district":"ศรีมหาโพธิ","subdistrict":"ท่าตูม","industryType":"ชุบเคลือบผิวโลหะและพลาสติก","status":"ดำเนินกิจการ","lat":13.90433,"lon":101.56717},"10250800125402":{"id":"10250800125402","name":"บริษัท วัฒนไพศาลเอ็นยิเนียริ่ง จำกัด","owner":"บริษัท วัฒนไพศาลเอ็นยิเนียริ่ง จำกัด","displayRegistration":"3-63(1)-1/40ปจ","province":"ปราจีนบุรี","district":"ศรีมโหสถ","subdistrict":"โคกไทย","industryType":"ผลิตท่อเหล็กอุโมงค์ ส่งน้ำสำหรับงานประปา","status":"ดำเนินกิจการ","lat":13.78745,"lon":101.53218},"20250100125431":{"id":"20250100125431","name":"บริษัท พรินท์วู๊ด จำกัด","owner":"บริษัท พรินท์วู๊ด จำกัด","displayRegistration":"จ3-41(1)-1/43ปจ","province":"ปราจีนบุรี","district":"ศรีมหาโพธิ","subdistrict":"หนองโพรง","industryType":"ผลิตกระดาษพิมพ์ลวดลาย","status":"ดำเนินกิจการ","lat":13.85166,"lon":101.55445},"20251000125448":{"id":"20251000125448","name":"บริษัท ทริค แมนูแฟคเชอร์ริ่ง (ประเทศไทย) จำกัด","owner":"บริษัท ทริค แมนูแฟคเชอร์ริ่ง (ประเทศไทย) จำกัด","displayRegistration":"จ3-78(2)-1/44ปจ","province":"ปราจีนบุรี","district":"ศรีมหาโพธิ","subdistrict":"ท่าตูม","industryType":"ผลิตผลิตภัณฑ์โลหะรวมทั้งชิ้นส่วนโลหะสำหรับจักรยานยนต์ หรือชิ้นส่วนโลหะสำหรับอุปกรณ์สำนักงาน ผลิตผลิตภัณฑ์โลหะ รวมทั้งชิ้นส่วนโลหะสำหรับรถยนต์ และจักรยานยนต์ หรือชิ้นส่วนโลหะสำหรับอุปกรณ์สำนักงาน","status":"ดำเนินกิจการ","lat":13.901428,"lon":101.569006},"20250100125449":{"id":"20250100125449","name":"บูรพาพืชผล","owner":"นางสาววิมลศิริ สิงห์ไพศาล","displayRegistration":"จ3-9(6)-1/44ปจ","province":"ปราจีนบุรี","district":"นาดี","subdistrict":"ทุ่งโพธิ์","industryType":"ทำมันเส้น","status":"ดำเนินกิจการ","lat":14.11567,"lon":101.907},"10250300125449":{"id":"10250300125449","name":"บริษัท ดารามิค (ประเทศไทย) จำกัด","owner":"บริษัท ดารามิค (ประเทศไทย) จำกัด","displayRegistration":"3-74(5)-1/44ปจ","province":"ปราจีนบุรี","district":"ศรีมหาโพธิ","subdistrict":"ท่าตูม","industryType":"ผลิตแผ่นกั้นแบตเตอรี่ ชนิดโพลีเอททีลีน ได้ปีละ 89,000,000 ตารางเมตร","status":"ดำเนินกิจการ","lat":13.90383,"lon":101.56717},"20250200125422":{"id":"20250200125422","name":"NULL","owner":"นายสมทรง ประถมวงศ์","displayRegistration":"จ3-58(1)-1/42ปจ","province":"ปราจีนบุรี","district":"กบินทร์บุรี","subdistrict":"เมืองเก่า","industryType":"ทำคอนกรีตบล๊อค ท่อคอนกรีตเสริมเหล็ก","status":"ดำเนินกิจการ","lat":13.98429,"lon":101.7747},"10250000125442":{"id":"10250000125442","name":"บริษัท เอส.อาร์.ไทร์ จำกัด","owner":"บริษัท เอส.อาร์.ไทร์ จำกัด","displayRegistration":"3-51-1/44ปจ","province":"ปราจีนบุรี","district":"ศรีมโหสถ","subdistrict":"โคกไทย","industryType":"ผลิตยางนอกและยางใน-รถจักร์ยานยนต์ รถยนต์นั่ง รถยนต์บรรทุก รถยนต์ที่ใช้ในการเกษตร รถยนต์ที่ใช้ในการอุตสาหกรรม","status":"ดำเนินกิจการ","lat":13.85277848,"lon":101.4177668},"10251100125407":{"id":"10251100125407","name":"บริษัท สยามไอซิน จำกัด","owner":"บริษัท สยามไอซิน จำกัด","displayRegistration":"3-65-1/40ปจ","province":"ปราจีนบุรี","district":"ศรีมหาโพธิ","subdistrict":"ท่าตูม","industryType":"ชิ้นส่วนเครื่องยนต์และรถยนต์ เช่น ปั๊มน้ำ ปั๊มน้ำมัน จานเบรค จานคลัช","status":"ดำเนินกิจการ","lat":13.90133,"lon":101.563},"10250400125448":{"id":"10250400125448","name":"บริษัท อีสเทิร์น ไทย คอนซัลติ้ง 1992 จำกัด","owner":"บริษัท อีสเทิร์น ไทย คอนซัลติ้ง 1992 จำกัด","displayRegistration":"3-101-1/44ปจ","province":"ปราจีนบุรี","district":"กบินทร์บุรี","subdistrict":"กบินทร์","industryType":"โรงงานบำบัดน้ำเสียรวม ได้ 8,000 ลูกบาศก์เมตรต่อวัน","status":"ดำเนินกิจการ","lat":14.01564,"lon":101.6995},"20250200225404":{"id":"20250200225404","name":"ห้างหุ้นส่วนจำกัด วี.พี.พี.คอนกรีต","owner":"ห้างหุ้นส่วนจำกัด วี.พี.พี.คอนกรีต","displayRegistration":"จ3-58(1)-2/40ปจ","province":"ปราจีนบุรี","district":"ศรีมหาโพธิ","subdistrict":"ท่าตูม","industryType":"ผลิตผลิตภัณฑ์คอนกรีตผสมเสร็จ","status":"ดำเนินกิจการ","lat":13.93165,"lon":101.5635},"10250100125417":{"id":"10250100125417","name":"บริษัท อัลฟ่า อินดัสทรี (ประเทศไทย) จำกัด","owner":"บริษัท อัลฟ่า อินดัสทรี (ประเทศไทย) จำกัด","displayRegistration":"3-77(2)-1/41ปจ","province":"ปราจีนบุรี","district":"ศรีมหาโพธิ","subdistrict":"ท่าตูม","industryType":"ผลิตชิ้นส่วนอุปกรณ์ประกอบรถยนต์ เช่น ชุดกุญแจ มือจับประตูรถยนต์ ได้ปีละ 2,000,000 ชุด (เตาหลอมขนาด 200 กิโลกรัม/ชั่วโมง จำนวน 1 เตา)","status":"ดำเนินกิจการ","lat":13.90953,"lon":101.5683},"10251600125402":{"id":"10251600125402","name":"บริษัท สยาม ยาชิโยะ จำกัด","owner":"บริษัท สยาม ยาชิโยะ จำกัด","displayRegistration":"3-100(1)-1/40ปจ","province":"ปราจีนบุรี","district":"ศรีมหาโพธิ","subdistrict":"ท่าตูม","industryType":"การทา พ่น หรือเคลือบสีชิ้นสว่นโลหะ และพลาสติก","status":"ดำเนินกิจการ","lat":13.90567,"lon":101.56733},"10250000225408":{"id":"10250000225408","name":"บริษัท ไทยเคนเปเปอร์ จำกัด (มหาชน)","owner":"บริษัท ไทยเคนเปเปอร์ จำกัด (มหาชน)","displayRegistration":"3-38(2)-2/40ปจ","province":"ปราจีนบุรี","district":"กบินทร์บุรี","subdistrict":"บ่อทอง","industryType":"ผลิตกระดาษคารฟท์ ไม่มีการผลิตเยื่อกระดาษ","status":"ดำเนินกิจการ","lat":13.95309,"lon":101.8288},"10251500125403":{"id":"10251500125403","name":"บริษัท น้ำใส 304 จำกัด","owner":"บริษัท น้ำใส 304 จำกัด","displayRegistration":"3-90-1/40ปจ","province":"ปราจีนบุรี","district":"ศรีมหาโพธิ","subdistrict":"ท่าตูม","industryType":"ปรับคุณภาพน้ำเพื่อจำหน่ายให้อาคารและโรงงานอุตสาหกรรม","status":"ดำเนินกิจการ","lat":13.89917,"lon":101.561},"20250200125448":{"id":"20250200125448","name":"บริษัท ไทย สุเคโน่ นิต จำกัด","owner":"บริษัท ไทย สุเคโน่ นิต จำกัด","displayRegistration":"จ3-24-1/44ปจ","province":"ปราจีนบุรี","district":"ศรีมหาโพธิ","subdistrict":"กรอกสมบูรณ์","industryType":"ถักถุงเท้า","status":"ดำเนินกิจการ","lat":13.79783,"lon":101.63133},"20250700125443":{"id":"20250700125443","name":"บริษัท นิคมปราจีน จำกัด","owner":"บริษัท นิคมปราจีน จำกัด","displayRegistration":"จ3-64(13)-1/44ปจ","province":"ปราจีนบุรี","district":"เมืองปราจีนบุรี","subdistrict":"หน้าเมือง","industryType":"เชื่อมโลหะ และทำประตูหน้าต่างเหล็ก","status":"ดำเนินกิจการ","lat":14.05622,"lon":101.38344},"20250900125441":{"id":"20250900125441","name":"บริษัท สหเซเรน จำกัด","owner":"บริษัท สหเซเรน จำกัด","displayRegistration":"จ3-77(2)-1/44ปจ","province":"ปราจีนบุรี","district":"กบินทร์บุรี","subdistrict":"นนทรี","industryType":"ผลิตถุงลมนิรภัยสำหรับยานพาหนะ","status":"ดำเนินกิจการ","lat":14.02517,"lon":101.7035},"10250200125457":{"id":"10250200125457","name":"บริษัท ธนูลักษณ์ จำกัด (มหาชน)","owner":"บริษัท ธนูลักษณ์ จำกัด (มหาชน)","displayRegistration":"3-28(1)-1/45ปจ","province":"ปราจีนบุรี","district":"กบินทร์บุรี","subdistrict":"นนทรี","industryType":"ตัดเย็บเสื้อผ้าสำเร็จรูป","status":"ดำเนินกิจการ","lat":14.0125,"lon":101.70267},"20250000125408":{"id":"20250000125408","name":"บริษัท พี เพาเวอร์ โพรดักท์ จำกัด","owner":"บริษัท พี เพาเวอร์ โพรดักท์ จำกัด","displayRegistration":"จ3-13(2)-1/40ปจ","province":"ปราจีนบุรี","district":"ศรีมหาโพธิ","subdistrict":"ศรีมหาโพธิ","industryType":"ผลิตเครื่องเทศ,เครื่องปรุงรส เช่น พริกแกง,กะปิ,น้ำจิ้มไก่,น้ำปลา","status":"ดำเนินกิจการ","lat":13.9403,"lon":101.51387},"20250100125407":{"id":"20250100125407","name":"บริษัท อภิทรัพย์การย้อม จำกัด","owner":"บริษัท อภิทรัพย์การย้อม จำกัด","displayRegistration":"จ3-22(3)-1/40ปจ","province":"ปราจีนบุรี","district":"ศรีมหาโพธิ","subdistrict":"หัวหว้า","industryType":"ย้อมด้าย","status":"ดำเนินกิจการ","lat":13.81773,"lon":101.54179},"10250300125456":{"id":"10250300125456","name":"บริษัท เหรียญเฉิง เมททอล จำกัด","owner":"บริษัท เหรียญเฉิง เมททอล จำกัด","displayRegistration":"3-59-1/45ปจ","province":"ปราจีนบุรี","district":"ศรีมหาโพธิ","subdistrict":"ท่าตูม","industryType":"ผลิตเส้นลวดเหล็ก","status":"ดำเนินกิจการ","lat":13.89983,"lon":101.56183},"20250001225439":{"id":"20250001225439","name":"-","owner":"นายประพฤติ พงษ์พานิช","displayRegistration":"จ3-9(6)-12/43ปจ","province":"ปราจีนบุรี","district":"กบินทร์บุรี","subdistrict":"เมืองเก่า","industryType":"ทำมันเส้น","status":"ดำเนินกิจการ","lat":13.99274,"lon":101.7673},"20250600125444":{"id":"20250600125444","name":"บริษัท เมสัน อะคูสติกส์ แมนิวแฟคเจอร์ริ่ง จำกัด","owner":"บริษัท เมสัน อะคูสติกส์ แมนิวแฟคเจอร์ริ่ง จำกัด","displayRegistration":"จ3-63(2)-1/44ปจ","province":"ปราจีนบุรี","district":"กบินทร์บุรี","subdistrict":"วังดาล","industryType":"ผลิตผลิตภัณฑ์โลหะสำหรับใช้ในการก่อสร้างหรือติดตั้ง เช่น ประตูเหล็ก, ท่อเก็บเสียงลม","status":"ดำเนินกิจการ","lat":14.02701,"lon":101.64804},"10250400125455":{"id":"10250400125455","name":"บริษัท ไทย จีเอ็มบี อินดัสตรี่ จำกัด","owner":"บริษัท ไทย จีเอ็มบี อินดัสตรี่ จำกัด","displayRegistration":"3-77(2)-1/45ปจ","province":"ปราจีนบุรี","district":"ศรีมหาโพธิ","subdistrict":"ท่าตูม","industryType":"ผลิตชิ้นส่วนพิเศษหรืออุปกรณ์สำหรับรถยนต์ เช่นปั๊มน้ำ","status":"ดำเนินกิจการ","lat":13.89933,"lon":101.56133},"10250100125466":{"id":"10250100125466","name":"บริษัท โอจิเลเบล (ไทยแลนด์) จำกัด","owner":"บริษัท โอจิเลเบล (ไทยแลนด์) จำกัด","displayRegistration":"3-40(1)-1/46ปจ","province":"ปราจีนบุรี","district":"ศรีมหาโพธิ","subdistrict":"ท่าตูม","industryType":"ผลิตกระดาษสติกเกอร์ ตัดกระดาษและการบรรจุ","status":"ดำเนินกิจการ","lat":13.914,"lon":101.57533},"20251000125406":{"id":"20251000125406","name":"บริษัท ตั้งยู่ฮวดฮงกี่ จำกัด","owner":"บริษัท ตั้งยู่ฮวดฮงกี่ จำกัด","displayRegistration":"จ3-87(7)-1/40ปจ","province":"ปราจีนบุรี","district":"บ้านสร้าง","subdistrict":"บางพลวง","industryType":"บดแก้วและล้างขวด บดและล้างผลิตภัณฑ์แก้ว ผลิตน้ำมันเชื้อเพลิงทดแทนจากยางรถยนต์ที่ใช้แล้วและพลาสติกที่ใช้แล้ว","status":"ดำเนินกิจการ","lat":13.96503,"lon":101.24891},"20250300125454":{"id":"20250300125454","name":"บริษัท ไทย ฮาเบล อินดัสเตรียล จำกัด","owner":"บริษัท ไทย ฮาเบล อินดัสเตรียล จำกัด","displayRegistration":"จ3-72-1/45ปจ","province":"ปราจีนบุรี","district":"กบินทร์บุรี","subdistrict":"กบินทร์","industryType":"เครื่องรับโทรทัศน์สี","status":"ดำเนินกิจการ","lat":13.9191666666667,"lon":101.711},"20250700125468":{"id":"20250700125468","name":"มูลนิธิโรงพยาบาลเจ้าพระยาอภัยภูเบศร ในพระอุปถัมภ์สมเด็จพระเจ้าภคินีเธอ เจ้าฟ้าเพชรรัตนราชสุดา สิริโสภาพัณณวดี","owner":"มูลนิธิโรงพยาบาลเจ้าพระยาอภัยภูเบศร ในพระอุปถัมภ์สมเด็จพระเจ้าภคินีเธอ เจ้าฟ้าเพชรรัตนราชสุดา สิริโสภาพัณณวดี","displayRegistration":"จ3-47(3)-1/46ปจ","province":"ปราจีนบุรี","district":"เมืองปราจีนบุรี","subdistrict":"ท่างาม","industryType":"เครื่องดื่มและเครื่องสำอางค์จากสมุนไพร","status":"ดำเนินกิจการ","lat":14.05141,"lon":101.395022},"20251100125405":{"id":"20251100125405","name":"บริษัท ปราจีนบุรีฮอนด้าคาร์ส จำกัด","owner":"บริษัท ปราจีนบุรีฮอนด้าคาร์ส จำกัด","displayRegistration":"จ3-95(1)-1/40ปจ","province":"ปราจีนบุรี","district":"เมืองปราจีนบุรี","subdistrict":"บ้านพระ","industryType":"ซ่อมบำรุงรถยนต์ ยี่ห้อฮอนด้า","status":"ดำเนินกิจการ","lat":14.08009,"lon":101.35319},"10250200125465":{"id":"10250200125465","name":"บริษัท คอมฟอร์ม จำกัด","owner":"บริษัท คอมฟอร์ม จำกัด","displayRegistration":"3-41(1)-1/46ปจ","province":"ปราจีนบุรี","district":"ศรีมหาโพธิ","subdistrict":"ท่าตูม","industryType":"พิมพ์สิ่งพิมพ์, ทำแม่พิมพ์โลหะ","status":"ดำเนินกิจการ","lat":13.90067,"lon":101.56233},"10250000225416":{"id":"10250000225416","name":"บริษัท นากาตะ(ไทยแลนด์) จำกัด","owner":"บริษัท นากาตะ(ไทยแลนด์) จำกัด","displayRegistration":"3-77(2)-2/41ปจ","province":"ปราจีนบุรี","district":"ศรีมหาโพธิ","subdistrict":"หนองโพรง","industryType":"ผลิตชิ้นส่วนโลหะปั๊มขึ้นรูปสำหรับยานยนต์ เครื่องใช้ไฟฟ้า อิเล็กทรอนิกส์และแม่พิมพ์","status":"ดำเนินกิจการ","lat":13.87913,"lon":101.53996},"10250100125458":{"id":"10250100125458","name":"บริษัท อินเตอร์แหอวน จำกัด","owner":"บริษัท อินเตอร์แหอวน จำกัด","displayRegistration":"3-26(1)-1/45ปจ","province":"ปราจีนบุรี","district":"กบินทร์บุรี","subdistrict":"ลาดตะเคียน","industryType":"ผลิตเชือกและแหอวน","status":"ดำเนินกิจการ","lat":13.92343,"lon":101.69406},"10250000425461":{"id":"10250000425461","name":"ห้างหุ้นส่วนจำกัด ใบจักรแสงทิพย์","owner":"นายสำราญ นิลวิไลพันธ์","displayRegistration":"3-60-4/46ปจ","province":"ปราจีนบุรี","district":"ศรีมหาโพธิ","subdistrict":"กรอกสมบูรณ์","industryType":"หลอมหล่ออลูมิเนียมและทองเหลือง","status":"ดำเนินกิจการ","lat":13.87172,"lon":101.5925},"20250100125456":{"id":"20250100125456","name":"บริษัท คีรี อินดัสทรี จำกัด","owner":"บริษัท เจเอเค อินดัสเทรี่ยล แอนด์ คอนซัลแทนท์ จำกัด","displayRegistration":"จ3-58(3)-1/45ปจ","province":"ปราจีนบุรี","district":"ศรีมโหสถ","subdistrict":"โคกไทย","industryType":"ทำหินแกรนิต","status":"ดำเนินกิจการ","lat":13.85244,"lon":101.42323},"20250000125390":{"id":"20250000125390","name":"โรงสีทองอนันต์","owner":"ห้างหุ้นส่วนจำกัด โรงสีทองอนันต์","displayRegistration":"จ3-9(1)-1/39ปจ","province":"ปราจีนบุรี","district":"ประจันตคาม","subdistrict":"เกาะลอย","industryType":"สีข้าว ชนิดแยกแกลบแยกรำ (กำลังสีสูงสุดของร้านสีข้าว 10 เกวียน/วัน)","status":"ดำเนินกิจการ","lat":14.03205,"lon":101.53297},"10250900125401":{"id":"10250900125401","name":"บริษัท สหมิเตอร์ จำกัด","owner":"บริษัท สหมิเตอร์ จำกัด","displayRegistration":"3-64(8)-1/40ปจ","province":"ปราจีนบุรี","district":"กบินทร์บุรี","subdistrict":"ลาดตะเคียน","industryType":"ผลิตมิเตอร์วัดน้ำ และอุปกรณ์ทองเหลือง","status":"ดำเนินกิจการ","lat":13.91002,"lon":101.6682},"20250100125464":{"id":"20250100125464","name":"ขนมจีนวังเก่ง","owner":"นายสมนึก มั่นเครือ","displayRegistration":"จ3-10(3)-1/46ปจ","province":"ปราจีนบุรี","district":"กบินทร์บุรี","subdistrict":"ลาดตะเคียน","industryType":"ทำขนมจีน","status":"ดำเนินกิจการ","lat":13.87993,"lon":101.62611},"10250300125464":{"id":"10250300125464","name":"บริษัท เจวายเอส อลูมิเนี่ยม เทรดดิ้ง จำกัด","owner":"บริษัท เจวายเอส อลูมิเนี่ยม เทรดดิ้ง จำกัด","displayRegistration":"3-60-1/46ปจ","province":"ปราจีนบุรี","district":"ศรีมหาโพธิ","subdistrict":"กรอกสมบูรณ์","industryType":"หลอมหล่ออลูมิเนียมและทองเหลือง","status":"ดำเนินกิจการ","lat":13.8707,"lon":101.59253},"10250100325462":{"id":"10250100325462","name":"นายอภิชาติ อุปราโภ","owner":"นายอภิชาติ อุปราโภ","displayRegistration":"3-60-3/46ปจ","province":"ปราจีนบุรี","district":"ศรีมหาโพธิ","subdistrict":"กรอกสมบูรณ์","industryType":"หลอมหล่อทองเหลือง","status":"ดำเนินกิจการ","lat":13.87138,"lon":101.59243},"10250000325463":{"id":"10250000325463","name":"บริษัท เอ.ที.อาร์.บรรจุภัณฑ์ จำกัด","owner":"บริษัท เอ.ที.อาร์. บรรจุภัณฑ์ จำกัด","displayRegistration":"3-41(1)-3/46ปจ","province":"ปราจีนบุรี","district":"เมืองปราจีนบุรี","subdistrict":"โนนห้อม","industryType":"สิ่งพิมพ์บรรจุภัณฑ์ชนิดอ่อนสำหรับสินค้าอุปโภคและบริโภคทุกชนิดจากกระดาษ และพลาสติก","status":"ดำเนินกิจการ","lat":14.07512,"lon":101.47534},"10250500125462":{"id":"10250500125462","name":"บริษัท จาโนเม่ไดคาสติ้ง (ประเทศไทย) จำกัด","owner":"บริษัท จาโนเม่ไดคาสติ้ง (ประเทศไทย) จำกัด","displayRegistration":"3-71-1/46ปจ","province":"ปราจีนบุรี","district":"กบินทร์บุรี","subdistrict":"นนทรี","industryType":"ผลิตชิ้นส่วนอุปกรณ์เครื่องใช้ไฟฟ้า อิเลคทรอนิคส์ ยานยนต์ และอุปกรณ์เครื่องใช้ไฟฟ้าด้วยการฉีดอลูมินั่มขึ้นรูป","status":"ดำเนินกิจการ","lat":14.0235,"lon":101.70633},"10250600125461":{"id":"10250600125461","name":"บริษัท อีสท์ ทูเก็ทเธอ อินดัสเทรียล จำกัด","owner":"บริษัท อีสท์ ทูเก็ทเธอ อินดัสเทรียล จำกัด","displayRegistration":"3-106-1/46ปจ","province":"ปราจีนบุรี","district":"ศรีมหาโพธิ","subdistrict":"ท่าตูม","industryType":"การปรับสภาพสารตัวทำละลายและน้ำมันที่ใช้แล้ว เช่น น้ำมันเคลือบเส้นด้าย น้ำมันไฮดรอลิค ฯลฯ","status":"ดำเนินกิจการ","lat":13.96208,"lon":101.58063},"20250400125453":{"id":"20250400125453","name":"บริษัท ไดเซล เซฟตี้ ซีสเต็มส์ (ประเทศไทย) จำกัด","owner":"บริษัท ไดเซล เซฟตี้ ซีสเต็มส์ (ประเทศไทย) จำกัด","displayRegistration":"จ3-77(2)-1/45ปจ","province":"ปราจีนบุรี","district":"ศรีมหาโพธิ","subdistrict":"ท่าตูม","industryType":"ผลิตอุปกรณ์ที่ทำให้เกิดพองลมในถุงลมนิรภัยและชิ้นส่วนเพื่อใช้กับระบบถุงลมนิรภัยในรถยนต์","status":"ดำเนินกิจการ","lat":13.937,"lon":101.5955},"20250000525466":{"id":"20250000525466","name":"นายวันสถา เจริญไทยกิจ","owner":"นายวันสถา เจริญไทยกิจ","displayRegistration":"จ3-3(4)-5/46ปจ","province":"ปราจีนบุรี","district":"นาดี","subdistrict":"สำพันตา","industryType":"ดูดทราย","status":"ดำเนินกิจการ","lat":14.10033,"lon":101.75067},"20250900125466":{"id":"20250900125466","name":"บริษัท ลูสัน คาร์ลคอมพาวด์ จำกัด","owner":"บริษัท ลูสัน คาร์ลคอม จำกัด","displayRegistration":"จ3-53(5)-1/46ปจ","province":"ปราจีนบุรี","district":"ศรีมหาโพธิ","subdistrict":"หนองโพรง","industryType":"ผลิตเม็ดพลาสติกคอมพาวด์, ผลิตแผ่นพลาสติก","status":"ดำเนินกิจการ","lat":13.86373,"lon":101.55549},"20250002725478":{"id":"20250002725478","name":"นายสวัสดิ์ แก้วงาม","owner":"นายสวัสดิ์ แก้วงาม","displayRegistration":"จ3-3(4)-27/47ปจ","province":"ปราจีนบุรี","district":"กบินทร์บุรี","subdistrict":"หนองกี่","industryType":"ดูดทรายในที่ดินกรรมสิทธิ์","status":"ดำเนินกิจการ","lat":14.04804,"lon":101.87023},"20251200125461":{"id":"20251200125461","name":"รองเท้าเสื่อกกปราจีนบุรี","owner":"นายประพันธ์ แก้วเขียว","displayRegistration":"จ2-33-1/46ปจ","province":"ปราจีนบุรี","district":"เมืองปราจีนบุรี","subdistrict":"บางเดชะ","industryType":"รองเท้าเสื่อกก","status":"ดำเนินกิจการ","lat":13.96155,"lon":101.38823},"20250000225463":{"id":"20250000225463","name":"บริษัท จี เทค แมททีเรียล จำกัด","owner":"บริษัท จี เทค แมททีเรียล จำกัด","displayRegistration":"จ3-28(1)-2/46ปจ","province":"ปราจีนบุรี","district":"กบินทร์บุรี","subdistrict":"นนทรี","industryType":"ผลิตส่วนประกอบเสื้อผ้าสำเร็จรูปจากผ้าและฟองน้ำและผลิตภัณฑ์ผ้าถัก","status":"ดำเนินกิจการ","lat":14.02048,"lon":101.70443},"10250001225472":{"id":"10250001225472","name":"บริษัท อาร์.ดี.แหล่ง กรีน เคมี จำกัด","owner":"บริษัท อาร์.ดี.แหล่ง กรีน เคมี จำกัด","displayRegistration":"3-106-12/47ปจ","province":"ปราจีนบุรี","district":"ศรีมหาโพธิ","subdistrict":"ท่าตูม","industryType":"นำตัวทำละลายและน้ำมันใช้แล้วมาผ่านกรรมวิธีทางอุตสาหกรรม เพื่อนำกลับมาใช้ประโยชน์ใหม่ ซ่อมและล้างบรรจุภัณฑ์ปนเปื้อนสารเคมีและน้ำมัน","status":"ดำเนินกิจการ","lat":13.89437,"lon":101.56144},"20250000725462":{"id":"20250000725462","name":"NULL","owner":"นางศรีสตรี อาฒยะพันธุ์","displayRegistration":"จ3-3(4)-7/46ปจ","province":"ปราจีนบุรี","district":"กบินทร์บุรี","subdistrict":"นาแขม","industryType":"ดูดทราย","status":"ดำเนินกิจการ","lat":14.06033,"lon":101.73883},"10250000925478":{"id":"10250000925478","name":"บริษัท แอลพลา แพคเกจจิ้ง (ประเทศไทย) จำกัด","owner":"บริษัท แอลพลา แพคเกจจิ้ง (ประเทศไทย) จำกัด","displayRegistration":"3-53(4)-9/47ปจ","province":"ปราจีนบุรี","district":"ศรีมหาโพธิ","subdistrict":"ท่าตูม","industryType":"ผลิตผลิตภัณฑ์พลาสติก เช่น ขวดพลาสติก, ฝาพลาสติก","status":"ดำเนินกิจการ","lat":13.9085,"lon":101.5725},"10250100125383":{"id":"10250100125383","name":"บริษัท เอช แอนด์ บี กบินทร์บุรี จำกัด","owner":"บริษัท เอช แอนด์ บี กบินทร์บุรี จำกัด","displayRegistration":"3-23(4)-1/38ปจ","province":"ปราจีนบุรี","district":"กบินทร์บุรี","subdistrict":"นนทรี","industryType":"ผลิตตุ๊กตาทำจากผ้า และของใช้เด็กอ่อนทำจากผ้า ได้ปีละ 6,270,000 ชิ้น","status":"ดำเนินกิจการ","lat":14.012934,"lon":101.70398},"20250000225471":{"id":"20250000225471","name":"บริษัท บางกอก สติวดิโอ โปรแกรม จำกัด","owner":"บริษัท บางกอก สติวดิโอ โปรแกรม จำกัด","displayRegistration":"จ3-62-2/47ปจ","province":"ปราจีนบุรี","district":"เมืองปราจีนบุรี","subdistrict":"บ้านพระ","industryType":"ทำเครื่องเรือน เครื่องใช้และเครื่องตกแต่งจากโลหะ เช่น โคมไฟ รูปเหมือนต่าง ๆ","status":"ดำเนินกิจการ","lat":14.09273,"lon":101.35694},"10250002525474":{"id":"10250002525474","name":"ห้างหุ้นส่วนจำกัด เจริญสวัสดิ์ศรีมหาโพธิ์","owner":"ห้างหุ้นส่วนจำกัด เจริญสวัสดิ์ศรีมหาโพธิ์","displayRegistration":"3-50(4)-25/47ปจ","province":"ปราจีนบุรี","district":"ศรีมหาโพธิ","subdistrict":"ศรีมหาโพธิ","industryType":"โรงงานผลิตแอสฟัลติกคอนกรีต","status":"ดำเนินกิจการ","lat":13.97307,"lon":101.5016},"20250000825478":{"id":"20250000825478","name":"บริษัท ฟรุ้ตเทค จำกัด","owner":"บริษัท ฟรุ้ตเทค จำกัด","displayRegistration":"จ3-8(1)-8/47ปจ","province":"ปราจีนบุรี","district":"ศรีมหาโพธิ","subdistrict":"หนองโพรง","industryType":"แปรรูปผลไม้ทอดกรอบ","status":"ดำเนินกิจการ","lat":13.92968,"lon":101.51255},"10250013225478":{"id":"10250013225478","name":"วงษ์พาณิชย์ปราจีนบุรี","owner":"นายอิทธิกร ศรีจันบาล","displayRegistration":"3-105-132/47ปจ","province":"ปราจีนบุรี","district":"ศรีมหาโพธิ","subdistrict":"กรอกสมบูรณ์","industryType":"คัดแยกวัสดุที่ไม่ใช้แล้วเฉพาะที่กำหนดในหมวด 1 ข้อ 1 ของภาคผนวกที่ 1 บัญชีสิ่งปฏิกูลหรือวัสดุที่ไม่ใช้แล้ว ท้ายประกาศกระทรวงอุตสาหกรรม ฉบับที่ 1 (พ.ศ.2541) บดย่อยพลาสติก และอัดเศษโลหะ","status":"ดำเนินกิจการ","lat":13.8905778877092,"lon":101.57594203949},"10250500125397":{"id":"10250500125397","name":"บริษัท กลุ่มสยามบรรจุภัณฑ์ จำกัด","owner":"บริษัท กลุ่มสยามบรรจุภัณฑ์ จำกัด","displayRegistration":"3-39-1/39ปจ","province":"ปราจีนบุรี","district":"ศรีมหาโพธิ","subdistrict":"ท่าตูม","industryType":"ผลิตภาชนะบรรจุจากกระดาษ","status":"ดำเนินกิจการ","lat":13.90333,"lon":101.569},"10250600125404":{"id":"10250600125404","name":"บริษัท โอคิซึโมะอินเตอร์เนชั่นแนล(เอเซีย) จำกัด","owner":"บริษัท โอคิซึโมะอินเตอร์เนชั่นแนล(เอเซีย) จำกัด","displayRegistration":"3-45(1)-1/40ปจ","province":"ปราจีนบุรี","district":"ศรีมหาโพธิ","subdistrict":"ท่าตูม","industryType":"ผลิตสีทนความร้อน","status":"ดำเนินกิจการ","lat":13.90317,"lon":101.56333},"91120000125407":{"id":"91120000125407","name":"บริษัท สุรพลนิชิเรฟู้ดส์ จำกัด","owner":"บริษัท สุรพลนิชิเรฟู้ดส์ จำกัด","displayRegistration":"ข3-6(2)-1/40ปจ","province":"ปราจีนบุรี","district":"กบินทร์บุรี","subdistrict":"หนองกี่","industryType":"ผลิตอาหารสำเร็จรูปและกึ่งสำเร็จรูปแช่แข็ง","status":"ดำเนินกิจการ","lat":14.07339,"lon":101.82455},"91120100125406":{"id":"91120100125406","name":"บริษัท ซีฟาร์ (ประเทศไทย) จำกัด","owner":"บริษัท ซีฟาร์ (ประเทศไทย) จำกัด","displayRegistration":"ข3-24-1/40ปจ","province":"ปราจีนบุรี","district":"กบินทร์บุรี","subdistrict":"หนองกี่","industryType":"ผลิตผ้าร่อน","status":"ดำเนินกิจการ","lat":14.07517,"lon":101.83533},"20250400125461":{"id":"20250400125461","name":"บริษัท บางกอกอินเซ็นส์ จำกัด","owner":"บริษัท บางกอกอินเซ็นส์ จำกัด","displayRegistration":"จ3-34(4)-1/46ปจ","province":"ปราจีนบุรี","district":"กบินทร์บุรี","subdistrict":"วังดาล","industryType":"ผลิตและจำหน่ายธูปหอม","status":"ดำเนินกิจการ","lat":14.03651,"lon":101.61493},"91120000125365":{"id":"91120000125365","name":"บริษัท พรีเมียร์ โพรดักส์ จำกัด (มหาชน)","owner":"บริษัท พรีเมียร์ โพรดักส์ จำกัด","displayRegistration":"ข3-32(2)-1/36ปจ","province":"ปราจีนบุรี","district":"กบินทร์บุรี","subdistrict":"หนองกี่","industryType":"ทำผลิตภัณฑ์จากไฟเบอร์กลาส","status":"ดำเนินกิจการ","lat":14.07283,"lon":101.82417},"91120000125373":{"id":"91120000125373","name":"บริษัท พรีเมียร์โพรดักส์ จำกัด (มหาชน)","owner":"บริษัท พรีเมียร์โพรดักส์ จำกัด (มหาชน)","displayRegistration":"ข3-32(2)-1/37ปจ","province":"ปราจีนบุรี","district":"กบินทร์บุรี","subdistrict":"หนองกี่","industryType":"ทำผลิตภัณฑ์จากไฟเบอร์กลาส เช่น ถังน้ำ","status":"ดำเนินกิจการ","lat":14.07283,"lon":101.82417},"91120200125397":{"id":"91120200125397","name":"บริษัท สหไทยอาวากระดาษ จำกัด","owner":"บริษัท สหไทยอาวากระดาษ จำกัด","displayRegistration":"ข3-40(2)-1/39ปจ","province":"ปราจีนบุรี","district":"กบินทร์บุรี","subdistrict":"หนองกี่","industryType":"ผลิตกระดาษไส้กรองอากาศ น้ำมันเครื่อง","status":"ดำเนินกิจการ","lat":14.06633,"lon":101.83883},"91120200125405":{"id":"91120200125405","name":"บริษัท ทรอยสยาม จำกัด","owner":"บริษัท ทรอยสยาม จำกัด","displayRegistration":"ข3-42(1)-1/40ปจ","province":"ปราจีนบุรี","district":"กบินทร์บุรี","subdistrict":"หนองกี่","industryType":"ผลิตเคมีภัณฑ์ สารเคมี สารฆ่าเชื้อโรค","status":"ดำเนินกิจการ","lat":14.068573,"lon":101.837833},"91120000125431":{"id":"91120000125431","name":"บริษัท ซัน ซัน อินดัสเตรียล(1977) จำกัด","owner":"บริษัท ซัน ซัน อินดัสเตรียล(1977) จำกัด","displayRegistration":"ข3-47(1)-1/43ปจ","province":"ปราจีนบุรี","district":"กบินทร์บุรี","subdistrict":"หนองกี่","industryType":"ผลิตผงซักฟอก","status":"ดำเนินกิจการ","lat":14.07083,"lon":101.82067},"91120300125404":{"id":"91120300125404","name":"บริษัท คาเซ (ไทยแลนด์) จำกัด","owner":"บริษัท คาเซ (ไทยแลนด์) จำกัด","displayRegistration":"ข3-53(1)-1/40ปจ","province":"ปราจีนบุรี","district":"กบินทร์บุรี","subdistrict":"หนองกี่","industryType":"ฉีดพลาสติก","status":"ดำเนินกิจการ","lat":14.07483,"lon":101.83333},"91120200125447":{"id":"91120200125447","name":"บริษัท ไวเออร์ฟอร์ม เอ.เอ็น. (ไทยแลนด์) จำกัด","owner":"บริษัท ไวเออร์ฟอร์ม เอ.เอ็น.(ไทยแลนด์) จำกัด","displayRegistration":"ข3-53(1)-1/44ปจ","province":"ปราจีนบุรี","district":"กบินทร์บุรี","subdistrict":"หนองกี่","industryType":"ผลิตส่วนประกอบและอุปกรณ์ไฟฟ้า อิเล็กทรอนิกส์ทุกชนิด เช่น สวิทซ์พร้อมสายไฟใช้กับเครื่องควบคุมการทำงาน ตัวตรวจจับความเคลือนไหว ฯลฯ","status":"ดำเนินกิจการ","lat":14.06383,"lon":101.82117},"91120400125395":{"id":"91120400125395","name":"บริษัท นิสเซ่นเคมิเทค(ประเทศไทย) จำกัด","owner":"บริษัท นิสเซ่นเคมิเทค(ประเทศไทย) จำกัด","displayRegistration":"ข3-53(5)-1/39ปจ","province":"ปราจีนบุรี","district":"กบินทร์บุรี","subdistrict":"หนองกี่","industryType":"ผลิตชิ้นส่วนพลาสติกและแม่พิมพ์","status":"ดำเนินกิจการ","lat":14.0685,"lon":101.82467},"91120000125415":{"id":"91120000125415","name":"บริษัท แมททีเรียล พลาสท์ จำกัด","owner":"บริษัท แมททีเรียล พลาสท์ จำกัด","displayRegistration":"ข3-53(5)-1/41ปจ","province":"ปราจีนบุรี","district":"กบินทร์บุรี","subdistrict":"หนองกี่","industryType":"โรงงานผลิตพลาสติก","status":"ดำเนินกิจการ","lat":14.07717,"lon":101.8355},"91120400125403":{"id":"91120400125403","name":"บริษัท เอเชี่ยน โฟม เทค จำกัด","owner":"บริษัท เอเชี่ยน โฟม เทค จำกัด","displayRegistration":"ข3-53(6)-1/40ปจ","province":"ปราจีนบุรี","district":"กบินทร์บุรี","subdistrict":"หนองกี่","industryType":"ผลิตโฟมและพลาสติกใช้เป็นฉนวนกันความร้อน","status":"ดำเนินกิจการ","lat":14.07733,"lon":101.83333},"91120100125414":{"id":"91120100125414","name":"บริษัท จันทร์เจริญ(กบินทร์) จำกัด","owner":"บริษัท จันทร์เจริญ(กบินทร์) จำกัด","displayRegistration":"ข3-53(6)-1/41ปจ","province":"ปราจีนบุรี","district":"กบินทร์บุรี","subdistrict":"หนองกี่","industryType":"ผลิตและขายส่ง ขายปลีกโฟมทุกชนิด ฉนวนป้องกันฯ","status":"ดำเนินกิจการ","lat":14.066667,"lon":101.821427},"91120600125393":{"id":"91120600125393","name":"บริษัท ฮาบิโร (ไทยแลนด์) จำกัด","owner":"บริษัท ฮาบิโร(ไทยแลนด์) จำกัด","displayRegistration":"ข3-69-1/39ปจ","province":"ปราจีนบุรี","district":"กบินทร์บุรี","subdistrict":"หนองกี่","industryType":"ผลิตชิ้นส่วนมอเตอร์สำหรับเครื่องแผ่นข้อมูลคอม","status":"ดำเนินกิจการ","lat":14.076,"lon":101.82083},"91120700125392":{"id":"91120700125392","name":"บริษัท ไฮเออร์ อีเล็คทริค (ประเทศไทย) จำกัด (มหาชน)","owner":"บริษัท ไฮเออร์ อีเล็คทริค (ประเทศไทย) จำกัด (มหาชน)","displayRegistration":"ข3-70-1/39ปจ","province":"ปราจีนบุรี","district":"กบินทร์บุรี","subdistrict":"หนองกี่","industryType":"ผลิตตู้เย็น ตู้แช่ ตู้โชว์ ผลิตคอมเพรสเซอร์ ผลิตเครื่องซักผ้า ผลิตเครื่องรับโทรทัศน์ ผลิตเครื่องปรับอากาศ","status":"ดำเนินกิจการ","lat":14.07267,"lon":101.82717},"91120500125402":{"id":"91120500125402","name":"บริษัท อาร์เซลิก ฮิตาชิ โฮม แอพพลายแอนซ์ (ประเทศไทย) จำกัด","owner":"บริษัท อาร์เซลิก ฮิตาชิ โฮม แอพพลายแอนซ์ (ประเทศไทย) จำกัด","displayRegistration":"ข3-71-1/40ปจ","province":"ปราจีนบุรี","district":"กบินทร์บุรี","subdistrict":"หนองกี่","industryType":"ผลิตเครื่องใช้ไฟฟ้าภายในบ้าน","status":"ดำเนินกิจการ","lat":14.06817,"lon":101.83283},"91120300125388":{"id":"91120300125388","name":"บริษัท เยสคอม คอร์ปอเรชั่น(ประเทศไทย) จำกัด","owner":"บริษัท เยสคอม คอร์ปอเรชั่น(ประเทศไทย) จำกัด","displayRegistration":"ข3-72-1/38ปจ","province":"ปราจีนบุรี","district":"กบินทร์บุรี","subdistrict":"หนองกี่","industryType":"ผลิตชิ้นส่วนหรืออุปกรณ์ที่ใช้กับผลิตภัณฑ์อิเล","status":"ดำเนินกิจการ","lat":14.06883,"lon":101.82067},"20250500125460":{"id":"20250500125460","name":"บริษัท ฮาวายไทยเฟอร์นิเจอร์ จำกัด","owner":"บริษัท ฮาวายไทยเฟอร์นิเจอร์ จำกัด","displayRegistration":"จ3-37-1/46ปจ","province":"ปราจีนบุรี","district":"กบินทร์บุรี","subdistrict":"กบินทร์","industryType":"ผลิตเครืองเรือนหรือชิ้นส่วนเครืองเรือน","status":"ดำเนินกิจการ","lat":13.90599,"lon":101.72112},"20250800125467":{"id":"20250800125467","name":"บริษัท เก้า-ห้า โปร จำกัด","owner":"บริษัท เก้า-ห้า โปร จำกัด","displayRegistration":"จ3-53(4)-1/46ปจ","province":"ปราจีนบุรี","district":"กบินทร์บุรี","subdistrict":"หนองกี่","industryType":"ผลิตผลิตภัณฑ์พลาสติกและส่วนควบทุกชนิด","status":"ดำเนินกิจการ","lat":14.1035,"lon":101.83883},"91120100125372":{"id":"91120100125372","name":"บริษัท บิลเลี่ยน เมส อินดัสตรี้ จำกัด","owner":"บริษัท บิลเลี่ยน เมส อินดัส จำกัด","displayRegistration":"ข3-63(2)-1/37ปจ","province":"ปราจีนบุรี","district":"กบินทร์บุรี","subdistrict":"หนองกี่","industryType":"ทำตะแกรงเหล็กสำเร็จรูป สำหรับใช้ในการก่อสร้า","status":"ดำเนินกิจการ","lat":14.067338,"lon":101.821027},"91120300125446":{"id":"91120300125446","name":"บริษัท รัสกิน(ประเทศไทย) จำกัด","owner":"บริษัท รัสกิน(ประเทศไทย) จำกัด","displayRegistration":"ข3-63(5)-1/44ปจ","province":"ปราจีนบุรี","district":"กบินทร์บุรี","subdistrict":"หนองกี่","industryType":"ผลิตส่วนประกอสำหรับใช้กับระบเครื่องปรับอากาศ","status":"ดำเนินกิจการ","lat":14.07583,"lon":101.83117},"91120800125391":{"id":"91120800125391","name":"บริษัท ฮิตาชิอินดัสเตรียลเทคโนโลยี(ปทท.)จำกัด","owner":"บริษัท ฮิตาชิอินดัสเตรียลเทคโนโลยี จำกัด","displayRegistration":"ข3-73-1/39ปจ","province":"ปราจีนบุรี","district":"กบินทร์บุรี","subdistrict":"หนองกี่","industryType":"ผลิตมอเตอร์ไฟฟ้า","status":"ดำเนินกิจการ","lat":14.071112,"lon":101.831395},"91120000225439":{"id":"91120000225439","name":"บริษัท เจ แอนด์ ซี สเปร์เชียล สปริง จำกัด","owner":"บริษัท เจ แอนด์ ซี สเปร์เชี จำกัด","displayRegistration":"ข3-78(2)-2/43ปจ","province":"ปราจีนบุรี","district":"กบินทร์บุรี","subdistrict":"หนองกี่","industryType":"ผลิตชิ้นส่วนเครื่องยนต์สำหรับรถจักรยนต์ฯ","status":"ดำเนินกิจการ","lat":14.063514,"lon":101.82423},"20250000425477":{"id":"20250000425477","name":"บริษัท พีพีแอลพลาสติกโปรดักท์ จำกัด","owner":"บริษัท ศรีมโหสถ พลาสติก โปรดักส์ จำกัด","displayRegistration":"จ3-74(3)-4/47ปจ","province":"ปราจีนบุรี","district":"ศรีมโหสถ","subdistrict":"โคกไทย","industryType":"ผลิตอุปกรณ์ไฟฟ้า เช่น อุปกรณ์ติดตั้งหรือเต้าเสียบ หลอดไฟฟ้า สวิตช์ไฟฟ้า อุปกรณ์ที่ใช้กับสายไฟฟ้า","status":"ดำเนินกิจการ","lat":13.86392,"lon":101.42027},"91120001825476":{"id":"91120001825476","name":"บริษัท กุลธรพรีเมียร์ จำกัด","owner":"บริษัท กุลธรพรีเมียร์ จำกัด","displayRegistration":"ข3-70-18/47ปจ","province":"ปราจีนบุรี","district":"กบินทร์บุรี","subdistrict":"หนองกี่","industryType":"ผลิตเครื่องอันน้ำยาทำความเย็น (คอมเพรสเซอร์)","status":"ดำเนินกิจการ","lat":14.0695,"lon":101.831},"20250400125438":{"id":"20250400125438","name":"บริษัท โอฮาชิ ซาโต (ไทยแลนด์) จำกัด","owner":"บริษัท โอฮาชิ ซาโต (ไทยแลนด์) จำกัด","displayRegistration":"จ3-64(6)-1/43ปจ","province":"ปราจีนบุรี","district":"ศรีมหาโพธิ","subdistrict":"ท่าตูม","industryType":"ผลิตผลิตภัณฑ์โลหะ รวมทั้งชิ้นส่วนโลหะ","status":"ดำเนินกิจการ","lat":13.899,"lon":101.56117},"10250400125463":{"id":"10250400125463","name":"บริษัท สตาร์ทติ้ง อินดัสเทรียล (ประเทศไทย) จำกัด","owner":"บริษัท สตาร์ทติ้ง อินดัสเทรียล (ประเทศไทย) จำกัด","displayRegistration":"3-65-1/46ปจ","province":"ปราจีนบุรี","district":"ศรีมหาโพธิ","subdistrict":"ท่าตูม","industryType":"ผลิตอุปกรณ์สตาร์ทเครื่องยนต์อเนกประสงค์","status":"ดำเนินกิจการ","lat":13.89617,"lon":101.561},"10250001225266":{"id":"10250001225266","name":"บริษัท กบินทร์พงษ์พานิช จำกัด","owner":"บริษัท กบินทร์พงษ์พานิช จำกัด","displayRegistration":"3-9(6)-12/26ปจ","province":"ปราจีนบุรี","district":"กบินทร์บุรี","subdistrict":"เมืองเก่า","industryType":"ทำมันเม็ดแข็ง","status":"ดำเนินกิจการ","lat":13.99271,"lon":101.7687},"20250700125393":{"id":"20250700125393","name":"บริษัท มูซาชิออโตพาร์ท จำกัด","owner":"บริษัท มูซาชิออโตพาร์ท จำกัด","displayRegistration":"จ3-78(2)-1/39ปจ","province":"ปราจีนบุรี","district":"ศรีมหาโพธิ","subdistrict":"ท่าตูม","industryType":"ผลิตส่วนประกอบหรืออุปกรณ์ของเครื่องยนต์ ผลิตเฟือง เกียร์ เพลาและชุดส่งกำลังรถจักรยานยนต์ จำนวนคนงานเพิ่มขึ้น 281 คน รวมเป็น 321 คน","status":"ดำเนินกิจการ","lat":13.90733,"lon":101.56917},"20250500125395":{"id":"20250500125395","name":"บริษัท ทีมพรี่ซิชั่น จำกัด มหาชน","owner":"บริษัท ทีมพรี่ซิชั่น จำกัด (มหาชน)","displayRegistration":"จ3-72-1/39ปจ","province":"ปราจีนบุรี","district":"เมืองปราจีนบุรี","subdistrict":"ดงขี้เหล็ก","industryType":"ประกอบแผงวงจรอิเล็คทรอนิคส์","status":"ดำเนินกิจการ","lat":14.129042,"lon":101.458895},"20250100225439":{"id":"20250100225439","name":"ห้างหุ้นส่วนจำกัด แสงทองการช่าง","owner":"ห้างหุ้นส่วนจำกัด แสงทองการช่าง","displayRegistration":"จ3-95(1)-2/43ปจ","province":"ปราจีนบุรี","district":"กบินทร์บุรี","subdistrict":"เมืองเก่า","industryType":"ซ่อมรถยนต์","status":"ดำเนินกิจการ","lat":13.98554,"lon":101.76219},"10250200125440":{"id":"10250200125440","name":"บริษัท สยาม ยาชิโยะ จำกัด","owner":"บริษัท สยามยาชิโยะ จำกัด","displayRegistration":"3-53(1)-1/44ปจ","province":"ปราจีนบุรี","district":"ศรีมหาโพธิ","subdistrict":"ท่าตูม","industryType":"ทำผลิตภัณฑ์พลาสติก เช่น WHEEL CENTER CAP","status":"ดำเนินกิจการ","lat":13.90567,"lon":101.56733},"10250001825479":{"id":"10250001825479","name":"บริษัท สยาม ยาชิโยะ จำกัด","owner":"บริษัท สยาม ยาชิโยะ จำกัด","displayRegistration":"3-77(2)-18/47ปจ","province":"ปราจีนบุรี","district":"ศรีมหาโพธิ","subdistrict":"ท่าตูม","industryType":"ผลิตชิ้นส่วนหรืออุปกรณ์สำหรับรถยนต์ เช่น ถังบรรจุน้ำมันเชื้อเพลิง","status":"ดำเนินกิจการ","lat":13.90567,"lon":101.56733},"20250005225476":{"id":"20250005225476","name":"ห้างหุ้นส่วนจำกัด ไพศาล อินเตอร์พลาสติก 2002","owner":"ห้างหุ้นส่วนจำกัด ไพศาล อินเตอร์พลาสติก 2002","displayRegistration":"จ3-53(9)-52/47ปจ","province":"ปราจีนบุรี","district":"นาดี","subdistrict":"สำพันตา","industryType":"บดหรือย่อยพลาสติก คัดแยกวัสดุที่ไม่ใช้แล้ว เฉพาะที่กำหนดในหมวด 1 ข้อ 1 ของภาคผนวกที่ 1 บัญชีสิ่งปฏิกูลหรือวัสดุที่ไม่ใช้แล้ว ท้ายประกาศกระทรวงอุตสาหกรรม ฉบับที่ 1 (พ.ศ. 2541)","status":"ดำเนินกิจการ","lat":14.0735,"lon":101.77817},"91120000325379":{"id":"91120000325379","name":"บริษัท เขตอุตสาหกรรมกบินทร์บุรี จำกัด","owner":"บริษัท เขตอุตสาหกรรมกบินทร์ จำกัด","displayRegistration":"ข3-101-3/37ปจ","province":"ปราจีนบุรี","district":"กบินทร์บุรี","subdistrict":"หนองกี่","industryType":"ปรับคุณภาพน้ำเสียรวม ได้ 21,000 ลบ.ม.ต่อวัน","status":"ดำเนินกิจการ","lat":14.074087,"lon":101.816642},"20250000125416":{"id":"20250000125416","name":"บ่อทรายธนาลาภ","owner":"นายชนินทร์ ธนาลาภพิพัฒน์","displayRegistration":"จ3-3(4)-1/41ปจ","province":"ปราจีนบุรี","district":"กบินทร์บุรี","subdistrict":"บ่อทอง","industryType":"ดูดทราย","status":"ดำเนินกิจการ","lat":13.93854,"lon":101.84103},"20250003225478":{"id":"20250003225478","name":"ปราจีนบุรี วารีเทพ","owner":"นางพัชรินทร์ วัฒนสาคร","displayRegistration":"จ3-14-32/47ปจ","province":"ปราจีนบุรี","district":"เมืองปราจีนบุรี","subdistrict":"รอบเมือง","industryType":"ทำน้ำแข็งก้อนเล็ก กำลังการผลิตรวม 150 ตัน/วัน","status":"ดำเนินกิจการ","lat":14.05413,"lon":101.34621},"10250000525476":{"id":"10250000525476","name":"บริษัท อินเตอร์แปซิฟิคเปเปอร์ จำกัด","owner":"บริษัท อินเตอร์ แปซิฟิค เปเปอร์ จำกัด","displayRegistration":"3-38(2)-5/47ปจ","province":"ปราจีนบุรี","district":"บ้านสร้าง","subdistrict":"บางพลวง","industryType":"ผลิตกระดาษคราฟท์","status":"ดำเนินกิจการ","lat":14.01125,"lon":101.27354},"20250011325484":{"id":"20250011325484","name":"-","owner":"นายเทียนชัย สุวรรณรัศมี","displayRegistration":"จ3-3(4)-113/48ปจ","province":"ปราจีนบุรี","district":"กบินทร์บุรี","subdistrict":"นาแขม","industryType":"ดูดทราย","status":"ดำเนินกิจการ","lat":14.0605,"lon":101.748},"20250000225489":{"id":"20250000225489","name":"ห้างหุ้นส่วนจำกัด เอ็ม พี เอส เอนเตอร์ไพรส์","owner":"ห้างหุ้นส่วนจำกัด เอ็ม พี เอส เอนเตอร์ไพรส์","displayRegistration":"จ3-12(8)-2/48ปจ","province":"ปราจีนบุรี","district":"เมืองปราจีนบุรี","subdistrict":"ดงขี้เหล็ก","industryType":"ทำถั่วอบ มะขามแก้ว ผลิตแป้งข้าวเหนียว เยลลี่","status":"ดำเนินกิจการ","lat":14.13152,"lon":101.42373},"10250000625482":{"id":"10250000625482","name":"บริษัท รวยไทย ไฟเบอร์ อินดัสทรี (ไทยแลนด์) จำกัด","owner":"บริษัท รวยไทย ไฟเบอร์ อินดัสทรี (ไทยแลนด์) จำกัด","displayRegistration":"3-22(2)-6/48ปจ","province":"ปราจีนบุรี","district":"กบินทร์บุรี","subdistrict":"บ่อทอง","industryType":"ทอผ้า ฟอก ย้อม และตกแต่งสำเร็จด้ายและสิ่งทอ","status":"ดำเนินกิจการ","lat":13.954731,"lon":101.889673},"20250000925484":{"id":"20250000925484","name":"บริษัท ออล เบสท์ คอเซ็ท แอ็คเซ็สซอรี่ส์ (ประเทศไทย) จำกัด","owner":"บริษัท ออล เบสท์ คอเซ็ท แอ็คเซ็สซอรี่ส์ (ประเทศไทย) จำกัด","displayRegistration":"จ3-64(9)-9/48ปจ","province":"ปราจีนบุรี","district":"ศรีมหาโพธิ","subdistrict":"ท่าตูม","industryType":"ทำอุปกรณ์เครื่องใช้เล็ก ๆ จากโลหะ เช่น โครงชุดชั้นในสตรี","status":"ดำเนินกิจการ","lat":13.9045,"lon":101.5635},"20250101425483":{"id":"20250101425483","name":"บริษัท เอลต้า จำกัด (สาขาปราจีนบุรี)","owner":"บริษัท เอลต้า จำกัด","displayRegistration":"จ3-24-14/48ปจ","province":"ปราจีนบุรี","district":"ศรีมหาโพธิ","subdistrict":"กรอกสมบูรณ์","industryType":"ถักถุงเท้า","status":"ดำเนินกิจการ","lat":13.79783,"lon":101.63133},"20250005625485":{"id":"20250005625485","name":"สหกรณ์การเกษตรประจันตคาม จำกัด","owner":"สหกรณ์การเกษตรประจันตคาม จำกัด","displayRegistration":"จ3-9(1)-56/48ปจ","province":"ปราจีนบุรี","district":"ประจันตคาม","subdistrict":"คำโตนด","industryType":"แปรรูปข้าวเปลือกเป็นข้าวสาร กำลังสีสูงสุดของร้านสีข้าว 24 เกวียน/วัน","status":"ดำเนินกิจการ","lat":14.07306,"lon":101.55993},"20250008025485":{"id":"20250008025485","name":"ห้างหุุ้นส่วนจำกัด จูปีเตอร์ แอนด์ ซัน กรุ๊ป","owner":"ห้างหุ้นส่วนจำกัด จูปีเตอร์ แอนด์ ซัน กรุ๊ป","displayRegistration":"จ3-3(4)-80/48ปจ","province":"ปราจีนบุรี","district":"นาดี","subdistrict":"สะพานหิน","industryType":"ดูดทราย","status":"ดำเนินกิจการ","lat":14.0865,"lon":101.74983},"10250200125408":{"id":"10250200125408","name":"บริษัท ที.ซี.ฟาร์มาซูติคอล อุตสาหกรรม จำกัด","owner":"บริษัท ที.ซี.ฟาร์มาซูติคอล อุตสาหกรรม จำกัด","displayRegistration":"3-20(2)-1/40ปจ","province":"ปราจีนบุรี","district":"บ้านสร้าง","subdistrict":"บางแตน","industryType":"ผลิตเครื่องดื่มไม่มีแอลกอฮอล์ เช่น เครื่องดื่มบำรุงร่างกาย เครื่องดื่มเกลือแร่ น้ำอัดลม น้ำกาแฟปรุงสำเร็จ และน้ำนมถั่วเหลือง","status":"ดำเนินกิจการ","lat":13.87998,"lon":101.18186},"10250006425481":{"id":"10250006425481","name":"บริษัท เอส.ที.พี. อินเตอร์โปรดักส์ จำกัด","owner":"บริษัท เอส.ที.พี.อินเตอร์โปรดักส์ จำกัด","displayRegistration":"3-105-64/48ปจ","province":"ปราจีนบุรี","district":"นาดี","subdistrict":"นาดี","industryType":"คัดแยกวัสดุที่ไม่ใช้แล้ว เฉพาะที่กำหนดในหมวด 1 ข้อ 1 ของภาคผนวกที่ 1 บัญชีสิ่งปฏิกูลหรือวัสดุที่ไม่ใช้แล้ว ท้ายประกาศกระทรวงอุตสาหกรรม ฉบับที่ 1 (พ.ศ.2541) และซ่อมแซมถังที่ผ่านการใช้งานแล้ว","status":"ดำเนินกิจการ","lat":14.102094,"lon":101.836588},"10250008825480":{"id":"10250008825480","name":"บริษัท พงษ์เทพ กรุ๊ป รีไซเคิ้ล จำกัด","owner":"บริษัท พงษ์เทพ กรุ๊ป รีไซเคิ้ล จำกัด","displayRegistration":"3-105-88/48ปจ","province":"ปราจีนบุรี","district":"ศรีมหาโพธิ","subdistrict":"กรอกสมบูรณ์","industryType":"คัดแยกวัสดุที่ไม่ใช้แล้ว เฉพาะที่กำหนดไว้ในหมวด 1 ข้อ 1 ของภาคผนวกที่ 1 บัญชีสิ่งปฏิกูลหรือวัสดุที่ไม่ใช้แล้ว ท้ายประกาศกระทรวงอุตสาหกรรม ฉบับที่ 1 (พ.ศ.2541) อัดกระดาษและบดย่อยพลาสติก","status":"ดำเนินกิจการ","lat":13.889,"lon":101.573},"10250006025471":{"id":"10250006025471","name":"มหาวิทยาลัยสวนดุสิต","owner":"มหาวิทยาลัยสวนดุสิต","displayRegistration":"3-9(1)-60/47ปจ","province":"ปราจีนบุรี","district":"เมืองปราจีนบุรี","subdistrict":"ดงขี้เหล็ก","industryType":"สีข้าวชนิดแยกแกลบแยกรำ กำลังสีสูงสุดของร้านสีข้าว 80 เกวียน/วัน","status":"ดำเนินกิจการ","lat":14.13205,"lon":101.4591},"20250024825488":{"id":"20250024825488","name":"บริษัท โตโยต้าปราจีนบุรี (1993) ผู้จำหน่ายโตโยต้า จำกัด","owner":"บริษัท โตโยต้าปราจีนบุรี (1993) ผู้จำหน่ายโตโยต้า จำกัด","displayRegistration":"จ3-95(1)-248/48ปจ","province":"ปราจีนบุรี","district":"เมืองปราจีนบุรี","subdistrict":"หน้าเมือง","industryType":"ซ่อมรถยนต์และเครื่องยนต์","status":"ดำเนินกิจการ","lat":14.05835,"lon":101.35868},"10250000125483":{"id":"10250000125483","name":"บริษัท เบอร์ลี่ ยุคเกอร์ เซลล็อกซ์ จำกัด","owner":"บริษัท เบอร์ลี่ ยุคเกอร์ เซลล็อกซ์ จำกัด","displayRegistration":"3-38(1)-1/48ปจ","province":"ปราจีนบุรี","district":"ศรีมหาโพธิ","subdistrict":"ท่าตูม","industryType":"ผลิตเยื่อกระดาษจากเศษกระดาษและผลิตกระดาษอนามัย","status":"ดำเนินกิจการ","lat":13.91367,"lon":101.58183},"10250015225484":{"id":"10250015225484","name":"บริษัท พัทธนันท์ สตีล จำกัด","owner":"บริษัท พัทธนันท์ สตีล จำกัด","displayRegistration":"3-105-152/48ปจ","province":"ปราจีนบุรี","district":"ศรีมหาโพธิ","subdistrict":"กรอกสมบูรณ์","industryType":"คัดแยกวัสดุที่ไม่ใช้แล้วเฉพาะที่กำหนดไว้ในหมวด 1 ข้อ 1 ของภาคผนวกที่ 1 บัญชีสิ่งปฏิกูลหรือวัสดุที่ไม่ใช้แล้ว ท้ายประกาศกระทรวงอุตสาหกรรมฉบับที่ 1(พ.ศ.2541) อัดเศษกระดาษ","status":"ดำเนินกิจการ","lat":13.78933,"lon":101.64717},"10250005225486":{"id":"10250005225486","name":"บริษัท ไดเซล เซฟตี้ ซีสเต็มส์ (ประเทศไทย) จำกัด","owner":"บริษัท ไดเซล เซฟตี้ ซีสเต็มส์ (ประเทศไทย) จำกัด","displayRegistration":"3-77(2)-52/48ปจ","province":"ปราจีนบุรี","district":"ศรีมหาโพธิ","subdistrict":"ท่าตูม","industryType":"ผลิตและจำหน่ายชิ้นส่วนอินนิชิเอเตอร์ทุกประเภทสำหรับระบบความปลอดภัยในรถยนต์","status":"ดำเนินกิจการ","lat":13.937,"lon":101.5955},"20250017925485":{"id":"20250017925485","name":"-","owner":"นางสายใจ จันทร์สิวานนท์","displayRegistration":"จ3-3(4)-179/48ปจ","province":"ปราจีนบุรี","district":"กบินทร์บุรี","subdistrict":"หาดนางแก้ว","industryType":"ดูดทราย","status":"ดำเนินกิจการ","lat":13.97196,"lon":101.67602},"10250010825486":{"id":"10250010825486","name":"บริษัท ส.ทวีทรัพย์ รีไซเคิล จำกัด","owner":"นายสหัพย์ ทวีทรัพย์เพิ่มพูน","displayRegistration":"3-105-108/48ปจ","province":"ปราจีนบุรี","district":"ศรีมหาโพธิ","subdistrict":"หนองโพรง","industryType":"คัดแยกสิ่งปฏิกูลหรือวัสดุที่ไม่ใช้แล้วที่ไม่เป็นของเสียอันตราย","status":"ดำเนินกิจการ","lat":13.8575,"lon":101.5545},"20250005325482":{"id":"20250005325482","name":"บริษัท อิชิเทค (ไทยแลนด์) จำกัด","owner":"บริษัท อิชิเทค (ไทยแลนด์) จำกัด","displayRegistration":"จ3-77(2)-53/48ปจ","province":"ปราจีนบุรี","district":"ประจันตคาม","subdistrict":"ประจันตคาม","industryType":"ผลิตชิ้นส่วนยานพาหนะ เช่น ตาข่ายรัดสัมภาระในรถยนต์,ที่ใส่ของและท้าวแขนในรถยนต์,กล่องใส่แบตเตอรี่สำหรับรถยนต์,ที่ใส่ของด้านหลังเบาะรถยนต์,แผ่นรองสัมภาระท้ายรถยนต์","status":"ดำเนินกิจการ","lat":14.07459,"lon":101.51505},"20250000525482":{"id":"20250000525482","name":"บริษัท ที.ซี.ฟาร์มาซูติคอล อุตสาหกรรม จำกัด","owner":"บริษัท ที.ซี.ฟาร์มาซูติคอล อุตสาหกรรม จำกัด","displayRegistration":"จ3-9(4)-5/48ปจ","province":"ปราจีนบุรี","district":"บ้านสร้าง","subdistrict":"บางแตน","industryType":"ผลิตอาหารสำเร็จรูปจากเมล็ดพืช เช่น เมล็ดทานตะวันเคลือบธัญพืชอบกรอบและอบหรือคั่วถั่วหรือเมล็ดผลไม้ (Nuts) หรือการเคลือบถั่วหรือเมล็ดผลไม้ (Nuts) ด้วยน้ำตาลกาแฟโกโก้","status":"ดำเนินกิจการ","lat":13.88018,"lon":101.18165},"10250013925481":{"id":"10250013925481","name":"วังชุมพล","owner":"นายบัวศรี แสงมล","displayRegistration":"3-105-139/48ปจ","province":"ปราจีนบุรี","district":"กบินทร์บุรี","subdistrict":"หนองกี่","industryType":"คัดแยกวัสดุที่ไม่ใช้แล้วเฉพาะที่กำหนดในหมวด 1 ข้อ 1 ของภาคผนวกที่ 1 บัญชีสิ่งปฏิกูลหรือวัสดุที่ไม่ใช้แล้ว ท้ายประกาศกระทรวงอุตสาหกรรม ฉบับที่ 1 (พ.ศ.2541)","status":"ดำเนินกิจการ","lat":14.10383,"lon":101.87033},"10250011425484":{"id":"10250011425484","name":"บริษัท จอย ไอรอน แอนด์ เมทัล จำกัด","owner":"บริษัท จอย ไอรอน แอนด์ เมทัล จำกัด","displayRegistration":"3-105-114/48ปจ","province":"ปราจีนบุรี","district":"นาดี","subdistrict":"นาดี","industryType":"คัดแยกวัสดุที่ไม่ใช้แล้วเฉพาะที่กำหนดในหมวด 1 ข้อ 1 ของภาคผนวกที่ 1 บัญชีสิ่งปฏิกูลหรือวัสดุที่ไม่ใช้แล้ว ท้ายประกาศกระทรวงอุตสาหกรรม ฉบับที่ 1 (พ.ศ.2541) เฉพาะเศษพลาสติกเก่า และล้างบดย่อยทำเม็ดพลาสติกจากพลาสติกเก่า","status":"ดำเนินกิจการ","lat":14.08887,"lon":101.81128},"20250005425480":{"id":"20250005425480","name":"บริษัท คูโรต้า (ไทยแลนด์) จำกัด","owner":"บริษัท คูโรต้า (ไทยแลนด์) จำกัด","displayRegistration":"จ3-77(2)-54/48ปจ","province":"ปราจีนบุรี","district":"ศรีมหาโพธิ","subdistrict":"ท่าตูม","industryType":"ทำชิ้นส่วนพิเศษหรืออุปกรณ์สำหรับรถยนต์ เช่น Piston Control Valve , Piston Master Cylinder , Shaft Oil Pump","status":"ดำเนินกิจการ","lat":13.90267,"lon":101.56317},"10250014425481":{"id":"10250014425481","name":"บริษัท พี.อาร์.เอ็น เอ็นเนอร์จี้ โซลูชั่น จำกัด","owner":"บริษัท พี.อาร์.เอ็น เอ็นเนอร์จี้ โซลูชั่น จำกัด","displayRegistration":"3-105-144/48ปจ","province":"ปราจีนบุรี","district":"ศรีมหาโพธิ","subdistrict":"ศรีมหาโพธิ","industryType":"คัดแยกสิ่งปฏิกูลหรือวัสดุที่ไม่ใช้แล้วที่ไม่เป็นของเสียอันตรายเฉพาะหมวด 1 ข้อ 1 ตามบัญชีสิ่งปฏิกูลหรือวัสดุที่ไม่ใช้แล้วท้ายประกาศกระทรวงอุตสาหกรรม ฉบับที่ 1 (พ.ศ.2541)","status":"ดำเนินกิจการ","lat":13.94963,"lon":101.50934},"10250012225487":{"id":"10250012225487","name":"สันติสุข","owner":"นายสันติ เลาหสินนุรักษ์","displayRegistration":"3-105-122/48ปจ","province":"ปราจีนบุรี","district":"กบินทร์บุรี","subdistrict":"กบินทร์","industryType":"คัดแยกวัสดุที่ไม่ใช้แล้วเฉพาะที่กำหนดไว้ในหมวด 1 ข้อ 1 ของภาคผนวกที่ 1 บัญชีสิ่งปฏิกูลหรือวัสดุที่ไม่ใช้แล้ว ท้ายประกาศกระทรวงอุตสาหกรรม ฉบับที่ 1 (พ.ศ.2541) บดย่อยพลาสติกและทำที่นอน","status":"ดำเนินกิจการ","lat":13.98863,"lon":101.72168},"91120002125538":{"id":"91120002125538","name":"บริษัท ไอซิน ไทย ออโตโมทีฟ คาสติ้ง จำกัด","owner":"บริษัท ไอซิน ไทย ออโตโมทีฟ คาสติ้ง จำกัด","displayRegistration":"ข3-77(2)-21/53ปจ","province":"ปราจีนบุรี","district":"กบินทร์บุรี","subdistrict":"หนองกี่","industryType":"ผลิตชิ้นส่วนยานยนต์","status":"ดำเนินกิจการ","lat":14.0571352,"lon":101.8435398},"20250000625480":{"id":"20250000625480","name":"ส.กำไรทองรีไซด์เคิล","owner":"บริษัท กำไรทองรีไซเคิล จำกัด","displayRegistration":"จ3-40(1)-6/48ปจ","province":"ปราจีนบุรี","district":"ศรีมหาโพธิ","subdistrict":"ท่าตูม","industryType":"อัดกระดาษ และคัดแยกวัสดุที่ไม่ใช้แล้ว","status":"ดำเนินกิจการ","lat":13.93533,"lon":101.5605},"10250900125393":{"id":"10250900125393","name":"บริษัท ไทยสเตนเลสสตีล จำกัด","owner":"บริษัท ไทยสเตนเลสสตีล จำกัด","displayRegistration":"3-62-1/39ปจ","province":"ปราจีนบุรี","district":"บ้านสร้าง","subdistrict":"บางกระเบา","industryType":"ผลิตภาชนะเครื่องครัวทำด้วยเหล็กสเตนเลส ผลิตภาชนะเครื่องครัวและชิ้นงานขึ้นรูปทำด้วยเหล็กสเตนเลส โลหะทุกชนิดและพลาสติก ผลิตภาชนะเครื่องครัว ชิ้นงานขึ้นรูป และเครื่องใช้ไฟฟ้า ทำด้วยเหล็กสเตนเลส โลหะทุกชนิด และพลาสติก","status":"ดำเนินกิจการ","lat":13.97328,"lon":101.21143},"10250100125359":{"id":"10250100125359","name":"บริษัท ยูไนเต็ด เปเปอร์ จำกัด (มหาชน)","owner":"บริษัท ยูไนเต็ด เปเปอร์ จำกัด (มหาชน)","displayRegistration":"3-38(2)-1/35ปจ","province":"ปราจีนบุรี","district":"เมืองปราจีนบุรี","subdistrict":"วัดโบสถ์","industryType":"ผลิตกระดาษคราฟท์ ไม่มีการผลิตเยื่อกระดาษ กำลังการผลิตปีละ 60000 ตัน","status":"ดำเนินกิจการ","lat":14.02122,"lon":101.3089},"10250600125396":{"id":"10250600125396","name":"บริษัท อุตสาหกรรมไทยบรรจุภัณฑ์ จำกัด (มหาชน)","owner":"บริษัท อุตสาหกรรมไทยบรรจุภัณฑ์ จำกัด (มหาชน)","displayRegistration":"3-40(1)-1/39ปจ","province":"ปราจีนบุรี","district":"ศรีมหาโพธิ","subdistrict":"หัวหว้า","industryType":"ผลิตกระดาษลูกฟูกและภาชนะบรรจุจากกระดาษทุกชนิด ได้ปีละ 14,400ตัน และ 33,600 ตัน","status":"ดำเนินกิจการ","lat":13.80357,"lon":101.54569},"10250100125367":{"id":"10250100125367","name":"บริษัท ผ.เพิ่มพูน จำกัด","owner":"บริษัท ผ.เพิ่มพูน จำกัด","displayRegistration":"3-3(1)-1/36ปจ","province":"ปราจีนบุรี","district":"กบินทร์บุรี","subdistrict":"ลาดตะเคียน","industryType":"โม่ บด ย่อยหิน","status":"ดำเนินกิจการ","lat":13.83024,"lon":101.67829},"10250300125340":{"id":"10250300125340","name":"บริษัท โมเดอร์น เทคโนโลยี่ คอมโพเน้นท์ จำกัด","owner":"บริษัท โมเดอร์น เทคโนโลยี่ คอมโพเน้นท์ จำกัด","displayRegistration":"3-33-1/34ปจ","province":"ปราจีนบุรี","district":"กบินทร์บุรี","subdistrict":"นนทรี","industryType":"ผลิตพื้นรองเท้า และชิ้นส่วนต่าง ๆ ของรองเท้า","status":"ดำเนินกิจการ","lat":14.013,"lon":101.69783},"10250002325511":{"id":"10250002325511","name":"บริษัท ซีเอ็มเค คอร์ปอเรชั่น (ประเทศไทย) จำกัด","owner":"บริษัท ซีเอ็มเค คอร์ปอเรชั่น (ประเทศไทย) จำกัด","displayRegistration":"3-106-23/51ปจ","province":"ปราจีนบุรี","district":"ศรีมหาโพธิ","subdistrict":"ท่าตูม","industryType":"แยกโลหะทองแดงจากน้ำเสียจากกระบวนการกัดลายวงจร เพื่อนำกลับมาใช้ใหม่","status":"ดำเนินกิจการ","lat":13.90125,"lon":101.55333},"20250020825516":{"id":"20250020825516","name":"บริษัท อีซูซุปราจีนบุรีมอเตอร์เซลล์ จำกัด","owner":"บริษัท อีซูซุปราจีนบุรีมอเตอร์เซลล์ จำกัด","displayRegistration":"จ3-95(1)-208/51ปจ","province":"ปราจีนบุรี","district":"เมืองปราจีนบุรี","subdistrict":"หน้าเมือง","industryType":"ซ่อมรถยนต์และเครื่องยนต์","status":"ดำเนินกิจการ","lat":14.05594,"lon":101.36143},"20250009725513":{"id":"20250009725513","name":"บุญชลิต","owner":"นายชลิต บัวอินทร์","displayRegistration":"จ3-9(6)-97/51ปจ","province":"ปราจีนบุรี","district":"ศรีมโหสถ","subdistrict":"โคกไทย","industryType":"ทำมันเส้น","status":"ดำเนินกิจการ","lat":13.85234,"lon":101.45011},"10250000425511":{"id":"10250000425511","name":"บริษัท อี 85 จำกัด","owner":"บริษัท อี 85 จำกัด","displayRegistration":"3-17-4/51ปจ","province":"ปราจีนบุรี","district":"ศรีมหาโพธิ","subdistrict":"ท่าตูม","industryType":"ผลิตเอทานอลเพื่อใช้เป็นเชื้อเพลิง กำลังการผลิต 500,000 ลิตรต่อวัน ผลิตแป้งจากมันสำปะหลัง ผลิตก๊าซชีวภาพ","status":"ดำเนินกิจการ","lat":13.919705,"lon":101.584351},"10250003925517":{"id":"10250003925517","name":"ห้างหุ้นส่วนจำกัด พีซี วู้ดชิพ กบินทร์","owner":"ห้างหุ้นส่วนจำกัด พีซี วู้ดชิพ กบินทร์","displayRegistration":"3-34(4)-39/51ปจ","province":"ปราจีนบุรี","district":"กบินทร์บุรี","subdistrict":"บ่อทอง","industryType":"ผลิตชิ้นไม้สับจากไม้ที่ปลูกขึ้นโดยเฉพาะ 13 ชนิด ตามมติคณะรัฐมนตรีเพื่อจำหน่าย","status":"ดำเนินกิจการ","lat":13.9753,"lon":101.8234},"10250001725513":{"id":"10250001725513","name":"บริษัท มารูอิ อินดัสตรี (ไทยแลนด์) จำกัด","owner":"บริษัท มารูอิ อินดัสตรี (ไทยแลนด์) จำกัด","displayRegistration":"3-77(2)-17/51ปจ","province":"ปราจีนบุรี","district":"ศรีมหาโพธิ","subdistrict":"ท่าตูม","industryType":"ผลิตชิ้นส่วนรถยนต์ เช่น โลโก้รถยนต์ ดุมล้อ หน้ากากวิทยุ หน้ากระจังรถ หูช้าง","status":"ดำเนินกิจการ","lat":13.90362,"lon":101.54666},"20250004825516":{"id":"20250004825516","name":"บริษัท น้ำแข็งปราจีนบุรี จำกัด","owner":"บริษัท น้ำแข็งปราจีนบุรี จำกัด","displayRegistration":"จ3-14-48/51ปจ","province":"ปราจีนบุรี","district":"เมืองปราจีนบุรี","subdistrict":"หน้าเมือง","industryType":"ทำน้ำแข็งซอง วันละ 500 ซอง และน้ำแข็งก้อนเล็ก วันละ 30 ตัน","status":"ดำเนินกิจการ","lat":14.05402,"lon":101.39914},"20250200125505":{"id":"20250200125505","name":"บริษัท สแควร์ พาแนล ซิสเต็ม จำกัด","owner":"บริษัท สแควร์ พาแนล ซิสเต็ม จำกัด","displayRegistration":"จ3-63(5)-1/50ปจ","province":"ปราจีนบุรี","district":"ศรีมโหสถ","subdistrict":"โคกไทย","industryType":"ผลิตและจำหน่ายเครื่องระบายความร้อน เครื่องทำความเย็น ผนังกันความร้อน อะไหล่และอุปกรณ์ทำความเย็น และผลิตอุปกรณ์และส่วนประกอบของรถ ของบ้านสำเร็จรูป","status":"ดำเนินกิจการ","lat":13.84594,"lon":101.45574},"10250001225506":{"id":"10250001225506","name":"บริษัท ซีเอ็มเค คอร์ปอเรชั่น (ประเทศไทย) จำกัด","owner":"บริษัท ซีเอ็มเค คอปอเรชั่น (ประเทศไทย) จำกัด","displayRegistration":"3-72-12/50ปจ","province":"ปราจีนบุรี","district":"ศรีมหาโพธิ","subdistrict":"ท่าตูม","industryType":"ผลิตและจำหน่ายชิ้นส่วนผลิตภัณฑ์อิเล็กทรอนิกส์ เช่น Printed circuit board","status":"ดำเนินกิจการ","lat":13.90167,"lon":101.55333},"20250018925518":{"id":"20250018925518","name":"บริษัท โตโยต้าปราจีนบุรี(1993)ผู้จำหน่ายโตโยต้า จำกัด","owner":"บริษัท โตโยต้าปราจีนบุรี (1993) ผู้จำหน่ายโตโยต้า จำกัด","displayRegistration":"จ3-95(1)-189/51ปจ","province":"ปราจีนบุรี","district":"เมืองปราจีนบุรี","subdistrict":"หน้าเมือง","industryType":"ซ่อม-เคาะพ่นสีรถยนต์","status":"ดำเนินกิจการ","lat":14.05671,"lon":101.36164},"20250005825507":{"id":"20250005825507","name":"ตุลาการช่าง","owner":"นายวิเชียร ถูกจิตร","displayRegistration":"จ3-64(13)-58/50ปจ","province":"ปราจีนบุรี","district":"บ้านสร้าง","subdistrict":"บางกระเบา","industryType":"การกลึง เจาะ คว้าน กัดไส เจียรหรือเชื่อมโลหะทั่วไป","status":"ดำเนินกิจการ","lat":14.00343,"lon":101.17086},"20250200325501":{"id":"20250200325501","name":"บริษัท เอ็กซ์ทรีม คอมโพสิต จำกัด","owner":"บริษัท เอ็กซ์ทรีม คอมโพสิต จำกัด","displayRegistration":"จ3-87(1)-3/50ปจ","province":"ปราจีนบุรี","district":"กบินทร์บุรี","subdistrict":"ลาดตะเคียน","industryType":"ผลิตเครื่องเล่น เครื่องใช้ พร้อมอุปกรณ์จากไม้และผลิตภัณฑ์ไฟเบอร์กลาส","status":"ดำเนินกิจการ","lat":13.86936,"lon":101.64806},"20250000625506":{"id":"20250000625506","name":"บริษัท เซ็ทเมทอล จำกัด","owner":"บริษัท เซ็ทเมทอล จำกัด","displayRegistration":"จ3-60-6/50ปจ","province":"ปราจีนบุรี","district":"ศรีมหาโพธิ","subdistrict":"กรอกสมบูรณ์","industryType":"หลอมหล่อโลหะ เช่น อลูมิเนียม ทองแดง","status":"หยุดชั่วคราว","lat":13.8727,"lon":101.59358},"20250200125463":{"id":"20250200125463","name":"โรงน้ำแข็งบ่อทอง","owner":"นางวรัตน์ฐนัน ชื่นชมทรัพย์","displayRegistration":"จ3-14-1/46ปจ","province":"ปราจีนบุรี","district":"กบินทร์บุรี","subdistrict":"เมืองเก่า","industryType":"ผลิตน้ำแข็งซองและน้ำแข็งก้อนเล็ก","status":"ดำเนินกิจการ","lat":13.97939,"lon":101.77326},"20250014625500":{"id":"20250014625500","name":"ห้างหุ้นส่วนจำกัด วิริยะรุ่งเรืองรีไซเคิล","owner":"ห้างหุ้นส่วนจำกัด วิริยะรุ่งเรืองรีไซเคิล","displayRegistration":"จ3-105-146/50ปจ","province":"ปราจีนบุรี","district":"กบินทร์บุรี","subdistrict":"เมืองเก่า","industryType":"คัดแยกสิ่งปฏิกูลและวัสดุที่ไม่ใช้แล้วที่ไม่เป็นอันตรายตามประกาศกระทรวงอุตสาหกรรม เช่น กระดาษ,พลาสติก,โลหะ,ไม้,ผ้าฯลฯ และบดย่อยพลาสติก","status":"ดำเนินกิจการ","lat":14.01621,"lon":101.77617},"10250000825504":{"id":"10250000825504","name":"บริษัท พรีม่าแฮม (ไทยแลนด์) จำกัด","owner":"บริษัท พรีม่าแฮม (ไทยแลนด์) จำกัด","displayRegistration":"3-4(3)-8/50ปจ","province":"ปราจีนบุรี","district":"ศรีมหาโพธิ","subdistrict":"ท่าตูม","industryType":"ทำผลิตภัณฑ์อาหารสำเร็จรูปจากเนื้อสัตว์ เช่น หมูชุบเกร็ดขนมปัง ไส้กรอก กระหล่ำปลีม้วน และเบคอนห่อม้วน","status":"ดำเนินกิจการ","lat":13.90317,"lon":101.5485},"20250011725501":{"id":"20250011725501","name":"บริษัท วสันต์ศิภาพร เทรดดิ้ง จำกัด","owner":"บริษัท วสันต์ศิภาพร เทรดดิ้ง จำกัด","displayRegistration":"จ3-105-117/50ปจ","province":"ปราจีนบุรี","district":"เมืองปราจีนบุรี","subdistrict":"ไม้เค็ด","industryType":"คัดแยกสิ่งปฏิกูลและวัสดุที่ไม่ใช้แล้วที่ไม่เป็นอันตรายตามประกาศกระทรวงอุตสาหกรรม เช่น เศษกระดาษ,เศษพลาสติก,เศษโลหะ,เศษไม้,เศษผ้าบด ย่อยและทำเม็ดพลาสติกจากเศษพลาสติกที่ใช้แล้ว","status":"ดำเนินกิจการ","lat":14.10478,"lon":101.33017},"20250008725514":{"id":"20250008725514","name":"ห้างหุ้นส่วนจำกัด บุญชลิต","owner":"ห้างหุ้นส่วนจำกัด บุญชลิต","displayRegistration":"จ3-3(2)-87/51ปจ","province":"ปราจีนบุรี","district":"ศรีมโหสถ","subdistrict":"โคกไทย","industryType":"ขุดดินส่งโรงงานอุตสาหกรรม","status":"ดำเนินกิจการ","lat":13.85477,"lon":101.44948},"20250000525508":{"id":"20250000525508","name":"บริษัท น้ำใส 304 จำกัด","owner":"บริษัท น้ำใส 304 จำกัด","displayRegistration":"จ3-90-5/50ปจ","province":"ปราจีนบุรี","district":"ศรีมหาโพธิ","subdistrict":"ท่าตูม","industryType":"ปรับคุณภาพน้ำเพื่อจำหน่ายให้อาคารและโรงงานอุตสาหกรรม","status":"ดำเนินกิจการ","lat":13.89917,"lon":101.561},"10250000125517":{"id":"10250000125517","name":"บริษัท วี ดับเบิ้ลยู ซี อินดัสเทรียล จำกัด","owner":"บริษัท วี ดับเบิ้ลยู ซี อินดัสเทรียล จำกัด","displayRegistration":"3-34(4)-1/51ปจ","province":"ปราจีนบุรี","district":"กบินทร์บุรี","subdistrict":"บ้านนา","industryType":"ผลิตชิ้นไม้สับจากไม้ที่ปลูกขึ้นโดยเฉพาะ 13 ชนิด ตามมติคณะรัฐมนตรี","status":"ดำเนินกิจการ","lat":13.98486,"lon":101.79209},"10250100125391":{"id":"10250100125391","name":"บริษัท ไทยทาเคดะเลซ จำกัด","owner":"บริษัท ไทยทาเคดะเลซ จำกัด","displayRegistration":"3-22(3)-1/39ปจ","province":"ปราจีนบุรี","district":"กบินทร์บุรี","subdistrict":"นนทรี","industryType":"ฟอก ย้อม พิมพ์และแต่งสำเร็จสิ่งถักทอ","status":"ดำเนินกิจการ","lat":14.01333,"lon":101.703},"20250003725519":{"id":"20250003725519","name":"NULL","owner":"นายสุริยัณ แซ่ฮ้อ","displayRegistration":"จ3-37-37/51ปจ","province":"ปราจีนบุรี","district":"กบินทร์บุรี","subdistrict":"บ้านนา","industryType":"ทำเครื่องเรือนหรือเครื่องตกแต่งภายในอาคารจากไม้แปรรูป ไม้ยางพาราไม้เบญจพรรณแลแผ่นไม้ประดิษฐ์ เช่นโต๊ะ เก้าอี้ ตู้ เตียงนอน ชุดโซฟารับแขก","status":"ดำเนินกิจการ","lat":13.95038,"lon":101.7153},"10250003625505":{"id":"10250003625505","name":"บริษัท สุวรรณภูมิ เวสต์ รีคัฟเวอรี่ จำกัด","owner":"บริษัท สุวรรณภูมิ เวสต์ รีคัฟเวอรี่ จำกัด","displayRegistration":"3-106-36/50ปจ","province":"ปราจีนบุรี","district":"ศรีมหาโพธิ","subdistrict":"หนองโพรง","industryType":"คัดแยกวัสดุที่ไม่ใช้แล้วที่ไม่เป็นของเสียอันตราย ทำเชื้อเพลิงทดแทนจากน้ำมันหล่อลื่นใช้แล้ว ตัวทำละลายใช้แล้ว ทำเชื้อเพลิงผสมจากกากตะกอนปนเปื้อนน้ำมันและเศษผ้าปนเปื้อนน้ำมัน บดเศษและตะกรันโลหะ","status":"ดำเนินกิจการ","lat":13.81751,"lon":101.54626},"10250003025508":{"id":"10250003025508","name":"ห้างหุ้นส่วนจำกัด กองมณีก่อสร้าง","owner":"ห้างหุ้นส่วนจำกัด กองมณีก่อสร้าง","displayRegistration":"3-50(4)-30/50ปจ","province":"ปราจีนบุรี","district":"ศรีมหาโพธิ","subdistrict":"ท่าตูม","industryType":"ผลิตแอสฟัลท์คอนกรีต","status":"ดำเนินกิจการ","lat":13.891,"lon":101.576},"10250003225504":{"id":"10250003225504","name":"วงษ์พาณิชย์ปราจีนบุรี","owner":"นายอิทธิกร ศรีจันบาล","displayRegistration":"3-106-32/50ปจ","province":"ปราจีนบุรี","district":"ศรีมหาโพธิ","subdistrict":"กรอกสมบูรณ์","industryType":"ทำเม็ดพลาสติกเกรดบี นำน้ำมันหล่อลื่นและตัวทำละลายที่ใช้แล้วมาผลิตเป็นเชื้อเพลิงทดแทน ซ่อมและล้างถังบรรจุภัณฑ์ เก็บรวบรวมแบตเตอรี่โดยไม่มีการแปรสภาพ รีไซเคิลหลอดฟูออเรสเซนต์ที่ไม่ใช้แล้วมาผ่านกรรวิธีทางอุตสาหกรรมเพื่อนำกลับมาใช้ใหม่","status":"ดำเนินกิจการ","lat":13.891,"lon":101.576},"91120000325510":{"id":"91120000325510","name":"บริษัท ดันลอป ซิกซอน สปอร์ต แมนูแฟคเจอริ่ง (ประเทศไทย) จำกัด","owner":"บริษัท ดันลอป ซิกซอน สปอร์ต แมนูแฟคเจอริ่ง (ประเทศไทย) จำกัด","displayRegistration":"ข3-86-3/51ปจ","province":"ปราจีนบุรี","district":"กบินทร์บุรี","subdistrict":"หนองกี่","industryType":"ผลิตลูกเทนนิส ลูกบอล","status":"ดำเนินกิจการ","lat":14.06591,"lon":101.83491},"20250014525510":{"id":"20250014525510","name":"เซนเตอร์เวสท์","owner":"นายปิยะพงษ์ บ้านหมู่","displayRegistration":"จ3-105-145/51ปจ","province":"ปราจีนบุรี","district":"กบินทร์บุรี","subdistrict":"กบินทร์","industryType":"คัดแยกสิ่งปฏิกูลและวัสดุที่ไม่ใช้แล้วที่ไม่เป็นอันตรายตามประกาศกระทรวงอุตสาหกรรม","status":"ดำเนินกิจการ","lat":13.94874,"lon":101.69657},"20250001325510":{"id":"20250001325510","name":"NULL","owner":"นางสาวศศิธร รุนบุญ","displayRegistration":"จ3-52(4)-13/51ปจ","province":"ปราจีนบุรี","district":"กบินทร์บุรี","subdistrict":"วังดาล","industryType":"ทำผลิตภัณฑ์ยาง เช่น แผ่นพื้นรองเท้า","status":"ดำเนินกิจการ","lat":14.00411,"lon":101.67954},"20250700125385":{"id":"20250700125385","name":"ห้างหุ้นส่วนจำกัด กบินทร์พลาสติก 2007","owner":"ห้างหุ้นส่วนจำกัด กบินทร์พลาสติก 2007","displayRegistration":"จ3-53(5)-1/38ปจ","province":"ปราจีนบุรี","district":"กบินทร์บุรี","subdistrict":"บ่อทอง","industryType":"ทำเม็ดพลาสติก","status":"ดำเนินกิจการ","lat":13.97514,"lon":101.83212},"10250100125516":{"id":"10250100125516","name":"บริษัท พงษ์เทพ กรุ๊ป รีไซเคิล จำกัด","owner":"บริษัท พงษ์เทพ กรุ๊ป รีไซเคิล จำกัด","displayRegistration":"3-106-1/51ปจ","province":"ปราจีนบุรี","district":"ศรีมหาโพธิ","subdistrict":"กรอกสมบูรณ์","industryType":"นำน้ำมันหล่อลื่นและตัวทำละลายที่ใช้แล้วมาผลิตเป็นเชื้อเพลิงทดแทน นำน้ำมันพืชที่ใช้แล้วมาผลิตไบโอดีเซล ซ่อมและล้างถังบรรจุภัณฑ์ และผลิตเชื้อเพลิงเหลวจากยาง","status":"ดำเนินกิจการ","lat":13.818,"lon":101.53569},"20250008025519":{"id":"20250008025519","name":"บริษัท ปูนซิเมนต์ไทย (ท่าหลวง) จำกัด","owner":"บริษัท ผลิตภัณฑ์และวัตถุก่อสร้าง จำกัด","displayRegistration":"จ3-58(1)-80/51ปจ","province":"ปราจีนบุรี","district":"เมืองปราจีนบุรี","subdistrict":"บ้านพระ","industryType":"ผลิตคอนกรีตผสมเสร็จ","status":"ดำเนินกิจการ","lat":14.10851,"lon":101.3709},"91120003225519":{"id":"91120003225519","name":"บริษัท พรีเมียร์ โพรดักส์ จำกัด (มหาชน)","owner":"บริษัท พรีเมียร์ โพรดักส์ จำกัด","displayRegistration":"ข3-53(4)-32/51ปจ","province":"ปราจีนบุรี","district":"กบินทร์บุรี","subdistrict":"หนองกี่","industryType":"ทำผลิตภัณฑ์ถังน้ำจากพลาสติก โพลีเอทธิลีน","status":"ดำเนินกิจการ","lat":14.072505,"lon":101.822972},"10250002125515":{"id":"10250002125515","name":"บริษัท ซี.ซี.วู้ดชิพ จำกัด","owner":"บริษัท ซี.ซี.วู้ดชิพ จำกัด","displayRegistration":"3-34(4)-21/51ปจ","province":"ปราจีนบุรี","district":"ศรีมหาโพธิ","subdistrict":"กรอกสมบูรณ์","industryType":"ผลิตชิ้นไม้สับจากไม้ที่ปลูกขึ้นโดยเฉพาะ 13 ชนิด ตามมติคณะรัฐมนตรีเพื่อจำหน่าย","status":"หยุดชั่วคราว","lat":13.75802,"lon":101.67139},"20250003225510":{"id":"20250003225510","name":"เจริญถิรวัฒน์อุตสาหกรรมไม้","owner":"นายพิชิต แซ่ฮ้อ","displayRegistration":"จ3-34(1)-32/51ปจ","province":"ปราจีนบุรี","district":"กบินทร์บุรี","subdistrict":"เมืองเก่า","industryType":"ไสซอยไม้และทำวงกบประตูหน้าต่าง เครื่องเรือนเครื่องใช้จากไม้แปรรูป","status":"ดำเนินกิจการ","lat":13.98425,"lon":101.79079},"10250002825510":{"id":"10250002825510","name":"บริษัท โรงสีเตียหลีฮง 2 (2008) จำกัด","owner":"บริษัท โรงสีเตียหลีฮง 2 (2008) จำกัด","displayRegistration":"3-9(1)-28/51ปจ","province":"ปราจีนบุรี","district":"บ้านสร้าง","subdistrict":"บางเตย","industryType":"สีข้าวและอบข้าว (กำลังสีสูงสุดของร้านสีข้าว 500 เกวียน/วัน) ขยายการนึ่งข้าว","status":"ดำเนินกิจการ","lat":13.945538,"lon":101.214655},"20250006225517":{"id":"20250006225517","name":"ห้างหุ้นส่วนจำกัด ตรังทองรีไซเคิล","owner":"ห้างหุ้นส่วนจำกัด ตรังทองรีไซเคิล","displayRegistration":"จ3-105-62/51ปจ","province":"ปราจีนบุรี","district":"กบินทร์บุรี","subdistrict":"กบินทร์","industryType":"คัดแยกสิ่งปฏิกูลและวัสดุที่ไม่ใช้แล้วที่ไม่เป็นอันตราย ตามประกาศกระทรวงอุตสาหกรรม เช่น กระดาษ,พลาสติก,โลหะ,ไม้,ผ้า ฯลฯ เป็นต้น","status":"ดำเนินกิจการ","lat":13.98968,"lon":101.77802},"20250000525516":{"id":"20250000525516","name":"บริษัท ยูนิแลมป์ จำกัด","owner":"บริษัท ยูนิแลมป์ จำกัด","displayRegistration":"จ3-74(1)-5/51ปจ","province":"ปราจีนบุรี","district":"บ้านสร้าง","subdistrict":"บ้านสร้าง","industryType":"ผลิตโคมไฟฟ้าชนิดต่างๆ และอุปกรณ์ประกอบโคมไฟฟ้า","status":"ดำเนินกิจการ","lat":13.98127,"lon":101.23443},"10250000625516":{"id":"10250000625516","name":"บริษัท คูราชิกิ สยาม รับเบอร์ จำกัด","owner":"บริษัท คูราชิกิ สยาม รับเบอร์ จำกัด","displayRegistration":"3-52(4)-6/51ปจ","province":"ปราจีนบุรี","district":"ศรีมโหสถ","subdistrict":"โคกไทย","industryType":"ผลิตภัณฑ์ยาง เช่น ยางรองแท่นเครื่องยนต์ ยางกันกระแทก","status":"ดำเนินกิจการ","lat":13.78849,"lon":101.5344},"10250000125509":{"id":"10250000125509","name":"บริษัท นิวส์ เวิร์ล อู๋ (ประเทศไทย) จำกัด","owner":"บริษัท นิวส์ เวิร์ล อู๋ (ประเทศไทย) จำกัด","displayRegistration":"3-16-1/50ปจ","province":"ปราจีนบุรี","district":"ศรีมโหสถ","subdistrict":"ไผ่ชะเลือด","industryType":"ต้ม กลั่นหรือผสมสุรา ประเภทวิสกี้ บรั่นดีและยิน","status":"ดำเนินกิจการ","lat":13.89512,"lon":101.36515},"20250100525507":{"id":"20250100525507","name":"บริษัท เค.ดี.ฮีท เทคโนโลยี (ประเทศไทย) จำกัด","owner":"บริษัท เค.ดี.ฮีท เทคโนโลยี (ประเทศไทย) จำกัด","displayRegistration":"จ3-100(5)-5/50ปจ","province":"ปราจีนบุรี","district":"ศรีมหาโพธิ","subdistrict":"ท่าตูม","industryType":"อบชุบแข็งโลหะด้วยความร้อน","status":"ดำเนินกิจการ","lat":13.8975,"lon":101.5535},"20250004725492":{"id":"20250004725492","name":"บริษัท ชิโนระสา จำกัด","owner":"บริษัท ชิโนระสา จำกัด","displayRegistration":"จ3-3(2)-47/49ปจ","province":"ปราจีนบุรี","district":"เมืองปราจีนบุรี","subdistrict":"ดงขี้เหล็ก","industryType":"ขุดตักกรวด,ดินลูกรัง","status":"ดำเนินกิจการ","lat":14.14008,"lon":101.45252},"20250005025496":{"id":"20250005025496","name":"ห้างหุ้นส่วนจำกัด จิตติวงศ์ ไพจิตร์","owner":"ห้างหุ้นส่วนจำกัด จิตติวงศ์ ไพจิตร์","displayRegistration":"จ3-3(2)-50/49ปจ","province":"ปราจีนบุรี","district":"ประจันตคาม","subdistrict":"หนองแสง","industryType":"ขุดดิน","status":"ดำเนินกิจการ","lat":14.05839,"lon":101.57381},"10250004025481":{"id":"10250004025481","name":"บริษัท สามเอ็น คอร์ป (ประเทศไทย) จำกัด","owner":"บริษัท สามเอ็น คอร์ป (ประเทศไทย) จำกัด","displayRegistration":"3-106-40/48ปจ","province":"ปราจีนบุรี","district":"ศรีมหาโพธิ","subdistrict":"ศรีมหาโพธิ","industryType":"นำน้ำมันหล่อลื่น ตัวทำละลายที่ใช้แล้วมาผลิตเป็นเชื้อเพลิงทดแทน เคมีภัณฑ์ที่ใช้แล้วมาผ่านกรรมวิธีทางอุตสาหกรรมเพื่อนำกลับมาใช้ประโยชน์ใหม่ ซ่อมและล้างถังด้วยตัวทำละลาย นำสิ่งปฏิกูลหรือวัสดุที่ไม่ใช้แล้ว จากโรงงานอุตสาหกรรมมาผลิตเป็นอิฐบล็อก อิฐปูพื้น ซ่อมแซม ดัดแปลง ปรับปรุงเครื่องใช้ไฟฟ้าและอุปกรณ์อิเล็กทรอนิกส์ นำเศษผ้าปนเปื้อนกากตะกอนน้ำมัน และดินปนเปื้อนน้ำมันมาทำเชื้อเพลิงผสม (BLENDING)","status":"ดำเนินกิจการ","lat":13.9504,"lon":101.51788},"20250000825494":{"id":"20250000825494","name":"บริษัท เอเชีย แพลนเตชั่น ดิสทิลเลอรีส์ จำกัด","owner":"นายอำนาจ หนูน้ำ","displayRegistration":"จ3-7(1)-8/49ปจ","province":"ปราจีนบุรี","district":"เมืองปราจีนบุรี","subdistrict":"เนินหอม","industryType":"กลั่นน้ำมันหอมจากไม้กฤษณา","status":"ดำเนินกิจการ","lat":14.18133,"lon":101.41194},"20250000125499":{"id":"20250000125499","name":"บริษัท อัทโมสท์ เทค จำกัด","owner":"บริษัท อัทโมสท์เทค จำกัด","displayRegistration":"จ3-64(8)-1/49ปจ","province":"ปราจีนบุรี","district":"กบินทร์บุรี","subdistrict":"วังดาล","industryType":"การทำเครื่องสุขภัณฑ์ เหล็กหรือโลหะ เครื่องทองเหลือง สำหรับใช้ในการต่อท่อหรือเครื่องประกอบวาล์วหรือท่อ ทำแม่พิมพ์โลหะงานหล่อปูน โครงสร้างหลังคาโลหะ งานพรีแคส","status":"ดำเนินกิจการ","lat":14.01537,"lon":101.63055},"10250003525499":{"id":"10250003525499","name":"บริษัท ยุทธนาศิลป์ รีไซเคิล จำกัด","owner":"บริษัท ยุทธนาศิลป์ รีไซเคิล จำกัด","displayRegistration":"3-105-35/49ปจ","province":"ปราจีนบุรี","district":"กบินทร์บุรี","subdistrict":"เมืองเก่า","industryType":"คัดแยกวัสดุที่ไม่ใช้แล้วที่ไม่เป็นอันตราย","status":"ดำเนินกิจการ","lat":14.016,"lon":101.77598},"91120000625497":{"id":"91120000625497","name":"บริษัท เชาว์สตีล อินดัสทรี้ จำกัด (มหาชน)","owner":"บริษัท เชาว์สตีล อินดัสทรี้ จำกัด (มหาชน)","displayRegistration":"ข3-59-6/49ปจ","province":"ปราจีนบุรี","district":"กบินทร์บุรี","subdistrict":"หนองกี่","industryType":"ผลิตเหล็กแท่ง","status":"ดำเนินกิจการ","lat":14.07367,"lon":101.84067},"91120003725492":{"id":"91120003725492","name":"บริษัท โปลิโฟมกบินทร์บุรี จำกัด","owner":"บริษัท โปลิโฟม กบินทร์บุรี จำกัด","displayRegistration":"ข3-53(5)-37/49ปจ","province":"ปราจีนบุรี","district":"กบินทร์บุรี","subdistrict":"หนองกี่","industryType":"ผลิตโฟมเม็ดพลาสติก บรรจุภัณฑ์ ฉนวนกันความร้อน","status":"ดำเนินกิจการ","lat":14.06617,"lon":101.83083},"10250000625490":{"id":"10250000625490","name":"บริษัท โอโน่เทค จำกัด","owner":"บริษัท โอโน่เทค จำกัด","displayRegistration":"3-60-6/49ปจ","province":"ปราจีนบุรี","district":"ศรีมหาโพธิ","subdistrict":"ศรีมหาโพธิ","industryType":"หล่อหลอมอลูมิเนียมและโลหะทุกชนิด","status":"ดำเนินกิจการ","lat":13.83174,"lon":101.58833},"20250010625496":{"id":"20250010625496","name":"ผู้ใหญ่บรรเทา","owner":"นายบรรเทา มั่นใจ","displayRegistration":"จ3-37-106/49ปจ","province":"ปราจีนบุรี","district":"เมืองปราจีนบุรี","subdistrict":"โนนห้อม","industryType":"ทำเครื่องเรือน เครื่องตกแต่ง เช่น เฟอร์นิเจอร์ โต๊ะ เก้าอี้ จากไม้","status":"ดำเนินกิจการ","lat":14.09935,"lon":101.47963},"20250100825493":{"id":"20250100825493","name":"บริษัท ไทยูนิเฟอร์ส จำกัด","owner":"บริษัท ไทยูนิเฟอร์ส จำกัด","displayRegistration":"จ3-62-8/49ปจ","province":"ปราจีนบุรี","district":"ศรีมหาโพธิ","subdistrict":"หนองโพรง","industryType":"ผลิตเครื่องเรือน,เครื่องใช้และตบแต่งจากโลหะและพลาสติก เช่น เฟอร์นิเจอร์หวายเทียมเครื่องตกแต่งงานจัดสวน","status":"ดำเนินกิจการ","lat":13.8035,"lon":101.54533},"10250000525492":{"id":"10250000525492","name":"บริษัท พี ที เอ็ม การเกษตร จำกัด","owner":"บริษัท พี ที เอ็ม การเกษตร จำกัด","displayRegistration":"3-15(2)-5/49ปจ","province":"ปราจีนบุรี","district":"ศรีมหาโพธิ","subdistrict":"ศรีมหาโพธิ","industryType":"ผลิตอาหารสัตว์ เช่น กากถั่วเหลือง","status":"ดำเนินกิจการ","lat":13.88225,"lon":101.56405},"10250000125491":{"id":"10250000125491","name":"บริษัท บางกอกอินดัสเตรียลบอยเลอร์ จำกัด","owner":"บริษัท บางกอกอินดัสเตรียลบอยเลอร์ จำกัด","displayRegistration":"3-104-1/49ปจ","province":"ปราจีนบุรี","district":"ศรีมโหสถ","subdistrict":"โคกไทย","industryType":"ผลิตและซ่อมหม้อกำเนิดไอน้ำ ถังความดัน และถังเปลี่ยนถ่ายความร้อน","status":"ดำเนินกิจการ","lat":13.7911,"lon":101.51916},"10250002825494":{"id":"10250002825494","name":"บริษัท วังท่าช้างการเกษตร จำกัด","owner":"บริษัท วังท่าช้างการเกษตร จำกัด","displayRegistration":"3-9(6)-28/49ปจ","province":"ปราจีนบุรี","district":"กบินทร์บุรี","subdistrict":"วังท่าช้าง","industryType":"ทำมันเส้น ไซโลเก็บผลผลิตทางการเกษตร ถนอมอาหาร","status":"ดำเนินกิจการ","lat":13.77403,"lon":101.8651},"20250003225494":{"id":"20250003225494","name":"นางสาวอารีลักษณ์ รัตนวิสุทธิกุล","owner":"นางสาวสุธาสินี พงษ์พานิช","displayRegistration":"จ3-9(6)-32/49ปจ","province":"ปราจีนบุรี","district":"นาดี","subdistrict":"บุพราหมณ์","industryType":"ผลิตมันเส้น","status":"ดำเนินกิจการ","lat":14.26617,"lon":101.89217},"20250012525496":{"id":"20250012525496","name":"บริษัท ปูนซิเมนต์ไทย (ท่าหลวง) จำกัด","owner":"บริษัท ผลิตภัณฑ์และวัตถุก่อสร้าง จำกัด","displayRegistration":"จ3-58(1)-125/49ปจ","province":"ปราจีนบุรี","district":"ศรีมหาโพธิ","subdistrict":"ศรีมหาโพธิ","industryType":"ผลิตคอนกรีตผสมเสร็จ","status":"ดำเนินกิจการ","lat":13.8575,"lon":101.5545},