{"10730800125353":{"id":"10730800125353","name":"ถวิลการช่าง","owner":"นายถวิล ศรีอินทร์คำ","displayRegistration":"3-60-1/35นฐ","province":"นครปฐม","district":"พุทธมณฑล","subdistrict":"มหาสวัสดิ์","industryType":"หลอมหล่อทองเหลือง เช่น พระพุทธรูป","status":"ดำเนินกิจการ","lat":13.8072833333333,"lon":100.2686},"10730100225358":{"id":"10730100225358","name":"นายบุญเชิด ศิริปทุมมาศ","owner":"นายบุญเชิด ศิริปทุมมาศ","displayRegistration":"3-22(4)-2/35นฐ","province":"นครปฐม","district":"นครชัยศรี","subdistrict":"วัดละมุด","industryType":"พิมพ์ผ้า","status":"ดำเนินกิจการ","lat":13.8864333333333,"lon":100.193733333333},"20730500325350":{"id":"20730500325350","name":"บริษัท เอ็น.ซี. มอเตอร์ (1991) จำกัด","owner":"บริษัท เอ็น.ซี.มอเตอร์ (1991) จำกัด","displayRegistration":"จ3-77(1)-3/35นฐ","province":"นครปฐม","district":"นครชัยศรี","subdistrict":"ศรีษะทอง","industryType":"ซ่อมและต่อตัวถังรถยนต์,ผลิตชิ้นส่วนรถยนต์ เช่น ประตูรถยนต์","status":"ดำเนินกิจการ","lat":13.8046833333333,"lon":100.161333333333},"10730500325345":{"id":"10730500325345","name":"บริษัท คาสเดย์ (ขอนแก่น) คอร์โปเรชั่น จำกัด","owner":"บริษัท คาสเดย์ (ขอนแก่น) คอร์โปเรชั่น จำกัด","displayRegistration":"3-55-3/34นฐ","province":"นครปฐม","district":"พุทธมณฑล","subdistrict":"ศาลายา","industryType":"ผลิตเครื่องเคลือบดินเผาและผลิตภัณฑ์เกี่ยวกับพลาสติกเป็นรูปทรงต่าง ๆ","status":"ดำเนินกิจการ","lat":13.8044,"lon":100.28155},"10730000425348":{"id":"10730000425348","name":"บริษัท อินโดรามา โพลีเอสเตอร์ อินดัสตรีส์ จำกัด(มหาชน)","owner":"บริษัท อินโดรามา โพลีเอสเตอร์ อินดัสตรีส์ จำกัด(มหาชน)","displayRegistration":"3-22(1)-4/34นฐ","province":"นครปฐม","district":"นครชัยศรี","subdistrict":"ขุนแก้ว","industryType":"ผลิต POLYESTER CHIP, POLYESTER STAPLE FIBRE, POLYESTER PRE-ORIENTED YARN, POLYESTER FILAMENT YARN และ FULLY DRAWN YARN","status":"ดำเนินกิจการ","lat":13.7583833333333,"lon":100.188066666667},"20730900125376":{"id":"20730900125376","name":"บริษัท อินเตอร์ เอ็กซ์เพิร์ท คอนสตรัคชั่น จำกัด","owner":"บริษัท อินเตอร์ เอ็กซ์เพิร์ท คอนสตรัคชั่น จำกัด","displayRegistration":"จ3-36(1)-1/37นฐ","province":"นครปฐม","district":"เมืองนครปฐม","subdistrict":"ลำพยา","industryType":"ผลิตตู้ลำโพง เฟอร์นิเจอร์ และชั้นวางของจากไม้ ดอกลำโพง โดยไม่มีการล้าง ชุบ หรือเคลือบผิวชิ้นงาน โดยการใช้สารเคมี ผลิตและจำหน่ายสินค้าและอุปกรณ์เกี่ยวเนื่องที่ให้ความบันเทิง เช่น เครื่องเล่นเกมปาเป้า โต๊ะพูล และอื่น ๆ","status":"ดำเนินกิจการ","lat":13.8173833333333,"lon":100.017666666667},"10730300425345":{"id":"10730300425345","name":"ห้างหุ้นส่วนจำกัด ซี.พี.เอส.การาจ","owner":"ห้างหุ้นส่วนจำกัด ซี.พี.เอส.การาจ","displayRegistration":"3-77(1)-4/34นฐ","province":"นครปฐม","district":"เมืองนครปฐม","subdistrict":"หนองปากโลง","industryType":"ต่อตัวถังรถยนต์ด้วยเหล็ก และเคาะพ่นสีรถยนต์","status":"ดำเนินกิจการ","lat":13.8276333333333,"lon":100.012266666667},"20730700225376":{"id":"20730700225376","name":"เสริมสุขโอสถ","owner":"นายสกล พิศูทธินุศาสตร์","displayRegistration":"จ3-46(1)-2/37นฐ","province":"นครปฐม","district":"เมืองนครปฐม","subdistrict":"บ่อพลับ","industryType":"บดสมุนไพร","status":"ดำเนินกิจการ","lat":13.8328166666667,"lon":100.0603},"20730200125381":{"id":"20730200125381","name":"บริษัท โรงสี ช.รุ่งเรือง (1995) จำกัด","owner":"บริษัท โรงสี ช.รุ่งเรือง (1995) จำกัด","displayRegistration":"จ3-9(1)-1/38นฐ","province":"นครปฐม","district":"เมืองนครปฐม","subdistrict":"ทัพหลวง","industryType":"สีข้าว (กำลังสีสูงสุดของร้านสีข้าว 60 เกวียน/วัน)","status":"ดำเนินกิจการ","lat":13.9008666666667,"lon":99.9818833333333},"10730000125203":{"id":"10730000125203","name":"บริษัท สยามพรีเสริฟฟู้ดส์ จำกัด","owner":"บริษัท รวมอาหาร จำกัด","displayRegistration":"3-8(2)-1/20นฐ","province":"นครปฐม","district":"เมืองนครปฐม","subdistrict":"สระกะเทียม","industryType":"ผลิตผลไม้แห้งและขนมต่าง ๆ","status":"ดำเนินกิจการ","lat":13.796195,"lon":99.964441},"00730000325359":{"id":"00730000325359","name":"NULL","owner":"นางสาวธันยกานต์ ราศีวิสุทธิ์","displayRegistration":"ศ3-92-3/35นฐ","province":"นครปฐม","district":"เมืองนครปฐม","subdistrict":"วังตะกู","industryType":"ห้องเย็นเก็บอาหารทะเลแช่แข็ง","status":"ดำเนินกิจการ","lat":13.8652,"lon":100.006816666667},"10730500225362":{"id":"10730500225362","name":"ห้างหุ้นส่วนจำกัด วรกิจกลการ","owner":"ห้างหุ้นส่วนจำกัด วรกิจกลการ","displayRegistration":"3-60-2/36นฐ","province":"นครปฐม","district":"เมืองนครปฐม","subdistrict":"หนองดินแดง","industryType":"หลอมหล่อ กลึงและชุบอลูมิเนียม เช่น อะไหล่เครื่องทอผ้า อะไหล่เครื่องปั่นด้ายและทำผลิตภัณฑ์โลหะต่าง ๆ เช่น รั้วสแตนเลส","status":"ดำเนินกิจการ","lat":13.7853,"lon":99.9872166666667},"10730001225242":{"id":"10730001225242","name":"บริษัท โรงสีข้าวกิจธนา 1 จำกัด","owner":"ห้างหุ้นส่วนจำกัด กิจธนา","displayRegistration":"3-9(1)-12/24นฐ","province":"นครปฐม","district":"เมืองนครปฐม","subdistrict":"ทัพหลวง","industryType":"สีข้าว กำลังสีสูงสุดของร้านสีข้าว 16 เกวียน/วัน","status":"ดำเนินกิจการ","lat":13.8793333333333,"lon":99.9938166666667},"10730000625269":{"id":"10730000625269","name":"โรงสีข้าวชุมนุมสหกรณ์การเกษตรแห่งประเทศไทย จำกัด (ชสท.)","owner":"โรงสีข้าวชุมนุมสหกรณ์การเกษตร","displayRegistration":"3-9(1)-6/26นฐ","province":"นครปฐม","district":"นครชัยศรี","subdistrict":"ท่าตำหนัก","industryType":"สีข้าว กำลังสีสูงสุดของร้านสีข้าว 25 เกวียน/วัน","status":"ดำเนินกิจการ","lat":13.7964333333333,"lon":100.173133333333},"10730600125355":{"id":"10730600125355","name":"บริษัท สยามฟองน้ำโฟม จำกัด","owner":"บริษัท สยามฟองน้ำโฟม จำกัด","displayRegistration":"3-52(4)-1/35นฐ","province":"นครปฐม","district":"นครชัยศรี","subdistrict":"ท่าพระยา","industryType":"ทำพื้นรองเท้าจากยางดิบ","status":"ดำเนินกิจการ","lat":13.77965,"lon":100.130666666667},"00730200225342":{"id":"00730200225342","name":"บริษัท เบทาโกร จำกัด (มหาชน)","owner":"บริษัท เบทาโกร จำกัด (มหาชน)","displayRegistration":"ศ3-15(1)-2/34นฐ","province":"นครปฐม","district":"เมืองนครปฐม","subdistrict":"วังตะกู","industryType":"ผลิตอาหารสัตว์","status":"ดำเนินกิจการ","lat":13.8494333333333,"lon":100.013616666667},"10730001725340":{"id":"10730001725340","name":"บริษัท กาญจนา คอนกรีต จำกัด","owner":"บริษัท กาญจนา คอนกรีต จำกัด","displayRegistration":"3-58(1)-17/34นฐ","province":"นครปฐม","district":"เมืองนครปฐม","subdistrict":"ห้วยจรเข้","industryType":"ทำคอนกรีตผสมเสร็จ","status":"ดำเนินกิจการ","lat":13.8081833333333,"lon":100.062383333333},"10730100125228":{"id":"10730100125228","name":"บริษัท ประมวลผล จำกัด","owner":"บริษัท ประมวลผล จำกัด","displayRegistration":"3-18-1/22นฐ","province":"นครปฐม","district":"นครชัยศรี","subdistrict":"นครชัยศรี","industryType":"ผลิตสุราผลไม้ สุราพิเศษ บรั่นดี วิสกี้ และสุราผสม","status":"ดำเนินกิจการ","lat":13.7960333333333,"lon":100.190733333333},"10730400125225":{"id":"10730400125225","name":"บริษัท สีมาเจริญ จำกัด","owner":"บริษัท สีมาเจริญ จำกัด","displayRegistration":"3-47(3)-1/22นฐ","province":"นครปฐม","district":"นครชัยศรี","subdistrict":"สัมปทวน","industryType":"ผลิตเครื่องสำอาง เช่น แป้งน้ำ ครีม","status":"ดำเนินกิจการ","lat":13.8170666666667,"lon":100.19095},"10730900125253":{"id":"10730900125253","name":"บริษัท วงศ์ตระกูลโลหะกิจ จำกัด","owner":"บริษัท วงศ์ตระกูลโลหะกิจ จำกัด","displayRegistration":"3-60-1/25นฐ","province":"นครปฐม","district":"นครชัยศรี","subdistrict":"ขุนแก้ว","industryType":"หลอมตะกั่วจากแบตเตอรี่เก่า","status":"ดำเนินกิจการ","lat":13.7477,"lon":100.18245},"10730000325241":{"id":"10730000325241","name":"บริษัท โรงสีนิวไทยรุ่ง จำกัด","owner":"บริษัท โรงสีนิวไทยรุ่ง จำกัด","displayRegistration":"3-9(1)-3/24นฐ","province":"นครปฐม","district":"เมืองนครปฐม","subdistrict":"ธรรมศาลา","industryType":"สีข้าว กำลังสีสูงสุดของร้านสีข้าว 40 เกวียน/วัน","status":"หยุดชั่วคราว","lat":13.81435,"lon":100.101883333333},"10730600125272":{"id":"10730600125272","name":"ห้างหุ้นส่วนจำกัด เจียมโชติวัฒน์นครปฐม","owner":"ห้างหุ้นส่วนจำกัด เจียมโชติวัฒน์นครปฐม","displayRegistration":"3-65-1/27นฐ","province":"นครปฐม","district":"เมืองนครปฐม","subdistrict":"ธรรมศาลา","industryType":"กลึง-เชื่อมโลหะ และซ่อมเครื่องยนต์","status":"ดำเนินกิจการ","lat":13.8128166666667,"lon":100.10425},"10730000325290":{"id":"10730000325290","name":"อู่สหยนต์","owner":"นายวัชรพล ก.ศรีสุวรรณ","displayRegistration":"3-95(1)-3/29นฐ","province":"นครปฐม","district":"เมืองนครปฐม","subdistrict":"ลำพยา","industryType":"ซ่อมรถยนต์ และอุปกรณ์ของเครื่องยนต์","status":"ดำเนินกิจการ","lat":13.8043166666667,"lon":100.028},"10730000325142":{"id":"10730000325142","name":"บริษัท วรภัทร จำกัด","owner":"บริษัท วรภัทร จำกัด","displayRegistration":"3-14-3/14นฐ","province":"นครปฐม","district":"เมืองนครปฐม","subdistrict":"หนองดินแดง","industryType":"ผลิตน้ำแข็งได้วันละ 907 ซอง","status":"ดำเนินกิจการ","lat":13.8005,"lon":99.9924333333333},"10730000125302":{"id":"10730000125302","name":"บริษัท น้ำมันพืชไทย จำกัด (มหาชน)","owner":"บริษัท น้ำมันพืชไทย จำกัด (มหาชน)","displayRegistration":"3-7(4)-1/30นฐ","province":"นครปฐม","district":"นครชัยศรี","subdistrict":"ขุนแก้ว","industryType":"ผลิตน้ำมันพืช","status":"ดำเนินกิจการ","lat":13.7848666666667,"lon":100.2037},"10730100125194":{"id":"10730100125194","name":"บริษัท แมสเซอร์ สเปเชียลตี้ ก๊าซ จำกัด","owner":"บริษัท แมสเซอร์ สเปเชียลตี้ ก๊าซ จำกัด","displayRegistration":"3-89-1/19นฐ","province":"นครปฐม","district":"เมืองนครปฐม","subdistrict":"สระกะเทียม","industryType":"ผลิตก๊าซอ๊อกซิเจน ไนโตรเจน อาร์กอน","status":"ดำเนินกิจการ","lat":13.7964666666667,"lon":99.9634666666667},"10730800125213":{"id":"10730800125213","name":"บริษัท วัฒนกุลอ๊อกซิเย่น จำกัด","owner":"บริษัท วัฒนกุลอ๊อกซิเย่น จำกัด","displayRegistration":"3-89-1/21นฐ","province":"นครปฐม","district":"เมืองนครปฐม","subdistrict":"ลำพยา","industryType":"ผลิตก๊าซอ๊อกซิเจน","status":"ดำเนินกิจการ","lat":13.8025166666667,"lon":100.00055},"10730000425249":{"id":"10730000425249","name":"ห้างหุ้นส่วนจำกัด ตั้งเซียฮวด (1985)","owner":"ห้างหุ้นส่วนจำกัด ตั้งเซียฮวด (1985)","displayRegistration":"3-95(1)-4/24นฐ","province":"นครปฐม","district":"เมืองนครปฐม","subdistrict":"สระกะเทียม","industryType":"ซ่อมรถยนต์","status":"ดำเนินกิจการ","lat":13.7970333333333,"lon":99.9688666666667},"10731000125326":{"id":"10731000125326","name":"บริษัท อรุณศิลป์พัฒนา จำกัด","owner":"บริษัท อรุณศิลป์พัฒนา จำกัด","displayRegistration":"3-64(12)-1/32นฐ","province":"นครปฐม","district":"เมืองนครปฐม","subdistrict":"สนามจันทร์","industryType":"ตัดและพับเหล็กแผ่นสำหรับใช้ในการก่อสร้าง","status":"ดำเนินกิจการ","lat":13.8063129487104,"lon":100.044088054396},"20730300525373":{"id":"20730300525373","name":"บริษัท ช.ปฏิมากรรม อินดัสตรี จำกัด","owner":"บริษัท ช.ปฏิมากรรม อินดัสตรี จำกัด","displayRegistration":"จ3-60-5/37นฐ","province":"นครปฐม","district":"เมืองนครปฐม","subdistrict":"วังเย็น","industryType":"หล่อพระพุทธรูป และรูปเหมือนด้วยทองเหลือง","status":"ดำเนินกิจการ","lat":13.77045,"lon":100.011733333333},"20730700125352":{"id":"20730700125352","name":"ห้างหุ้นส่วนจำกัด พี เอ็น เค พลาสติก","owner":"ห้างหุ้นส่วนจำกัด พี เอ็น เค พลาสติก","displayRegistration":"จ3-53(4)-1/35นฐ","province":"นครปฐม","district":"เมืองนครปฐม","subdistrict":"พระประโทน","industryType":"ผลิตถุงพลาสติก ผลิตเม็ดพลาสติก","status":"ดำเนินกิจการ","lat":13.8089,"lon":100.092616666667},"10730300625332":{"id":"10730300625332","name":"อู่ วัฒนกิจ","owner":"นายสุรศักดิ์ ปฐมวัฒนศักดิ์","displayRegistration":"3-95(1)-6/33นฐ","province":"นครปฐม","district":"เมืองนครปฐม","subdistrict":"พระประโทน","industryType":"ซ่อมและเคาะพ่นสีรถยนต์","status":"ดำเนินกิจการ","lat":13.8164666666667,"lon":100.087733333333},"10730100225341":{"id":"10730100225341","name":"บริษัท เอส แอนด์ ซี ดายอิ้ง จำกัด","owner":"บริษัท เอส แอนด์ ซี ดายอิ้ง จำกัด","displayRegistration":"3-22(3)-2/34นฐ","province":"นครปฐม","district":"เมืองนครปฐม","subdistrict":"วังตะกู","industryType":"ฟอกย้อมด้าย","status":"ดำเนินกิจการ","lat":13.8280837902463,"lon":100.035940234032},"10730000125146":{"id":"10730000125146","name":"บริษัท โรงน้ำแข็งธรรมศาลา จำกัด","owner":"บริษัท โรงน้ำแข็งธรรมศาลา จำกัด","displayRegistration":"3-14-1/14นฐ","province":"นครปฐม","district":"เมืองนครปฐม","subdistrict":"ธรรมศาลา","industryType":"ทำน้ำแข็งซองได้วันละ 1,985.80 ซอง และทำน้ำแข็งก้อนเล็กได้วันละ 30 ตัน","status":"ดำเนินกิจการ","lat":13.8116666666667,"lon":100.122916666667},"20730000225373":{"id":"20730000225373","name":"บริษัท นานา แอกริเทค ไลน์ จำกัด","owner":"บริษัท นานา แอกริเทค ไลน์ จำกัด","displayRegistration":"จ3-15(1)-2/37นฐ","province":"นครปฐม","district":"เมืองนครปฐม","subdistrict":"ลำพยา","industryType":"ผลิตอาหารสัตว์","status":"ดำเนินกิจการ","lat":13.8117952371674,"lon":100.027363252549},"20731900125374":{"id":"20731900125374","name":"บริษัท ซี วี เอส เทคโนโลยี่ จำกัด","owner":"บริษัท ซี วี เอส เทคโนโลยี่ จำกัด","displayRegistration":"จ3-62-1/37นฐ","province":"นครปฐม","district":"นครชัยศรี","subdistrict":"สัมปทวน","industryType":"ทำครุภัณฑ์เครื่องเรือน เช่น ตู้ โต๊ะ เก้าอี้ และอุปกรณ์การเรียนการสอนวิทยาศาสตร์","status":"ดำเนินกิจการ","lat":13.8428166666667,"lon":100.202033333333},"20732000125371":{"id":"20732000125371","name":"บริษัท จาร์ตัน กรุ๊ป จำกัด","owner":"บริษัท จาร์ตัน กรุ๊ป จำกัด","displayRegistration":"จ3-64(10)-1/37นฐ","province":"นครปฐม","district":"นครชัยศรี","subdistrict":"วัดสำโรง","industryType":"ชุดโลหะ เช่น ชุบซิงค์รุ้ง,ชุบรมดำ","status":"ดำเนินกิจการ","lat":13.8433333333333,"lon":100.204516666667},"20732000125389":{"id":"20732000125389","name":"บริษัท รัตนโกสินทร์อุตสาหกรรม จำกัด","owner":"บริษัท รัตนโกสินทร์อุตสาหกรรม จำกัด","displayRegistration":"จ3-64(9)-1/38นฐ","province":"นครปฐม","district":"นครชัยศรี","subdistrict":"ศรีษะทอง","industryType":"ทำเครื่องใช้เล็ก ๆ จากโลหะ เช่น หัวซิป","status":"ดำเนินกิจการ","lat":13.80415,"lon":100.154916666667},"10731200125332":{"id":"10731200125332","name":"บริษัท รุ่งทรัพย์อิเล็คทริคแล็มพ์ จำกัด","owner":"บริษัท รุ่งทรัพย์อิเล็คทริคแล็มพ์ จำกัด","displayRegistration":"3-74(1)-1/33นฐ","province":"นครปฐม","district":"เมืองนครปฐม","subdistrict":"ดอนยายหอม","industryType":"ประกอบหลอดไฟฟ้า และผลิตหลอดแก้ว","status":"ดำเนินกิจการ","lat":13.7208166666667,"lon":100.077716666667},"10730100325158":{"id":"10730100325158","name":"บริษัท วัชระพร จำกัด","owner":"บริษัท วัชระพร จำกัด","displayRegistration":"3-14-3/15นฐ","province":"นครปฐม","district":"เมืองนครปฐม","subdistrict":"บ่อพลับ","industryType":"ทำน้ำแข็ง ได้วันละ 498 ซอง","status":"ดำเนินกิจการ","lat":13.8245333333333,"lon":100.08005},"10730200725331":{"id":"10730200725331","name":"ห้างหุ้นส่วนจำกัด สิริ ทรัค","owner":"นายนิระวิทธ์ คมชาญวริทธิ์ธร","displayRegistration":"3-95(1)-7/33นฐ","province":"นครปฐม","district":"เมืองนครปฐม","subdistrict":"สนามจันทร์","industryType":"ซ่อมและพ่นสีรถยนต์","status":"ดำเนินกิจการ","lat":13.8077666666667,"lon":100.042033333333},"10730000825224":{"id":"10730000825224","name":"โรงสีอุ่นเจริญทรัพย์","owner":"ห้างหุ้นส่วนจำกัด โรงสีอุ่นเจริญทรัพย์","displayRegistration":"3-9(1)-8/22นฐ","province":"นครปฐม","district":"เมืองนครปฐม","subdistrict":"สวนป่าน","industryType":"สีข้าว (กำลังสีสูงสุดของร้านสีข้าว 16 เกวียน/วัน)","status":"ดำเนินกิจการ","lat":13.7657166666667,"lon":99.9615833333333},"10730400125373":{"id":"10730400125373","name":"บริษัท แสงชัยโชค จำกัด","owner":"บริษัท แสงชัยโชค จำกัด","displayRegistration":"3-50(4)-1/37นฐ","province":"นครปฐม","district":"กำแพงแสน","subdistrict":"ทุ่งกระพังโหม","industryType":"ผลิตแอสฟัลต์ติกคอนกรีต","status":"ดำเนินกิจการ","lat":14.00543,"lon":99.985009},"10730400125381":{"id":"10730400125381","name":"กระจกชัยอลูมินั่ม","owner":"นางสาวพรทิพย์ ศักดิ์สกุลพรชัย","displayRegistration":"3-64(1)-1/38นฐ","province":"นครปฐม","district":"กำแพงแสน","subdistrict":"ดอนข่อย","industryType":"ทำเครื่องใช้จากอลูมิเนียม เช่น ตู้","status":"ดำเนินกิจการ","lat":14.0115333333333,"lon":100.0327},"10730000125369":{"id":"10730000125369","name":"บริษัท โรงสีข้าวเจริญพาณิชย์กำแพงแสน จำกัด","owner":"บริษัท โรงสีข้าวเจริญพาณิชย์กำแพงแสน จำกัด","displayRegistration":"3-9(1)-1/36นฐ","province":"นครปฐม","district":"กำแพงแสน","subdistrict":"วังน้ำเขียว","industryType":"สีข้าว สีข้าวนึ่ง กำลังสีสูงสุดของร้านสีข้าว 300 เกวียน/วัน และอบข้าวเปลือก","status":"ดำเนินกิจการ","lat":13.9792166666667,"lon":99.9953166666667},"10730200925337":{"id":"10730200925337","name":"นายธนกฤต ภัทรวาณี","owner":"นายธนกฤต ภัทรวาณี","displayRegistration":"3-77(1)-9/33นฐ","province":"นครปฐม","district":"เมืองนครปฐม","subdistrict":"สระกะเทียม","industryType":"ต่อตัวถังรถบรรทุก","status":"ดำเนินกิจการ","lat":13.7966666666667,"lon":99.96135},"10730200125250":{"id":"10730200125250","name":"ห้างหุ้นส่วนจำกัด น้ำพริกแม่ศรี","owner":"ห้างหุ้นส่วนจำกัด น้ำพริกแม่ศรี","displayRegistration":"3-13(2)-1/25นฐ","province":"นครปฐม","district":"เมืองนครปฐม","subdistrict":"ธรรมศาลา","industryType":"ทำน้ำพริกสำเร็จรูปและผลไม้กระป๋อง ทำพืชผักผลไม้บรรจุกระป๋อง และทำน้ำดื่มจากผลิตผลทางเกษตรกรรม","status":"ดำเนินกิจการ","lat":13.8138833333333,"lon":100.113266666667},"20731700125384":{"id":"20731700125384","name":"บริษัท ฟาร์มาซูติคอลส์แอนด์เมดิคอลซัพพลาย จำกัด","owner":"บริษัท ฟาร์มาซูติคอลส์แอนด์เมดิคอลซัพพลาย จำกัด","displayRegistration":"จ3-64(1)-1/38นฐ","province":"นครปฐม","district":"สามพราน","subdistrict":"อ้อมใหญ่","industryType":"ผลิตลัง งานโครงสร้าง งานขึ้นรูปโลหะ","status":"ดำเนินกิจการ","lat":13.7036166666667,"lon":100.28345},"20730000125375":{"id":"20730000125375","name":"บริษัท ส. ขอนแก่นฟู้ดส์ จำกัด (มหาชน)","owner":"บริษัท ส. ขอนแก่นฟู้ดส์ จำกัด (มหาชน)","displayRegistration":"จ3-4(3)-1/37นฐ","province":"นครปฐม","district":"เมืองนครปฐม","subdistrict":"บ่อพลับ","industryType":"ผลิตอาหารแปรรูปจากเนื้อหมู เช่น หมูหยอง","status":"ดำเนินกิจการ","lat":13.8356,"lon":100.06255},"20730400125371":{"id":"20730400125371","name":"น้ำหวานตรากบ","owner":"นายโอภาส วงศ์สอาดสกุล","displayRegistration":"จ3-20(2)-1/37นฐ","province":"นครปฐม","district":"เมืองนครปฐม","subdistrict":"โพรงมะเดื่อ","industryType":"ทำน้ำหวาน พริกไทยป่น ถั่วป่น กาแฟบด","status":"ดำเนินกิจการ","lat":13.8190833333333,"lon":99.9990833333333},"20730000225308":{"id":"20730000225308","name":"NULL","owner":"นายยงค์ ทรัพย์มาก","displayRegistration":"จ3-9(1)-2/30นฐ","province":"นครปฐม","district":"กำแพงแสน","subdistrict":"ห้วยม่วง","industryType":"สีข้าวชนิดแยกแกลบแยกรำ (กำลังสีสูงสุดของร้านสีข้าว 4 เกวียน/วัน)","status":"ดำเนินกิจการ","lat":14.1348,"lon":100.010566666667},"10730000125260":{"id":"10730000125260","name":"บริษัท โรงน้ำแข็งศาลายา จำกัด","owner":"บริษัท โรงน้ำแข็งศาลายา จำกัด","displayRegistration":"3-14-1/26นฐ","province":"นครปฐม","district":"พุทธมณฑล","subdistrict":"ศาลายา","industryType":"เพิ่มการทำน้ำแข็งก้อนเล็กได้วันละ 3 ตัน และลดการทำน้ำแข็งซองลงเหลือวันละ 339 ซอง","status":"ดำเนินกิจการ","lat":13.8028666666667,"lon":100.3275},"10730200125201":{"id":"10730200125201","name":"โรงน้ำแข็งนครชัยศรี","owner":"นายประสาท สุธีวงศ์","displayRegistration":"3-14-1/20นฐ","province":"นครปฐม","district":"นครชัยศรี","subdistrict":"นครชัยศรี","industryType":"ทำน้ำแข็ง ได้วันละ 430 ซอง","status":"ดำเนินกิจการ","lat":13.80235,"lon":100.1842},"10730400225314":{"id":"10730400225314","name":"NULL","owner":"นายปรีชา ลิ้มดำรงนุกูล","displayRegistration":"3-58(1)-2/31นฐ","province":"นครปฐม","district":"นครชัยศรี","subdistrict":"ศรีษะทอง","industryType":"ทำอิฐซีเมนต์บล๊อค","status":"ดำเนินกิจการ","lat":13.8057,"lon":100.155983333333},"10730200125243":{"id":"10730200125243","name":"บริษัท สงวนชัยอุตสาหกรรม จำกัด","owner":"บริษัท สงวนชัยอุตสาหกรรม จำกัด","displayRegistration":"3-26(2)-1/24นฐ","province":"นครปฐม","district":"นครชัยศรี","subdistrict":"ศรีษะทอง","industryType":"ผลิตเชือกไนล่อน ตีเกลียวเชือกและด้าย เพื่อการประมง","status":"ดำเนินกิจการ","lat":13.8101,"lon":100.131216666667},"10730800125254":{"id":"10730800125254","name":"บริษัท แกรนิตสยาม จำกัด","owner":"บริษัท แกรนิตสยาม จำกัด","displayRegistration":"3-58(3)-1/25นฐ","province":"นครปฐม","district":"เมืองนครปฐม","subdistrict":"ถนนขาด","industryType":"ทำผลิตภัณฑ์จากหิน เช่น ตัด สลักหิน","status":"ดำเนินกิจการ","lat":13.7750833333333,"lon":100.091183333333},"20731300225386":{"id":"20731300225386","name":"บริษัท โครโนส อินดัสทรี (1997) จำกัด","owner":"บริษัท โครโนส อินดัสทรี (1997) จำกัด","displayRegistration":"จ3-100(5)-2/38นฐ","province":"นครปฐม","district":"นครชัยศรี","subdistrict":"ดอนแฝก","industryType":"ชุบและเคลือบผิวโลหะ","status":"ดำเนินกิจการ","lat":13.8434166666667,"lon":100.209166666667},"20730001025384":{"id":"20730001025384","name":"มนชัยเซอร์วิส","owner":"นายมนชัย พร้อมมูล","displayRegistration":"จ3-95(1)-10/38นฐ","province":"นครปฐม","district":"สามพราน","subdistrict":"ท่าตลาด","industryType":"ซ่อมรถยนต์และเคาะพ่นสีรถยนต์","status":"ดำเนินกิจการ","lat":13.7424666666667,"lon":100.252},"10730200125292":{"id":"10730200125292","name":"โรงโม่กระถินยินดี-สามง่าม","owner":"นายเดโชชาติ ประสพโภคากร","displayRegistration":"3-15(2)-1/29นฐ","province":"นครปฐม","district":"ดอนตูม","subdistrict":"สามง่าม","industryType":"บดใบกระถิน","status":"ดำเนินกิจการ","lat":13.9600333333333,"lon":100.07625},"10730200625333":{"id":"10730200625333","name":"บริษัท เวิลด์ไวด์ สตีลบอลล์ จำกัด","owner":"บริษัท เวิลด์ไวด์ สตีลบอลล์ จำกัด","displayRegistration":"3-64(2)-6/33นฐ","province":"นครปฐม","district":"สามพราน","subdistrict":"กระทุ่มล้ม","industryType":"ผลิตเม็ดลูกปืน","status":"ดำเนินกิจการ","lat":13.7254833333333,"lon":100.330416666667},"10730000225243":{"id":"10730000225243","name":"โรงกลึงวันเจริญ","owner":"นายวิรัตน์ ศุภรัตนาวงศ์","displayRegistration":"3-64(1)-2/24นฐ","province":"นครปฐม","district":"เมืองนครปฐม","subdistrict":"ลำพยา","industryType":"กลึง เชื่อมโลหะและทำถัง","status":"ดำเนินกิจการ","lat":13.8040666666667,"lon":100.030616666667},"10730001225309":{"id":"10730001225309","name":"เชิดชัย","owner":"นายพีระวุฒิ จิตราวิริยะกุล","displayRegistration":"3-95(1)-12/30นฐ","province":"นครปฐม","district":"เมืองนครปฐม","subdistrict":"บางแขม","industryType":"ซ่อมตัวถังรถยนต์บรรทุก","status":"ดำเนินกิจการ","lat":13.8041,"lon":100.03285},"10730001025337":{"id":"10730001025337","name":"ห้างหุ้นส่วนจำกัด เอส.เอ็ม.เค.การาจ","owner":"บริษัท เอส.เอ็ม.เค.การาจ จำกัด","displayRegistration":"3-77(1)-10/33นฐ","province":"นครปฐม","district":"เมืองนครปฐม","subdistrict":"บางแขม","industryType":"ซ่อมตัวถังรถยนต์บรรทุก ดัดแปลง ซ๋อมบำรุง ต่อตัวถัง รถยนต์ บรรทุกน้ำ รถยนต์บรรทุกน้ำมัน และรถยนต์บรรทุกขยะ รวมทั้งรถยนต์บรรทุกอื่น ๆ ทุกชนิด","status":"ดำเนินกิจการ","lat":13.8039,"lon":100.03215},"20732300125378":{"id":"20732300125378","name":"สยามมาลัยแมน","owner":"นายสุรชัย เจียมวงษา","displayRegistration":"จ3-95(1)-1/37นฐ","province":"นครปฐม","district":"เมืองนครปฐม","subdistrict":"วังตะกู","industryType":"ซ่อมรถแทรกเตอร์","status":"หยุดชั่วคราว","lat":13.8693,"lon":100.003133333333},"00730000325367":{"id":"00730000325367","name":"บริษัท นิวแหลมทองฟูดส์ อินดัสทรีส์ จำกัด","owner":"บริษัท นิวแหลมทองฟูดส์ อินดัสทรีส์ จำกัด","displayRegistration":"ศ3-8(1)-3/36นฐ","province":"นครปฐม","district":"เมืองนครปฐม","subdistrict":"ดอนยายหอม","industryType":"ผลิต ผัก ผลไม้ และไข่นกกระทาบรรจุกระป๋อง ทำน้ำกะทิสำเร็จรูปบรรจุกระป๋อง น้ำมะพร้าวอ่อนพร้อมเนื้อบรรจุถ้วยเยือกแข็งและทำผัก ผลไม้แช่เยือกแข็ง","status":"ดำเนินกิจการ","lat":13.6968666666667,"lon":100.084066666667},"20731200225379":{"id":"20731200225379","name":"อู่บุญวัฒน์","owner":"นายบุญสม น้อยกำเนิด","displayRegistration":"จ3-95(1)-2/37นฐ","province":"นครปฐม","district":"เมืองนครปฐม","subdistrict":"สระกะเทียม","industryType":"ซ่อมรถยนต์","status":"ดำเนินกิจการ","lat":13.78955,"lon":99.9698333333333},"10730700125347":{"id":"10730700125347","name":"บริษัท บาซินี่ เอนเตอร์ไพรส์ จำกัด","owner":"บริษัท บาซินี่ เอนเตอร์ไพรส์ จำกัด","displayRegistration":"3-33-1/34นฐ","province":"นครปฐม","district":"กำแพงแสน","subdistrict":"สระพัฒนา","industryType":"ตัดเย็บรองเท้าหนัง","status":"ดำเนินกิจการ","lat":14.08225,"lon":99.9861166666667},"10730002225241":{"id":"10730002225241","name":"โรงสีสิงห์โชคอำนวย","owner":"นายทนงศักดิ์ ตระกูลโชคอำนวย","displayRegistration":"3-9(1)-22/24นฐ","province":"นครปฐม","district":"กำแพงแสน","subdistrict":"ทุ่งกระพังโหม","industryType":"สีข้าว กำลังสีสูงสุดของร้านสีข้าว 16 เกวียน/วัน","status":"ดำเนินกิจการ","lat":13.9859166666667,"lon":100.013883333333},"10730000325365":{"id":"10730000325365","name":"บริษัท เอเวอร์กรีนอินดัสตรีส์ จำกัด","owner":"บริษัท เอเวอร์กรีนอินดัสตรีส์ จำกัด","displayRegistration":"3-22(4)-3/36นฐ","province":"นครปฐม","district":"นครชัยศรี","subdistrict":"ขุนแก้ว","industryType":"พิมพ์ผ้า ได้ 120000 หลาต่อปี","status":"ดำเนินกิจการ","lat":13.77615,"lon":100.22035},"10730000225367":{"id":"10730000225367","name":"บริษัท ยูไนเต็ดไวน์เนอรี่ แอนด์ ดิสทิลเลอรี่ จำกัด","owner":"บริษัท ยูไนเต็ดไวน์เนอรี่ แอนด์ ดิสทิลเลอรี่ จำกัด","displayRegistration":"3-16-2/36นฐ","province":"นครปฐม","district":"นครชัยศรี","subdistrict":"นครชัยศรี","industryType":"ผลิตสุราวิสกี้ สุรากลั่นชนิดสุราขาว สุราผสม สุราปรุงพิเศษ สุรากลั่นที่ทำจากผลไม้ประเภทบรั่นดีและสุราแช่ประเภทสุราผลไม้จากองุ่น ( ตามที่ได้รับอนุญาตจากกรมสรรพสามิต","status":"ดำเนินกิจการ","lat":13.79665,"lon":100.189966666667},"10730900125378":{"id":"10730900125378","name":"บริษัท ทองแดง โลหะกิจ จำกัด","owner":"บริษัท ทองแดง โลหะกิจ จำกัด","displayRegistration":"3-59-1/37นฐ","province":"นครปฐม","district":"นครชัยศรี","subdistrict":"บางแก้ว","industryType":"หลอมหล่อเหล็ก เช่น เหล็กรูปพรรณต่าง ๆ ได้ปีละ 600 ตัน","status":"ดำเนินกิจการ","lat":13.7463,"lon":100.167383333333},"10730500225347":{"id":"10730500225347","name":"บริษัท ไทยอารีเมนูเฟคเจอร์ จำกัด","owner":"บริษัท ไทยอารีแมนูเฟคเจอร์ จำกัด","displayRegistration":"3-52(4)-2/34นฐ","province":"นครปฐม","district":"นครชัยศรี","subdistrict":"ขุนแก้ว","industryType":"ผลิตรองเท้าฟองน้ำ","status":"ดำเนินกิจการ","lat":13.7866798246141,"lon":100.229873410219},"10730100325349":{"id":"10730100325349","name":"บริษัท โรงงาน อ.ยางไทย 1992 จำกัด","owner":"บริษัท โรงงาน อ.ยางไทย 1992 จำกัด","displayRegistration":"3-52(4)-3/34นฐ","province":"นครปฐม","district":"นครชัยศรี","subdistrict":"วัดละมุด","industryType":"ทำชิ้นส่วนยางต่าง ๆ กำลังการผลิตเพิ่มขึ้นอีก 72 ตัน/ปี รวมเป็น 120 ตัน/ปี","status":"ดำเนินกิจการ","lat":13.8739,"lon":100.199233333333},"00730000125361":{"id":"00730000125361","name":"ห้างหุ้นส่วนจำกัด บางกอกอโล","owner":"ห้างหุ้นส่วนจำกัด บางกอกอโล","displayRegistration":"ศ3-8(1)-1/36นฐ","province":"นครปฐม","district":"กำแพงแสน","subdistrict":"ทุ่งกระพังโหม","industryType":"แปรรูปวัตถุดิบจากการเกษตร ผลไม้บรรจุกระป๋อง เช่น ว่านหางจระเข้ และน้ำว่าน","status":"ดำเนินกิจการ","lat":13.9711449651348,"lon":100.009748596727},"20731500125378":{"id":"20731500125378","name":"บริษัท วัสดุภัณฑ์คอนกรีต จำกัด","owner":"บริษัท วัสดุภัณฑ์คอนกรีต จำกัด","displayRegistration":"จ3-58(1)-1/37นฐ","province":"นครปฐม","district":"กำแพงแสน","subdistrict":"ดอนข่อย","industryType":"ผลิตเสาเข็มคอนกรีตอัดแรง","status":"ดำเนินกิจการ","lat":14.0185166666667,"lon":100.026083333333},"20730600125379":{"id":"20730600125379","name":"บริษัท ชมแสงอินดัสตรี้ จำกัด","owner":"บริษัท ชมแสงอินดิสตรี้ จำกัด","displayRegistration":"จ3-23(1)-1/37นฐ","province":"นครปฐม","district":"กำแพงแสน","subdistrict":"ห้วยขวาง","industryType":"ตัดเย็บมุ้ง,ผ้านวม","status":"หยุดชั่วคราว","lat":13.92055,"lon":100.04565},"10731100125358":{"id":"10731100125358","name":"บริษัท ดี.เอ็นเตอร์ไพรส์ จำกัด","owner":"บริษัท ดี.เอ็นเตอร์ไพรส์ จำกัด","displayRegistration":"3-71-1/35นฐ","province":"นครปฐม","district":"นครชัยศรี","subdistrict":"ศรีษะทอง","industryType":"ผลิตและประกอบเครื่องเชื่อมไฟฟ้ากระแสสลับ กำลังการผลิต 15,600 เครื่อง/ปี","status":"ดำเนินกิจการ","lat":13.8137,"lon":100.14415},"10730100425354":{"id":"10730100425354","name":"บริษัท กรุงเทพไทยโพลีพลาสติก จำกัด","owner":"บริษัท กรุงเทพไทยโพลีพลาสติก จำกัด","displayRegistration":"3-53(4)-4/35นฐ","province":"นครปฐม","district":"นครชัยศรี","subdistrict":"บางระกำ","industryType":"ผลิตกระสอบและผ้าใบพลาสติก","status":"ดำเนินกิจการ","lat":13.7730666666667,"lon":100.1291},"10730000625350":{"id":"10730000625350","name":"บริษัท พาฝัน เท็กซ์ไทล์ จำกัด","owner":"บริษัท พาฝัน เท็กซ์ไทล์ จำกัด","displayRegistration":"3-22(3)-6/35นฐ","province":"นครปฐม","district":"นครชัยศรี","subdistrict":"สัมปทวน","industryType":"ฟอกย้อม และพิมพ์ผ้า (กำลังการผลิต 200 ตันต่อปี)","status":"ดำเนินกิจการ","lat":13.835079,"lon":100.192158},"10731000125359":{"id":"10731000125359","name":"บริษัท ซี-คอน รีเทล คอร์ปอเรชั่น จำกัด","owner":"บริษัท ซี-คอน รีเทล คอร์ปอเรชั่น จำกัด","displayRegistration":"3-64(10)-1/35นฐ","province":"นครปฐม","district":"นครชัยศรี","subdistrict":"พะเนียด","industryType":"ชุบสังกะสี","status":"ดำเนินกิจการ","lat":13.7958666666667,"lon":100.118083333333},"10730900125469":{"id":"10730900125469","name":"บริษัท ไดเทค ดีส โปรดักชั่น จำกัด","owner":"บริษัท ไดเทค ดีส โปรดักชั่น จำกัด","displayRegistration":"3-107-1/46นฐ","province":"นครปฐม","district":"นครชัยศรี","subdistrict":"ขุนแก้ว","industryType":"ผลิตแผ่นเสียง (คอมแพคดิสก์)","status":"ดำเนินกิจการ","lat":13.7631666666667,"lon":100.195466666667},"10730200525343":{"id":"10730200525343","name":"บริษัท ชัยศรีนวกิจ จำกัด","owner":"บริษัท ชัยศรีนวกิจ จำกัด","displayRegistration":"3-59-5/34นฐ","province":"นครปฐม","district":"นครชัยศรี","subdistrict":"ศรีษะทอง","industryType":"หลอมหล่อเหล็กอลูมิเนียม ทองเหลือง เช่น อุปกรณ์ประปา","status":"ดำเนินกิจการ","lat":13.8045166666667,"lon":100.142233333333},"20730000225282":{"id":"20730000225282","name":"โรงสีเจริญเกษตร","owner":"นายเฉลิมเกียรติ เกิดดอนแฝก","displayRegistration":"จ3-9(1)-2/28นฐ","province":"นครปฐม","district":"นครชัยศรี","subdistrict":"ศรีษะทอง","industryType":"สีข้าว (กำลังสีสูงสุดของร้านสีข้าว 8 เกวียน/วัน)","status":"ดำเนินกิจการ","lat":13.8149666666667,"lon":100.142333333333},"10730600125363":{"id":"10730600125363","name":"บริษัท จาร์ตัน กรุ๊ป จำกัด","owner":"บริษัท จาร์ตัน กรุ๊ป จำกัด","displayRegistration":"3-64(9)-1/36นฐ","province":"นครปฐม","district":"นครชัยศรี","subdistrict":"วัดสำโรง","industryType":"ทำผลิตภัณฑ์โลหะ ทำผลิตภัณฑ์พลาสติก เช่น กุญแจ ลูกบิดประตู มือจับประตู","status":"ดำเนินกิจการ","lat":13.8433166666667,"lon":100.204433333333},"00730200125351":{"id":"00730200125351","name":"บริษัท บลูริบบอนมาร์เก็ตติ้ง จำกัด","owner":"บริษัท บลูริบบอนมาร์เก็ตติ้ง จำกัด","displayRegistration":"ศ3-36(1)-1/35นฐ","province":"นครปฐม","district":"นครชัยศรี","subdistrict":"ศรีษะทอง","industryType":"ผลิตของเล่น และของชำร่วยที่ทำจากไม้","status":"ดำเนินกิจการ","lat":13.8091333333333,"lon":100.132733333333},"10730100125301":{"id":"10730100125301","name":"เจริญสุข","owner":"นายต่อศักดิ์ สุขเฉลิมชัย","displayRegistration":"3-9(1)-1/30นฐ","province":"นครปฐม","district":"นครชัยศรี","subdistrict":"ดอนแฝก","industryType":"สีข้าว กำลังสีสูงสุดของร้านสีข้าว 40 เกวียน/วัน","status":"ดำเนินกิจการ","lat":13.84875,"lon":100.220666666667},"20732200125387":{"id":"20732200125387","name":"พรชัยการช่าง","owner":"นางมาลี ศรีกล่ำพึ่ง","displayRegistration":"จ3-64(13)-1/38นฐ","province":"นครปฐม","district":"บางเลน","subdistrict":"บางภาษี","industryType":"กลึงและเชื่อมโลหะ","status":"ดำเนินกิจการ","lat":14.0139833333333,"lon":100.21525},"20731400125387":{"id":"20731400125387","name":"บริษัท น่ำเฮงคอนกรีต (1992) จำกัด","owner":"บริษัท น่ำเฮงคอนกรีต (1992) จำกัด","displayRegistration":"จ3-58(1)-1/38นฐ","province":"นครปฐม","district":"สามพราน","subdistrict":"ไร่ขิง","industryType":"ผลิตคอนกรีตผสมเสร็จ","status":"ดำเนินกิจการ","lat":13.7496833333333,"lon":100.3002},"10730300125382":{"id":"10730300125382","name":"บริษัท เอ.บี.พี. อุตสาหกรรมพลาสติก จำกัด","owner":"บริษัท เอ.บี.พี. อุตสาหกรรมพลาสติก จำกัด","displayRegistration":"3-53(1)-1/38นฐ","province":"นครปฐม","district":"สามพราน","subdistrict":"อ้อมใหญ่","industryType":"ทำภาชนะต่าง ๆ จากพลาสติก","status":"ดำเนินกิจการ","lat":13.6987666666667,"lon":100.276883333333},"10730300225380":{"id":"10730300225380","name":"บริษัท พิกุลทอง พลาสติก จำกัด","owner":"บริษัท พิกุลทอง พลาสติก จำกัด","displayRegistration":"3-53(4)-2/38นฐ","province":"นครปฐม","district":"สามพราน","subdistrict":"ไร่ขิง","industryType":"ผลิตถุงพลาสติก","status":"ดำเนินกิจการ","lat":13.7417666666667,"lon":100.273816666667},"20732000125363":{"id":"20732000125363","name":"บริษัท สวิฟท์ จำกัด","owner":"บริษัท สวิฟท์ จำกัด","displayRegistration":"จ3-91(1)-1/36นฐ","province":"นครปฐม","district":"กำแพงแสน","subdistrict":"ดอนข่อย","industryType":"คัดบรรจุผักผลไม้ใส่ถาดพลาสติก","status":"ดำเนินกิจการ","lat":14.0167,"lon":100.036266666667},"20731000125365":{"id":"20731000125365","name":"บริษัท ฟุ้กเฮงซิลิเกท กลาส จำกัด","owner":"บริษัท ฟุ้กเฮงซิลิเกท กลาส จำกัด","displayRegistration":"จ3-54-1/36นฐ","province":"นครปฐม","district":"เมืองนครปฐม","subdistrict":"ดอนยายหอม","industryType":"ผลิตอุตสาหกรรมเครื่องแก้วทุกชนิด","status":"ดำเนินกิจการ","lat":13.73445,"lon":100.0898},"20731500125360":{"id":"20731500125360","name":"โรงกลึงสหยนต์","owner":"นายชัยยุทธ ก.ศรีสุวรรณ","displayRegistration":"จ3-64(13)-1/36นฐ","province":"นครปฐม","district":"เมืองนครปฐม","subdistrict":"สนามจันทร์","industryType":"กลึง-เชื่อมโลหะ และซ่อมช่วงล่างรถยนต์","status":"ดำเนินกิจการ","lat":13.8071666666667,"lon":100.049783333333},"10731000125342":{"id":"10731000125342","name":"บริษัท ธนภิญโญ อินเตอร์ จำกัด","owner":"บริษัท ธนภิญโญ อินเตอร์ จำกัด","displayRegistration":"3-53(7)-1/34นฐ","province":"นครปฐม","district":"เมืองนครปฐม","subdistrict":"ลำพยา","industryType":"ทำพื้นรองเท้า (พี.วี.ซี.)","status":"ดำเนินกิจการ","lat":13.8233333333333,"lon":100.033066666667},"10730000325340":{"id":"10730000325340","name":"บริษัท ไทยยามากิ จำกัด","owner":"บริษัท ไทยยามากิ จำกัด","displayRegistration":"3-28(1)-3/34นฐ","province":"นครปฐม","district":"เมืองนครปฐม","subdistrict":"วังตะกู","industryType":"ตัดเย็บเสื้อผ้าสำเร็จรูป (จำนวนจักรเย็บผ้า 83 เครื่อง)","status":"ดำเนินกิจการ","lat":13.8602333333333,"lon":100.010883333333},"10730200325348":{"id":"10730200325348","name":"บริษัท วิริยะกิจอุตสาหกรรมพลาสติก จำกัด","owner":"บริษัท วิริยะกิจอุตสาหกรรมพลาสติก จำกัด","displayRegistration":"3-53(1)-3/34นฐ","province":"นครปฐม","district":"เมืองนครปฐม","subdistrict":"ดอนยายหอม","industryType":"ทำภาชนะของใช้จากพลาสติก","status":"ดำเนินกิจการ","lat":13.70445,"lon":100.0786},"10730200125268":{"id":"10730200125268","name":"บริษัท ไอ ซี พี ลัดดา จำกัด","owner":"บริษัท ไอ ซี พี ลัดดา จำกัด","displayRegistration":"3-43(1)-1/26นฐ","province":"นครปฐม","district":"เมืองนครปฐม","subdistrict":"สามควายเผือก","industryType":"ผสม แบ่งบรรจุยากำจัดแมลงต่าง ๆ และปุ๋ยเคมี","status":"ดำเนินกิจการ","lat":13.8512333333333,"lon":100.11335},"10730700125297":{"id":"10730700125297","name":"บริษัท อู่มีแสง จำกัด","owner":"บริษัท อู่มีแสง จำกัด","displayRegistration":"3-77(1)-1/29นฐ","province":"นครปฐม","district":"เมืองนครปฐม","subdistrict":"สระกะเทียม","industryType":"ซ่อมและต่อตัวถังรถยนต์","status":"ดำเนินกิจการ","lat":13.79645,"lon":99.9654666666667},"10730001025246":{"id":"10730001025246","name":"โรงกลึง ส.ไพบูลย์","owner":"นายภัสสร พรพันธุ์ไพบูลย์","displayRegistration":"3-95(1)-10/24นฐ","province":"นครปฐม","district":"เมืองนครปฐม","subdistrict":"ห้วยจรเข้","industryType":"กลึงโลหะและซ่อมรถยนต์บรรทุก ต่อตัวถังรถบรรทุก","status":"ดำเนินกิจการ","lat":13.8092333333333,"lon":100.063066666667},"10730700125354":{"id":"10730700125354","name":"บริษัท ซี.เค.เจริญกิจพัฒนา จำกัด","owner":"บริษัท ซี.เค.เจริญกิจพัฒนา จำกัด","displayRegistration":"3-58(1)-1/35นฐ","province":"นครปฐม","district":"เมืองนครปฐม","subdistrict":"หนองดินแดง","industryType":"ทำเสาเข็ม แผ่นพื้นคอนกรีต","status":"ดำเนินกิจการ","lat":13.7991666666667,"lon":99.9804833333333},"10730000725267":{"id":"10730000725267","name":"NULL","owner":"นายสุรศักดิ์ จารุพุทธิศิริพจน์","displayRegistration":"3-9(1)-7/26นฐ","province":"นครปฐม","district":"เมืองนครปฐม","subdistrict":"หนองดินแดง","industryType":"สีข้าว (กำลังสีสูงสุดของร้านสีข้าว 40 เกวียน/วัน)","status":"ดำเนินกิจการ","lat":13.7985666666667,"lon":99.9743666666667},"10730000825265":{"id":"10730000825265","name":"บริษัท โรงสีทวีผล (2004) จำกัด","owner":"บริษัท โรงสีทวีผล (2004) จำกัด","displayRegistration":"3-9(1)-8/26นฐ","province":"นครปฐม","district":"เมืองนครปฐม","subdistrict":"ลำพยา","industryType":"สีข้าว (กำลังสีสูงสุดของร้านสีข้าว 20 เกวียน/วัน)","status":"ดำเนินกิจการ","lat":13.8036333333333,"lon":100.014},"00730300125350":{"id":"00730300125350","name":"บริษัท เอี่ยมอิ่มจิตต์การประมง จำกัด","owner":"บริษัท เอี่ยมอิ่มจิตต์การประมง จำกัด","displayRegistration":"ศ3-92-1/35นฐ","province":"นครปฐม","district":"เมืองนครปฐม","subdistrict":"หนองปากโลง","industryType":"ทำห้องเย็น","status":"ดำเนินกิจการ","lat":13.8287666666667,"lon":100.036166666667},"20731100225370":{"id":"20731100225370","name":"บริษัท มีแสงบัสบอดี้ จำกัด","owner":"นายอนุสรณ์ กิจบำรุงรัตน์","displayRegistration":"จ3-77(1)-2/37นฐ","province":"นครปฐม","district":"เมืองนครปฐม","subdistrict":"สระกะเทียม","industryType":"ซ่อมและต่อตัวถังรถโดยสาร","status":"ดำเนินกิจการ","lat":13.7987333333333,"lon":99.9792333333333},"20730300225362":{"id":"20730300225362","name":"บริษัท หิรัญ เอส.เสวี จำกัด","owner":"บริษัท หิรัญ เอส.เสวี จำกัด","displayRegistration":"จ3-42(1)-2/36นฐ","province":"นครปฐม","district":"เมืองนครปฐม","subdistrict":"ทัพหลวง","industryType":"ผลิตสารเคมี UNSATURATED POLYESTER RESEN และผลิตภัณฑ์ไฟเบอร์กล๊าส เช่น ถังใส่น้ำและอื่น ๆ","status":"ดำเนินกิจการ","lat":13.9192130207061,"lon":99.9846407643462},"20730500425366":{"id":"20730500425366","name":"สุรชัยการช่าง","owner":"นายสุรชัย อริยานนท์","displayRegistration":"จ3-95(1)-4/36นฐ","province":"นครปฐม","district":"เมืองนครปฐม","subdistrict":"ห้วยจรเข้","industryType":"ซ่อมรถยนต์และเคาะพ่นสีรถยนต์","status":"ดำเนินกิจการ","lat":13.8107666666667,"lon":100.060183333333},"20730800225367":{"id":"20730800225367","name":"ห้างหุ้นส่วนจำกัด เอกชูสิทธิ์โลหะกิจ","owner":"ห้างหุ้นส่วนจำกัด เอกชูสิทธิ์โลหะกิจ","displayRegistration":"จ3-64(2)-2/36นฐ","province":"นครปฐม","district":"เมืองนครปฐม","subdistrict":"พระประโทน","industryType":"ปั๊มโลหะทำน๊อต สกรู และชุบโลหะ","status":"ดำเนินกิจการ","lat":13.8068666666667,"lon":100.089266666667},"10730000225334":{"id":"10730000225334","name":"ห้างหุ้นส่วนจำกัด โรงสีย่งไถ่เฮง","owner":"ห้างหุ้นส่วนจำกัด โรงสีย่งไถ่เฮง","displayRegistration":"3-9(1)-2/33นฐ","province":"นครปฐม","district":"เมืองนครปฐม","subdistrict":"ลำพยา","industryType":"สีข้าวชนิดแยกแกลบแยกรำ (กำลังสีสูงสุดของร้านสีข้าว 30 เกวียน/วัน)","status":"ดำเนินกิจการ","lat":13.8034666666667,"lon":100.011116666667},"10730000225201":{"id":"10730000225201","name":"บริษัท อมรวิลาศ จำกัด","owner":"บริษัท อมรวิลาศ จำกัด","displayRegistration":"3-8(2)-2/20นฐ","province":"นครปฐม","district":"เมืองนครปฐม","subdistrict":"วังตะกู","industryType":"ทำสับปะรดกวน, พุทรากวน, ข้าวเกรียบกุ้ง และทำแบะแซ","status":"ดำเนินกิจการ","lat":13.8464833333333,"lon":100.023216666667},"10730600125330":{"id":"10730600125330","name":"บริษัท เอราวัณเคมีเกษตร จำกัด","owner":"บริษัท เอราวัณเคมีเกษตร จำกัด","displayRegistration":"3-43(1)-1/33นฐ","province":"นครปฐม","district":"เมืองนครปฐม","subdistrict":"สนามจันทร์","industryType":"ผสมปุ๋ยและสารเคมีกำจัดศัตรูพืช","status":"ดำเนินกิจการ","lat":13.7826166666667,"lon":100.058533333333},"20730000525368":{"id":"20730000525368","name":"โรงสีไทยพัฒนา","owner":"นายสุรชัย วัฒนะนุพงษ์","displayRegistration":"จ3-9(1)-5/36นฐ","province":"นครปฐม","district":"เมืองนครปฐม","subdistrict":"วังตะกู","industryType":"สีข้าว กำลังสีสูงสุดของร้านสีข้าว 24 เกวียน/วัน","status":"ดำเนินกิจการ","lat":13.8689666666667,"lon":100.0034},"10730300125218":{"id":"10730300125218","name":"บริษัท กรุงเจริญอุตสาหกรรมสิ่งทอ จำกัด","owner":"บริษัท กรุงเจริญอุตสาหกรรมสิ่งทอ จำกัด","displayRegistration":"3-22(2)-1/21นฐ","province":"นครปฐม","district":"สามพราน","subdistrict":"อ้อมใหญ่","industryType":"ทอผ้าทุกชนิด (จำนวนเครื่องทอ 100 เครื่อง)","status":"ดำเนินกิจการ","lat":13.7043833333333,"lon":100.27575},"20730000425445":{"id":"20730000425445","name":"บริษัท วิชั่นเท็กซ์ จำกัด","owner":"บริษัท วิชั่นเท็กซ์ จำกัด","displayRegistration":"จ3-24-4/44นฐ","province":"นครปฐม","district":"สามพราน","subdistrict":"ยายชา","industryType":"ถักผ้า","status":"ดำเนินกิจการ","lat":13.7288833333333,"lon":100.247133333333},"20732200125379":{"id":"20732200125379","name":"บริษัท เคไอ เอ็นเตอร์ไพรส์ จำกัด","owner":"บริษัท เคไอ เอ็นเตอร์ไพรส์ จำกัด","displayRegistration":"จ3-74(4)-1/37นฐ","province":"นครปฐม","district":"สามพราน","subdistrict":"ท่าตลาด","industryType":"ผลิตและจำหน่ายฉนวนไฟฟ้า และชิ้นส่วนประกอบเครื่องไฟฟ้า","status":"ดำเนินกิจการ","lat":13.7531,"lon":100.2292},"20730000625374":{"id":"20730000625374","name":"บริษัท เหรียญฟงการทอ จำกัด","owner":"บริษัท เหรียญฟงการทอ จำกัด","displayRegistration":"จ3-22(2)-6/37นฐ","province":"นครปฐม","district":"สามพราน","subdistrict":"ไร่ขิง","industryType":"ทอผ้า รับจ้างทอผ้า ออกแบบลวดลายผ้า","status":"ดำเนินกิจการ","lat":13.7151333333333,"lon":100.271216666667},"10730800125379":{"id":"10730800125379","name":"บริษัท บางกอกไพบูลย์ไพพ์ จำกัด","owner":"บริษัท บางกอกไพบูลย์ไพพ์ จำกัด","displayRegistration":"3-53(5)-1/37นฐ","province":"นครปฐม","district":"สามพราน","subdistrict":"ยายชา","industryType":"ทำท่อ พี.วี.ซี และชิ้นส่วนอุปกรณ์ท่อพี.วี.ซี","status":"ดำเนินกิจการ","lat":13.7337,"lon":100.232333333333},"10731200125340":{"id":"10731200125340","name":"บริษัท อ.เพ็ชรเกษมฮาร์ทโครม จำกัด","owner":"บริษัท อ.เพ็ชรเกษมฮาร์ทโครม จำกัด","displayRegistration":"3-64(10)-1/34นฐ","province":"นครปฐม","district":"สามพราน","subdistrict":"ท่าตลาด","industryType":"กลึงและชุบโลหะ","status":"ดำเนินกิจการ","lat":13.7505666666667,"lon":100.222483333333},"10730200125227":{"id":"10730200125227","name":"บริษัท ยูซีพี (ประเทศไทย) จำกัด","owner":"บริษัท ฟลาวเวอร์อินเตอร์เนชันแนล จำกัด","displayRegistration":"3-23(1)-1/22นฐ","province":"นครปฐม","district":"สามพราน","subdistrict":"อ้อมใหญ่","industryType":"ผลิตดอกไม้ผ้า","status":"ดำเนินกิจการ","lat":13.7039333333333,"lon":100.27495},"10730900125345":{"id":"10730900125345","name":"บริษัท ยู ซี เอ็นเตอร์ไพรส์ จำกัด","owner":"บริษัท ยู ซี เอ็นเตอร์ไพรส์ จำกัด","displayRegistration":"3-40(1)-1/34นฐ","province":"นครปฐม","district":"สามพราน","subdistrict":"ท่าตลาด","industryType":"ผลิตกระดาษกาวและเทปกาว","status":"ดำเนินกิจการ","lat":13.7529833333333,"lon":100.229333333333},"10730100625342":{"id":"10730100625342","name":"บริษัท ไทยดั๊กไทล์ อินดัสตรี้ จำกัด","owner":"บริษัท ไทยดั๊กไทล์ อินดัสตรี้ จำกัด","displayRegistration":"3-59-6/34นฐ","province":"นครปฐม","district":"สามพราน","subdistrict":"อ้อมใหญ่","industryType":"หลอมหล่อเหล็ก เช่น จานเบรครถยนต์","status":"ดำเนินกิจการ","lat":13.6979666666667,"lon":100.27195},"10730100425347":{"id":"10730100425347","name":"บริษัท ศรีอุดมชัย รับเบอร์ จำกัด","owner":"บริษัท ศรีอุดมชัย รับเบอร์ จำกัด","displayRegistration":"3-52(4)-4/34นฐ","province":"นครปฐม","district":"สามพราน","subdistrict":"อ้อมใหญ่","industryType":"ทำพื้นรองเท้า","status":"ดำเนินกิจการ","lat":13.7104,"lon":100.280816666667},"10731000125292":{"id":"10731000125292","name":"ห้างหุ้นส่วนจำกัด ศรีไพศาล","owner":"ห้างหุ้นส่วนจำกัด ศรีไพศาล","displayRegistration":"3-98-1/29นฐ","province":"นครปฐม","district":"สามพราน","subdistrict":"ยายชา","industryType":"ฟอกและซักรีดเสื้อผ้า ได้  150,000 ตัว","status":"ดำเนินกิจการ","lat":13.72185,"lon":100.2526},"20730000225209":{"id":"20730000225209","name":"ห้างหุ้นส่วนจำกัด ลิ้มเซ้งยู่เชียง","owner":"ห้างหุ้นส่วนจำกัด ลิ้มเซ้งยู่เชียง","displayRegistration":"จ3-22(3)-2/20นฐ","province":"นครปฐม","district":"สามพราน","subdistrict":"ไร่ขิง","industryType":"ฟอกย้อมผ้า","status":"ดำเนินกิจการ","lat":13.74045,"lon":100.260666666667},"10730400125175":{"id":"10730400125175","name":"บริษัท ศิลป์ 111 อุตสาหกรรมพิมพ์ผ้า จำกัด","owner":"บริษัท ศิลป์ 111 อุตสาหกรรมพิมพ์ผ้า","displayRegistration":"3-22(4)-1/17นฐ","province":"นครปฐม","district":"สามพราน","subdistrict":"ท่าข้าม","industryType":"พิมพ์ผ้า และฟอกย้อมผ้า","status":"ดำเนินกิจการ","lat":13.7193,"lon":100.23505},"10730400325346":{"id":"10730400325346","name":"บริษัท พลอยเจริญพลาสติก จำกัด","owner":"บริษัท พลอยเจริญพลาสติก จำกัด","displayRegistration":"3-53(5)-3/34นฐ","province":"นครปฐม","district":"สามพราน","subdistrict":"ไร่ขิง","industryType":"ทำเม็ดพลาสติกจากเศษพลาสติกเก่า","status":"ดำเนินกิจการ","lat":13.7197166666667,"lon":100.272216666667},"10730400225348":{"id":"10730400225348","name":"บริษัท เค.พี.เอ็น.บรรจุภัณฑ์ จำกัด","owner":"บริษัท เค.พี.เอ็น.บรรจุภัณฑ์ จำกัด","displayRegistration":"3-39-2/34นฐ","province":"นครปฐม","district":"สามพราน","subdistrict":"ไร่ขิง","industryType":"ทำกล่องกระดาษลูกฟูก","status":"ดำเนินกิจการ","lat":13.7580407804605,"lon":100.271019561659},"10730200225266":{"id":"10730200225266","name":"บริษัท โรงงานเชอร์รี่ไอศกรีม จำกัด","owner":"บริษัท โรงงานเชอร์รี่ไอศกรีม จำกัด","displayRegistration":"3-12(11)-2/26นฐ","province":"นครปฐม","district":"สามพราน","subdistrict":"ท่าตลาด","industryType":"ผลิตไอศกรีม","status":"ดำเนินกิจการ","lat":13.73675,"lon":100.248016666667},"10731400125322":{"id":"10731400125322","name":"บริษัท โมเดิร์น เซรามิคส์ จำกัด","owner":"บริษัท โมเดิร์น เซรามิคส์ จำกัด","displayRegistration":"3-74(3)-1/32นฐ","province":"นครปฐม","district":"สามพราน","subdistrict":"อ้อมใหญ่","industryType":"ผลิตลูกถ้วยไฟฟ้า และอุปกรณ์ไฟฟ้าที่ทำด้วยเซรามิคส์","status":"ดำเนินกิจการ","lat":13.7081333333333,"lon":100.254566666667},"10730600125371":{"id":"10730600125371","name":"ห้างหุ้นส่วนจำกัด เอ.วี.สลิปเปอร์โปรดักส์","owner":"ห้างหุ้นส่วนจำกัด เอ.วี.สลิปเปอร์โปรดักส์","displayRegistration":"3-52(4)-1/37นฐ","province":"นครปฐม","district":"สามพราน","subdistrict":"อ้อมใหญ่","industryType":"ทำรองเท้าแตะัฟองน้ำ กำลังการผลิต 25,000 คู่/ปี","status":"ดำเนินกิจการ","lat":13.6999166666667,"lon":100.26905},"10730000125377":{"id":"10730000125377","name":"บริษัท เทคซ์ปอร์ตไทย จำกัด","owner":"บริษัท เทคซ์ปอร์ตไทย จำกัด","displayRegistration":"3-22(1)-1/37นฐ","province":"นครปฐม","district":"สามพราน","subdistrict":"บางเตย","industryType":"กรอด้าย และย้อมด้าย","status":"ดำเนินกิจการ","lat":13.7749833333333,"lon":100.278566666667},"10730000125161":{"id":"10730000125161","name":"บริษัท โรงงานผลิตภัณฑ์อาหารไทย จำกัด","owner":"บริษัท โรงงานผลิตภัณฑ์อาหารไทย จำกัด","displayRegistration":"3-10(3)-1/16นฐ","province":"นครปฐม","district":"สามพราน","subdistrict":"อ้อมใหญ่","industryType":"ทำบะหมี่กึ่งสำเร็จรูป เส้นหมี่กึ่งสำเร็จรูป เกี๊ยวสำเร็จรูป โจ๊กกึ่งสำเร็จรูป อาหารกึ่งสำเร็จรูป วัตถุปรุงแต่งรสและเครื่องปรุงรส อาหารพร้อมปรุง และอาหารสำเร็จรูปที่พร้อมบริโภคทันที","status":"ดำเนินกิจการ","lat":13.70865,"lon":100.27275},"00730300125343":{"id":"00730300125343","name":"บริษัท แฮ็คส์ แสงอุดมคอนเพ็คชั่นเนรี จำกัด","owner":"บริษัท แฮ็คส์ แสงอุดมคอนเพ็คชั่นเนรี จำกัด","displayRegistration":"ศ3-12(10)-1/34นฐ","province":"นครปฐม","district":"สามพราน","subdistrict":"หอมเกร็ด","industryType":"ผลิตลูกอม","status":"ดำเนินกิจการ","lat":13.77526667,"lon":100.2320167},"00730200125344":{"id":"00730200125344","name":"บริษัท เทพรสรุ่งเรือง จำกัด","owner":"บริษัท เทพรสรุ่งเรือง จำกัด","displayRegistration":"ศ3-11(1)-1/34นฐ","province":"นครปฐม","district":"สามพราน","subdistrict":"ไร่ขิง","industryType":"ทำน้ำผลไม้และน้ำหวานเข้มข้น บดกาแฟและน้ำตาล บรรจุครีมเทียม เกลือป่นและน้ำตาลลงในภาชนะบรรจุ","status":"ดำเนินกิจการ","lat":13.7128166666667,"lon":100.275416666667},"10730000225235":{"id":"10730000225235","name":"บริษัท เทพผดุงพรมะพร้าว จำกัด","owner":"บริษัท เทพผดุงพรมะพร้าว จำกัด","displayRegistration":"3-8(1)-2/23นฐ","province":"นครปฐม","district":"สามพราน","subdistrict":"กระทุ่มล้ม","industryType":"กะทิผง กะทิน้ำ น้ำส้มสายชู หีบน้ำมันมะพร้าว เส้นใยมะพร้าว ผลไม้กระป๋อง และน้ำพริก","status":"ดำเนินกิจการ","lat":13.7237666666667,"lon":100.32985},"10730200225340":{"id":"10730200225340","name":"บริษัท เค เพ็ดดิ เวิร์คซ จำกัด","owner":"บริษัท เค เพ็ดดิ เวิร์คซ จำกัด","displayRegistration":"3-33-2/34นฐ","province":"นครปฐม","district":"สามพราน","subdistrict":"อ้อมใหญ่","industryType":"ผลิตรองเท้า","status":"ดำเนินกิจการ","lat":13.7018,"lon":100.2829},"10730000925347":{"id":"10730000925347","name":"NULL","owner":"นายจั๊บ แซ่เอี่ยม","displayRegistration":"3-60-9/34นฐ","province":"นครปฐม","district":"สามพราน","subdistrict":"ไร่ขิง","industryType":"หลอมหล่ออลูมิเนียมแท่งและแผ่น","status":"ดำเนินกิจการ","lat":13.7281,"lon":100.2915},"10730000225375":{"id":"10730000225375","name":"บริษัท สามพรานซินเธ็ททิคเท็กซ์ไทล์ จำกัด","owner":"บริษัท สามพรานซินเธ็ททิคเท็กซ์ไทล์ จำกัด","displayRegistration":"3-22(1)-2/37นฐ","province":"นครปฐม","district":"สามพราน","subdistrict":"อ้อมใหญ่","industryType":"ตีเกลียวเส้นด้าย ได้ปีละ 4,000 ตัน","status":"ดำเนินกิจการ","lat":13.6923,"lon":100.261633333333},"10730000325373":{"id":"10730000325373","name":"บริษัท นครหลวงถุงเท้าไนล่อน จำกัด","owner":"บริษัท นครหลวงถุงเท้าไนล่อน จำกัด","displayRegistration":"3-22(1)-3/37นฐ","province":"นครปฐม","district":"สามพราน","subdistrict":"อ้อมใหญ่","industryType":"กรอด้าย ทำเส้นด้ายยางยืดและถักผ้ายืด (จำนวนเครื่องถัก 20 เครื่อง) กำลังการผลิตเส้นด้ายยางยืดได้ปีละ 360 ต้น และผ้ายืดได้ปัละ 180 ตัน","status":"ดำเนินกิจการ","lat":13.7098333333333,"lon":100.26785},"20730000425361":{"id":"20730000425361","name":"บริษัท สามพรานแฟชั่นเฮ้าส์ จำกัด","owner":"บริษัท สามพรานแฟชั่นเฮ้าส์ จำกัด","displayRegistration":"จ3-28(1)-4/36นฐ","province":"นครปฐม","district":"สามพราน","subdistrict":"ท่าตลาด","industryType":"ตัดเย็บเสื้อผ้าสำเร็จรูป","status":"ดำเนินกิจการ","lat":13.7310166666667,"lon":100.249183333333},"20730400325351":{"id":"20730400325351","name":"บริษัท แหลมทองอุตสาหกรรมอาหาร จำกัด","owner":"บริษัท แหลมทองอุตสาหกรรมอาหาร จำกัด","displayRegistration":"จ3-68-3/35นฐ","province":"นครปฐม","district":"สามพราน","subdistrict":"อ้อมใหญ่","industryType":"ผลิตและประกอบเครื่องจักรอุสาตกรรมอาหาร","status":"ดำเนินกิจการ","lat":13.7076166666667,"lon":100.271833333333},"10730100125244":{"id":"10730100125244","name":"บริษัท ศิลปทอไทย จำกัด","owner":"บริษัท ศิลปทอไทย จำกัด","displayRegistration":"3-24-1/24นฐ","province":"นครปฐม","district":"สามพราน","subdistrict":"บางกระทึก","industryType":"ถักเสื้อไหมพรม (จำนวนเครื่องถักด้วยแรงคน 300 เครื่อง)","status":"ดำเนินกิจการ","lat":13.7633333333333,"lon":100.2856},"10730500125299":{"id":"10730500125299","name":"บริษัท ทองไทยการทอ จำกัด","owner":"บริษัท ทองไทยการทอ จำกัด","displayRegistration":"3-24-1/29นฐ","province":"นครปฐม","district":"สามพราน","subdistrict":"ยายชา","industryType":"ฟอกย้อมและถักผ้ายืด (จำนวนเครื่องถักผ้ายืด 22 เครื่อง)","status":"ดำเนินกิจการ","lat":13.7289166666667,"lon":100.2471},"10730100125145":{"id":"10730100125145","name":"ห้างหุ้นส่วนจำกัด ไทยอุตสาหกรรมไนล่อนพัฒนา","owner":"ห้างหุ้นส่วนจำกัด ไทยอุตสาหกรรมไนล่อนพัฒนา","displayRegistration":"3-26(1)-1/14นฐ","province":"นครปฐม","district":"สามพราน","subdistrict":"อ้อมใหญ่","industryType":"ผลิตด้าย เชือกพลาสติกและผลิตถุงพลาสติก","status":"ดำเนินกิจการ","lat":13.7118166666667,"lon":100.269266666667},"20731600125377":{"id":"20731600125377","name":"บริษัท รัตนโลหะภัณฑ์ จำกัด","owner":"บริษัท รัตนโลหะภัณฑ์ จำกัด","displayRegistration":"จ3-59-1/37นฐ","province":"นครปฐม","district":"สามพราน","subdistrict":"อ้อมใหญ่","industryType":"หล่อเหล็ก","status":"ดำเนินกิจการ","lat":13.715051,"lon":100.269584},"20731000125357":{"id":"20731000125357","name":"บริษัท เอสเอ็มซีสยาม คอร์ปอเรชั่น จำกัด","owner":"บริษัท เอสเอ็มซีสยาม คอร์ปอเรชั่น จำกัด","displayRegistration":"จ3-64(12)-1/35นฐ","province":"นครปฐม","district":"สามพราน","subdistrict":"อ้อมใหญ่","industryType":"ผลิตตู้สวิทซ์ไฟฟ้าและอุปกรณ์รางไฟฟ้า","status":"ดำเนินกิจการ","lat":13.7034666666667,"lon":100.283166666667},"20730200425377":{"id":"20730200425377","name":"โกลเด้น","owner":"นายสุพจน์ อรุณวุฒิวงศ์","displayRegistration":"จ3-53(1)-4/37นฐ","province":"นครปฐม","district":"สามพราน","subdistrict":"ไร่ขิง","industryType":"ผลิตพลาสติกเป็นของใช้ได้แก่ จาน ชาม","status":"ดำเนินกิจการ","lat":13.7230833333333,"lon":100.2723},"00730300125376":{"id":"00730300125376","name":"บริษัท เจริญสุขเภสัช ฮุ่นชิว จำกัด","owner":"บริษัท เจริญสุขเภสัช ฮุ่นชิว จำกัด","displayRegistration":"ศ3-20(2)-1/37นฐ","province":"นครปฐม","district":"สามพราน","subdistrict":"บางเตย","industryType":"ทำเครื่องดื่ม น้ำผลไม้และผลิตอาหารสำเร็จรูปจากถั่ว","status":"ดำเนินกิจการ","lat":13.7981333333333,"lon":100.281333333333},"00730100125378":{"id":"00730100125378","name":"บริษัท อุตสาหกรรมแป้งไทย จำกัด","owner":"บริษัท อุตสาหกรรมแป้งไทย จำกัด","displayRegistration":"ศ3-9(2)-1/37นฐ","province":"นครปฐม","district":"สามพราน","subdistrict":"บ้านใหม่","industryType":"ผลิตแป้งข้าวเจ้า แป้งข้าวเหนียวและแป้งอื่น ๆ","status":"ดำเนินกิจการ","lat":13.69745,"lon":100.245266666667},"20730600225377":{"id":"20730600225377","name":"บริษัท ดี.ดี.โพลียูเรเทน จำกัด","owner":"บริษัท ดี.ดี.โพลียูเรเทน จำกัด","displayRegistration":"จ3-45(1)-2/37นฐ","province":"นครปฐม","district":"สามพราน","subdistrict":"ไร่ขิง","industryType":"ทำสีน้ำมัน ยูรีเทน ทินเนอร์","status":"ดำเนินกิจการ","lat":13.7240833333333,"lon":100.295066666667},"10730600125306":{"id":"10730600125306","name":"NULL","owner":"บริษัท เสถียรอุตสาหกรรม จำกัด","displayRegistration":"3-53(1)-1/30นฐ","province":"นครปฐม","district":"สามพราน","subdistrict":"ไร่ขิง","industryType":"ทำเครื่องใช้พลาสติก เช่น ตะกร้อพลาสติก","status":"ดำเนินกิจการ","lat":13.7184,"lon":100.270483333333},"10730000225300":{"id":"10730000225300","name":"บริษัท ยู บี เอฟ จำกัด","owner":"บริษัท ยู บี เอฟ จำกัด","displayRegistration":"3-53(1)-2/30นฐ","province":"นครปฐม","district":"สามพราน","subdistrict":"กระทุ่มล้ม","industryType":"ทำเครื่องใช้พลาสติก เช่น ด้ามเตารีดเบกเกอร์ไลท์","status":"ดำเนินกิจการ","lat":13.7258833333333,"lon":100.334783333333},"20730900225374":{"id":"20730900225374","name":"ห้างหุ้นส่วนจำกัด อุดมสุขการหล่อ","owner":"ห้างหุ้นส่วนจำกัด อุดมสุขการหล่อ","displayRegistration":"จ3-59-2/37นฐ","province":"นครปฐม","district":"สามพราน","subdistrict":"ไร่ขิง","industryType":"หล่อหลอมโลหะ เช่น ประตูน้ำ ปั๊มน้ำ มู่เล่","status":"ดำเนินกิจการ","lat":13.7507166666667,"lon":100.298783333333},"20732500125384":{"id":"20732500125384","name":"บริษัท โรโบโต้ (ประเทศไทย) จำกัด","owner":"บริษัท โรโบโต้ (ประเทศไทย) จำกัด","displayRegistration":"จ3-69-1/38นฐ","province":"นครปฐม","district":"สามพราน","subdistrict":"ทรงคนอง","industryType":"ทำตาชั่ง และอุปกรณ์เครื่องจักรทั่วไป","status":"ดำเนินกิจการ","lat":13.78345,"lon":100.26935},"20731200125389":{"id":"20731200125389","name":"NULL","owner":"นายสุธี เจษฎาเชษฐ์","displayRegistration":"จ3-53(1)-1/38นฐ","province":"นครปฐม","district":"สามพราน","subdistrict":"ทรงคนอง","industryType":"ทำผลิตภัณฑ์พลาสติก เครื่องมือ เครื่องใช้ เช่น กล่องพลาสติก ด้ามช้อน ส้อม ฯลฯ","status":"ดำเนินกิจการ","lat":13.7834833333333,"lon":100.26935},"20731600125385":{"id":"20731600125385","name":"ห้างหุ้นส่วนจำกัด ชาญศิลป์แมทเทรส","owner":"ห้างหุ้นส่วนจำกัด ชาญศิลป์แมทเทรส","displayRegistration":"จ3-62-1/38นฐ","province":"นครปฐม","district":"สามพราน","subdistrict":"อ้อมใหญ่","industryType":"ผลิตเฟอร์นิเจอร์เหล็ก เช่น ราวตากผ้า ชั้นวางของ เก้าอี้","status":"ดำเนินกิจการ","lat":13.7010833333333,"lon":100.279666666667},"10730000125385":{"id":"10730000125385","name":"บริษัท เดนิม สปินนิ่ง จำกัด","owner":"บริษัท เดนิม สปินนิ่ง จำกัด","displayRegistration":"3-22(1)-1/38นฐ","province":"นครปฐม","district":"สามพราน","subdistrict":"ไร่ขิง","industryType":"ปั่นด้าย (จำนวนแกนปั่นด้าย 4,000 แกน)","status":"ดำเนินกิจการ","lat":13.7260333333333,"lon":100.269833333333},"20731100125356":{"id":"20731100125356","name":"ไทยสมบูรณ์","owner":"นายประทิน ตั๊งสมบูรณ์","displayRegistration":"จ3-67(1)-1/35นฐ","province":"นครปฐม","district":"สามพราน","subdistrict":"อ้อมใหญ่","industryType":"ซ่อมเครื่องจักรโรงงาน เช่น เครื่องไสไม้","status":"ดำเนินกิจการ","lat":13.7010333333333,"lon":100.255983333333},"20730300325386":{"id":"20730300325386","name":"บริษัท พี.เจ.บี.เอ็นเตอร์ไพรส์ จำกัด","owner":"บริษัท พี.เจ.บี.เอ็นเตอร์ไพรส์ จำกัด","displayRegistration":"จ3-95(1)-3/38นฐ","province":"นครปฐม","district":"สามพราน","subdistrict":"ไร่ขิง","industryType":"ซ่อมและผลิตชิ้นส่วนของรถยนต์ เช่น แผ่นคลัช","status":"ดำเนินกิจการ","lat":13.7424833333333,"lon":100.273316666667},"20730200325353":{"id":"20730200325353","name":"บริษัท สุวรรณซัพพลาย ศิลปอมตะ อัลลอย สลักลาย จำกัด","owner":"บริษัท สุวรรณซัพพลาย ศิลปอมตะ อัลลอย สลักลาย จำกัด","displayRegistration":"จ3-63(2)-3/35นฐ","province":"นครปฐม","district":"สามพราน","subdistrict":"ไร่ขิง","industryType":"ผลิตประตู หน้าต่าง เฟอร์นิเจอร์จากโลหะ","status":"ดำเนินกิจการ","lat":13.7411333333333,"lon":100.3014},"20730100225364":{"id":"20730100225364","name":"บริษัท แกมม่า โมเดิร์น เทรดดิ้ง จำกัด","owner":"บริษัท แกมม่า โมเดิร์น เทรดดิ้ง จำกัด","displayRegistration":"จ3-22(2)-2/36นฐ","province":"นครปฐม","district":"สามพราน","subdistrict":"ไร่ขิง","industryType":"ทอผ้ายืด","status":"ดำเนินกิจการ","lat":13.7234333333333,"lon":100.264116666667},"10730700125222":{"id":"10730700125222","name":"บริษัท วีก้า ทูพลัส จำกัด","owner":"บริษัท วีก้า ทูพลัส จำกัด","displayRegistration":"3-78(2)-1/22นฐ","province":"นครปฐม","district":"สามพราน","subdistrict":"อ้อมใหญ่","industryType":"ผลิตชิ้นส่วนรถจักรยานยนต์ และทำชิ้นส่วนอุปกรณ์การไฟฟ้า","status":"ดำเนินกิจการ","lat":13.7044,"lon":100.2762},"10730500125224":{"id":"10730500125224","name":"บริษัท หลุยส์ พลาสติก ซัพพลาย จำกัด","owner":"บริษัท หลุยส์พลาสติก ซัพพลาย จำกัด","displayRegistration":"3-53(4)-1/22นฐ","province":"นครปฐม","district":"สามพราน","subdistrict":"ไร่ขิง","industryType":"ผลิตภาชนะพลาสติกใช้บรรจุเครื่องสำอาง เช่น ตลับพลาสติก ขวดพลาสติก ขยายโดยเพิ่มเครื่องจักรขึ้นอีก 24.86 แรงม้า","status":"ดำเนินกิจการ","lat":13.7181333333333,"lon":100.269816666667},"10730300125242":{"id":"10730300125242","name":"บริษัท ทักษิณ เฟ็ธเธอ เวอคส์ จำกัด","owner":"บริษัท ทักษิณ เฟ็ธเธอ เวอรคส์ จำกัด","displayRegistration":"3-30-1/24นฐ","province":"นครปฐม","district":"สามพราน","subdistrict":"ท่าข้าม","industryType":"คัด แต่งขนสัตว์ปีก","status":"ดำเนินกิจการ","lat":13.7074666666667,"lon":100.2517},"10730100125152":{"id":"10730100125152","name":"บริษัท แค็ปปิตอล ทรีคอท จำกัด","owner":"บริษัท แค็ปปิตอล ทรีคอท จำกัด","displayRegistration":"3-24-1/15นฐ","province":"นครปฐม","district":"สามพราน","subdistrict":"อ้อมใหญ่","industryType":"ถักผ้าและย้อมผ้า (โดยมีเครื่องถักผ้า 200 เครื่อง)","status":"ดำเนินกิจการ","lat":13.710754,"lon":100.269776},"10730000425132":{"id":"10730000425132","name":"บริษัท นครหลวงถุงเท้าไนล่อน จำกัด","owner":"บริษัท นครหลวงถุงเท้าไนล่อน จำกัด","displayRegistration":"3-22(2)-4/13นฐ","province":"นครปฐม","district":"สามพราน","subdistrict":"อ้อมใหญ่","industryType":"ถักผ้ายืดไนล่อน (จำนวนเครื่องถัก 65 เครื่อง) กรอด้าย ฟอก ย้อม และตัดเย็บเสื้อผ้าสำเร้จรูป (จำนวนจักรเย็บผ้า 156 เครื่อง)","status":"ดำเนินกิจการ","lat":13.7097833333333,"lon":100.267766666667},"10730500225206":{"id":"10730500225206","name":"บริษัท ศิลป์มิตรพิมพ์ย้อม จำกัด","owner":"บริษัท ศิลป์มิตรพิมพ์ย้อม จำกัด","displayRegistration":"3-22(4)-2/20นฐ","province":"นครปฐม","district":"สามพราน","subdistrict":"ไร่ขิง","industryType":"พิมพ์ผ้าและฟอกย้อม","status":"ดำเนินกิจการ","lat":13.74195,"lon":100.268266666667},"10731000125300":{"id":"10731000125300","name":"NULL","owner":"นายอนันต์ หงษ์มณี","displayRegistration":"3-60-1/30นฐ","province":"นครปฐม","district":"สามพราน","subdistrict":"ไร่ขิง","industryType":"หลอมหล่อ และขัดพระพุทธรูป","status":"ดำเนินกิจการ","lat":13.7234666666667,"lon":100.277883333333},"10730000325308":{"id":"10730000325308","name":"บริษัท เส้นหมี่เหรียญไทย จำกัด","owner":"บริษัท เส้นหมี่เหรียญไทย จำกัด","displayRegistration":"3-10(3)-3/30นฐ","province":"นครปฐม","district":"สามพราน","subdistrict":"อ้อมใหญ่","industryType":"ทำเส้นหมี แป้งข้าวจ้าว และแป้งข้าวเหนียว","status":"ดำเนินกิจการ","lat":13.69445,"lon":100.26785},"10730400125332":{"id":"10730400125332","name":"บริษัท รวมชัยการฟอกย้อม จำกัด","owner":"บริษัท รวมชัยการฟอกย้อม จำกัด","displayRegistration":"3-22(3)-1/33นฐ","province":"นครปฐม","district":"สามพราน","subdistrict":"ท่าข้าม","industryType":"ฟอกย้อมผ้าและถักผ้ายืด ปริมาณการผลิตผ้าย้อมสี 3600 ตัน/ปี ผ้ายืด 540 ตัน/ปี","status":"ดำเนินกิจการ","lat":13.7150166666667,"lon":100.25085},"10730200225316":{"id":"10730200225316","name":"บริษัท ทีพีบีไอ จำกัด (มหาชน)","owner":"บริษัท ทีพีบีไอ จำกัด (มหาชน)","displayRegistration":"3-53(4)-2/31นฐ","province":"นครปฐม","district":"สามพราน","subdistrict":"ไร่ขิง","industryType":"ผลิตถุงพลาสติกชนิดถุงหูหิ้วใส่ของ,ทำแผ่นพลาสติก และทำภาชนะจากพลาสติก เช่น กะละมัง ขันน้ำ","status":"ดำเนินกิจการ","lat":13.71845,"lon":100.271583333333},"20732800125381":{"id":"20732800125381","name":"ร้านสิทธิพร","owner":"นายพรทัศน์ สันติไพศาล","displayRegistration":"จ3-80-1/38นฐ","province":"นครปฐม","district":"สามพราน","subdistrict":"อ้อมใหญ่","industryType":"ผลิตรถเข็นปูน,รถเข็นของ","status":"ดำเนินกิจการ","lat":13.7065166666667,"lon":100.28425},"20730100225372":{"id":"20730100225372","name":"บริษัท เอส.ที.ยูเนี่ยน ฟู้ด จำกัด","owner":"บริษัท เอส.ที.ยูเนี่ยน ฟู้ด จำกัด","displayRegistration":"จ3-20(1)-2/37นฐ","province":"นครปฐม","district":"สามพราน","subdistrict":"ไร่ขิง","industryType":"ผลิตน้ำดื่ม","status":"ดำเนินกิจการ","lat":13.7493166666667,"lon":100.2934},"10730500125265":{"id":"10730500125265","name":"บริษัท ทังส์แลมอุตสาหกรรม จำกัด","owner":"บริษัท ทังส์แลมอุตสาหกรรม จำกัด","displayRegistration":"3-74(1)-1/26นฐ","province":"นครปฐม","district":"สามพราน","subdistrict":"กระทุ่มล้ม","industryType":"ผลิตหลอดไฟฟ้าสำหรับยยานพาหนะ","status":"ดำเนินกิจการ","lat":13.7214833333333,"lon":100.327333333333},"10730000225250":{"id":"10730000225250","name":"บริษัท ไทยอินเตอร์เนชั่นแนลไรซ์ฟลาว จำกัด","owner":"บริษัท ไทยอินเตอร์เนชั่นแนลไรซ์ฟลาว จำกัด","displayRegistration":"3-9(2)-2/25นฐ","province":"นครปฐม","district":"สามพราน","subdistrict":"อ้อมใหญ่","industryType":"ผลิตแป้งข้าวจ้าวและแป้งข้าวเหนียว","status":"ดำเนินกิจการ","lat":13.6933666666667,"lon":100.26615},"00730000125296":{"id":"00730000125296","name":"บริษัท ทานตะวันอุตสาหกรรม จำกัด (มหาชน)","owner":"บริษัท ทานตะวันอุตสาหกรรม จำกัด (มหาชน)","displayRegistration":"ส3-53(5)-1/29นฐ","province":"นครปฐม","district":"สามพราน","subdistrict":"อ้อมใหญ่","industryType":"ผลิตหลอดดูดทำด้วยพลาสติก","status":"ดำเนินกิจการ","lat":13.7034166666667,"lon":100.276783333333},"10730500125240":{"id":"10730500125240","name":"บริษัท ทรงสวัสดิ์ (1988) จำกัด","owner":"บริษัท ทรงสวัสดิ์ (1982) จำกัด","displayRegistration":"3-53(4)-1/24นฐ","province":"นครปฐม","district":"สามพราน","subdistrict":"ไร่ขิง","industryType":"ทำถุงพลาสติก และเชือกพลาสติก","status":"ดำเนินกิจการ","lat":13.7142166666667,"lon":100.2692},"10730400125266":{"id":"10730400125266","name":"บริษัท เอ็ม.พี.ไวร์แวร์ จำกัด","owner":"บริษัท เอ็ม.พี.ไวร์แวร์ จำกัด","displayRegistration":"3-64(2)-1/26นฐ","province":"นครปฐม","district":"สามพราน","subdistrict":"อ้อมใหญ่","industryType":"ทำผลิตภัณฑ์จากโลหะ เช่น ช้อน ส้อม ตะหลิว และตะแกรงต่าง ๆ","status":"ดำเนินกิจการ","lat":13.7067666666667,"lon":100.279833333333},"10730300125226":{"id":"10730300125226","name":"ห้างหุ้นส่วนจำกัด เอเซียกสิกรเคมี","owner":"ห้างหุ้นส่วนจำกัด เอเซียกสิกรเคมี","displayRegistration":"3-43(1)-1/22นฐ","province":"นครปฐม","district":"สามพราน","subdistrict":"คลองใหม่","industryType":"ผลิตปุ๋ยเคมี","status":"ดำเนินกิจการ","lat":13.7494833333333,"lon":100.202383333333},"10730000925339":{"id":"10730000925339","name":"บริษัท ไทยเอ้กเซลแคนแวส จำกัด","owner":"บริษัท ไทยเอ้กเซลแคนแวส จำกัด","displayRegistration":"3-22(2)-9/33นฐ","province":"นครปฐม","district":"สามพราน","subdistrict":"ไร่ขิง","industryType":"ทอผ้าจากด้ายย้อมสี (จำนวนเครื่องทอ 128 เครื่อง)","status":"ดำเนินกิจการ","lat":13.7181,"lon":100.296416666667},"10730300225315":{"id":"10730300225315","name":"บริษัท คาสเดย์ (ประเทศไทย) คอร์โปเรชั่น จำกัด","owner":"บริษัท คาสเดย์ (ประเทศไทย) คอร์โปเรชั่น จำกัด","displayRegistration":"3-55-2/31นฐ","province":"นครปฐม","district":"สามพราน","subdistrict":"หอมเกร็ด","industryType":"ทำผลิตภัณฑ์เซรามิค เช่น รูปปั้นและเครื่องปั้นดินเผาทุกชนิด","status":"ดำเนินกิจการ","lat":13.7664333333333,"lon":100.225133333333},"10730000225177":{"id":"10730000225177","name":"นายวาทิต วงศ์สุรไกร","owner":"นายวาทิต วงศ์สุรไกร","displayRegistration":"3-24-2/17นฐ","province":"นครปฐม","district":"สามพราน","subdistrict":"ยายชา","industryType":"ผลิตเส้นใยเทียม ตัดเย็บเสื้อผ้าสำเร็จรูป ถักผ้ายืด และฟอกย้อม","status":"ดำเนินกิจการ","lat":13.7273333333333,"lon":100.2464},"10730000625152":{"id":"10730000625152","name":"ห้างหุ้นส่วนจำกัด ฟุดกี่การทอ","owner":"ห้างหุ้นส่วนจำกัด ฟุดกี่การทอ","displayRegistration":"3-22(2)-6/15นฐ","province":"นครปฐม","district":"สามพราน","subdistrict":"อ้อมใหญ่","industryType":"ทอผ้าทุกชนิด และฟอกย้อม (จำนวนเครื่องทอผ้า 249 เครื่อง)","status":"ดำเนินกิจการ","lat":13.7094166666667,"lon":100.27845},"10730500125323":{"id":"10730500125323","name":"บริษัท แอล.วี.ดับบลิว.กรุ๊ป จำกัด","owner":"บริษัท ลีวิวัฒน์อุตสาหกรรมสิ่งทอ จำกัด","displayRegistration":"3-24-1/32นฐ","province":"นครปฐม","district":"สามพราน","subdistrict":"คลองใหม่","industryType":"ถักผ้ายืด (จำนวนเครื่องถัก 137 เครื่อง)","status":"ดำเนินกิจการ","lat":13.7451333333333,"lon":100.19855},"10730300125200":{"id":"10730300125200","name":"บริษัท จิบฮั่วเชียงจั่น จำกัด","owner":"บริษัท จิบฮั่วเชียงจั่น จำกัด","displayRegistration":"3-22(3)-1/20นฐ","province":"นครปฐม","district":"สามพราน","subdistrict":"บางกระทึก","industryType":"ย้อมผ้า ซัก อบผ้า","status":"ดำเนินกิจการ","lat":13.7618666666667,"lon":100.285183333333},"10730300125283":{"id":"10730300125283","name":"บริษัท ตะวันการฟอก จำกัด","owner":"บริษัท ตะวันการฟอก จำกัด","displayRegistration":"3-22(3)-1/28นฐ","province":"นครปฐม","district":"สามพราน","subdistrict":"ไร่ขิง","industryType":"ฟอกย้อมผ้า","status":"ดำเนินกิจการ","lat":13.7136,"lon":100.271366666667},"10730100125277":{"id":"10730100125277","name":"บริษัท สยามโภคภัณฑ์ จำกัด","owner":"บริษัท สยามโภคภัณฑ์ จำกัด","displayRegistration":"3-10(1)-1/27นฐ","province":"นครปฐม","district":"สามพราน","subdistrict":"ไร่ขิง","industryType":"ผลิตขนมเวเฟอร์ ขนมปังกรอบ คุ๊กกี้ ข้าวเกรียบและช็อกโกเลต","status":"ดำเนินกิจการ","lat":13.7136666666667,"lon":100.275933333333},"10730400125233":{"id":"10730400125233","name":"บริษัท ไทยแมกซ์เวลอิเล็คทริค จำกัด","owner":"บริษัท ไทยแมกซ์เวลอิเล็คทริค จำกัด","displayRegistration":"3-71-1/23นฐ","province":"นครปฐม","district":"สามพราน","subdistrict":"บ้านใหม่","industryType":"ผลิตหม้อแปลงไฟฟ้า","status":"ดำเนินกิจการ","lat":13.7042166666667,"lon":100.2476},"10730500225313":{"id":"10730500225313","name":"บริษัท อามาด้า เอ็กซ์ตรีม จำกัด","owner":"บริษัท อามาด้า เอ็กซ์ตรีม จำกัด","displayRegistration":"3-77(2)-2/31นฐ","province":"นครปฐม","district":"สามพราน","subdistrict":"ยายชา","industryType":"ผลิตโช๊คอัพรถยนต์ และชิ้นส่วนอะไหล่รถยนต์","status":"ดำเนินกิจการ","lat":13.7241,"lon":100.253833333333},"10730700125255":{"id":"10730700125255","name":"บริษัท วงศ์ชัย จำกัด","owner":"บริษัท วงศ์ชัย จำกัด","displayRegistration":"3-58(1)-1/25นฐ","province":"นครปฐม","district":"สามพราน","subdistrict":"คลองใหม่","industryType":"ทำคอนกรีตอัดแรง","status":"ดำเนินกิจการ","lat":13.755733,"lon":100.195833},"10730000125310":{"id":"10730000125310","name":"บริษัท บางกอกอินเตอร์ฟูด จำกัด","owner":"บริษัท บางกอกอินเตอร์ฟูด จำกัด","displayRegistration":"3-9(2)-1/31นฐ","province":"นครปฐม","district":"สามพราน","subdistrict":"บ้านใหม่","industryType":"ผลิตแป้งข้าวจ้าว แป้งข้าวเหนียว ผลิตภัณฑ์ผสมอื่น ๆ ที่ใช้ประกอบหรือปรุงแต่งอาหารและน้ำตาลผสมทุกชนิด ขยายทำผลิตภัณฑ์อาหารสำเร็จรูป เช่น เกี๊ยวซ่า ไส้ขนมปังราดซอสมะเขือเทศ แฮมเบอร์ราดซอส หมูสันนอกคลุกเกล็ดขนมปัง ไส้ขนมปังรสเกี๊ยวซ่าไก่ และอื่น ๆ ชาผงปรุงสำเร็จรูป","status":"ดำเนินกิจการ","lat":13.6974666666667,"lon":100.2453},"00730100125345":{"id":"00730100125345","name":"บริษัท ซันยางอุตสาหกรรมอาหาร จำกัด","owner":"บริษัท ซันยางอุตสาหกรรมอาหาร จำกัด","displayRegistration":"ศ3-10(3)-1/34นฐ","province":"นครปฐม","district":"สามพราน","subdistrict":"ยายชา","industryType":"ผลิตอาหารจากแป้ง เช่น ข้าวเกรียบ","status":"ดำเนินกิจการ","lat":13.7223666666667,"lon":100.247016666667},"10730100525336":{"id":"10730100525336","name":"บริษัท ไทยเฟรม แอนด์ แอคเซ็สโซรี จำกัด","owner":"บริษัท ไทยเฟรม แอนด์ แอคเซ็สโซรี จำกัด","displayRegistration":"3-64(2)-5/33นฐ","province":"นครปฐม","district":"สามพราน","subdistrict":"ท่าข้าม","industryType":"ทำขอบกระเป๋าถือสตรี ทำหัวเข็มขัดและอะไหล่ตัวกระเป๋า","status":"ดำเนินกิจการ","lat":13.71035,"lon":100.237316666667},"10731600125320":{"id":"10731600125320","name":"บริษัท ถาวรวัฒน์การฟอก จำกัด","owner":"บริษัท ถาวรวัฒน์การฟอก จำกัด","displayRegistration":"3-98-1/32นฐ","province":"นครปฐม","district":"สามพราน","subdistrict":"อ้อมใหญ่","industryType":"ฟอกผ้าและเสื้อผ้าสำเร็จรูป","status":"ดำเนินกิจการ","lat":13.7115666666667,"lon":100.269316666667},"10730000325324":{"id":"10730000325324","name":"บริษัท ไทยวิลลี่นิตติ้ง (1984) จำกัด","owner":"บริษัท ไทยวิลลี่นิตติ้ง (1984) จำกัด","displayRegistration":"3-24-3/32นฐ","province":"นครปฐม","district":"สามพราน","subdistrict":"อ้อมใหญ่","industryType":"ถักผ้ายืด (จำนวนเครื่องถัก 38 เครื่อง)","status":"ดำเนินกิจการ","lat":13.7034,"lon":100.278283333333},"10730200325322":{"id":"10730200325322","name":"บริษัท ประดิษฐ์พัฒนาการหล่อ จำกัด","owner":"บริษัท ประดิษฐ์พัฒนาการหล่อ จำกัด","displayRegistration":"3-60-3/32นฐ","province":"นครปฐม","district":"สามพราน","subdistrict":"ไร่ขิง","industryType":"หลอมหล่อโลหะ","status":"ดำเนินกิจการ","lat":13.7263833333333,"lon":100.294433333333},"10730300125234":{"id":"10730300125234","name":"บริษัท สามพรานภรณ์เปเปอร์ จำกัด","owner":"บริษัท สามพรานภรณ์เปเปอร์ จำกัด","displayRegistration":"3-38(2)-1/23นฐ","province":"นครปฐม","district":"สามพราน","subdistrict":"ท่าตลาด","industryType":"ผลิตกระดาษจากเศษกระดาษ","status":"ดำเนินกิจการ","lat":13.7523833333333,"lon":100.230266666667},"10730000125286":{"id":"10730000125286","name":"บริษัท บีทาเก้น จำกัด","owner":"บริษัท บีทาเก้น จำกัด","displayRegistration":"3-8(1)-1/28นฐ","province":"นครปฐม","district":"สามพราน","subdistrict":"ท่าข้าม","industryType":"ทำน้ำส้มบรรจุขวด เต้าหู้บรรจุกล่อง คัสตาร์ด เต้าฮวย อาหารนมเปรี้ยวและนมพาสเจอร์ไรซ์","status":"ดำเนินกิจการ","lat":13.7114166666667,"lon":100.233066666667},"10730100225325":{"id":"10730100225325","name":"บริษัท จินตนา อินเตอร์เทรด จำกัด","owner":"บริษัท จินตนา อินเตอร์เทรด จำกัด","displayRegistration":"3-28(1)-2/32นฐ","province":"นครปฐม","district":"สามพราน","subdistrict":"ไร่ขิง","industryType":"ตัดเย็บชุดชั้นในสตรี เสื้อผ้าสำเร็จรูป ทอผ้าแถบ ถักผ้ายืด ยางอีลาสติก ปักลวดลายผ้า และย้อมยางยืด (จำนวนจักรเย็บผ้า 592 เครื่อง เครื่องถักผ้ายืด 2 เครื่อง)","status":"ดำเนินกิจการ","lat":13.7416833333333,"lon":100.298233333333},"10730600125322":{"id":"10730600125322","name":"บริษัท สหปุ๋ยสยาม จำกัด","owner":"บริษัท สหปุ๋ยสยาม จำกัด","displayRegistration":"3-43(1)-1/32นฐ","province":"นครปฐม","district":"สามพราน","subdistrict":"ท่าตลาด","industryType":"ผสมปุ๋ยอินทรีย์และปุ๋ยอินทรีย์เคมี","status":"ดำเนินกิจการ","lat":13.7527333333333,"lon":100.234016666667},"10730200125326":{"id":"10730200125326","name":"บริษัท ไทยกลูโคส จำกัด","owner":"บริษัท ไทยกลูโคส จำกัด","displayRegistration":"3-11(6)-1/32นฐ","province":"นครปฐม","district":"สามพราน","subdistrict":"บ้านใหม่","industryType":"ผลิตกลูโคสผง กลูโคสไซรัป และฟรักโทสไซรัป 42%","status":"ดำเนินกิจการ","lat":13.7034333333333,"lon":100.247033333333},"10730000125237":{"id":"10730000125237","name":"บริษัท นครหลวงกลูโคส จำกัด","owner":"บริษัท นครหลวงกลูโคส จำกัด","displayRegistration":"3-11(6)-1/23นฐ","province":"นครปฐม","district":"สามพราน","subdistrict":"บ้านใหม่","industryType":"ผลิตแบะแซและกลูโคส","status":"ดำเนินกิจการ","lat":13.7034166666667,"lon":100.247016666667},"10730000125229":{"id":"10730000125229","name":"บริษัท กรุงเทพสตาซอินดัสเทรี่ยล จำกัด","owner":"บริษัท กรุงเทพสตาซอินดัสเทรียล จำกัด","displayRegistration":"3-15(1)-1/22นฐ","province":"นครปฐม","district":"สามพราน","subdistrict":"ไร่ขิง","industryType":"ผลิตอาหารสัตว์น้ำด้วยแป้งมันสำปะหลัง และผลิตแป้งจากข้าว, ผลิตผงกาวหรือแป้งกาว ผลิตแป้งดัดแปร หรือแป้งโมดิฟายด์ (Modified Starch)","status":"ดำเนินกิจการ","lat":13.7123666666667,"lon":100.275516666667},"10730600125314":{"id":"10730600125314","name":"บริษัท นครทองทอปปิคอลวูด จำกัด","owner":"บริษัท นครทองทอปปิคอลวูด จำกัด","displayRegistration":"3-37-1/31นฐ","province":"นครปฐม","district":"สามพราน","subdistrict":"ท่าตลาด","industryType":"ทำเครื่องเรือนจากไม้","status":"ดำเนินกิจการ","lat":13.7464833333333,"lon":100.224016666667},"10730300125176":{"id":"10730300125176","name":"บริษัท แสงโสม จำกัด","owner":"บริษัท แสงโสม จำกัด","displayRegistration":"3-16-1/17นฐ","province":"นครปฐม","district":"สามพราน","subdistrict":"หอมเกร็ด","industryType":"ผลิตสุราวิสกี้ บรั่นดี (ตามที่ได้รับอนุญาตจากกรมสรรพสามิต)","status":"ดำเนินกิจการ","lat":13.7740833333333,"lon":100.236283333333},"10730200125235":{"id":"10730200125235","name":"บริษัท ไทยเอ้กเซลแคนแวส จำกัด","owner":"บริษัท ไทยเอ้กเซลแคนแวส จำกัด","displayRegistration":"3-23(3)-1/23นฐ","province":"นครปฐม","district":"สามพราน","subdistrict":"ไร่ขิง","industryType":"เคลือบผ้าใบทุกชนิดด้วย พี.วี.ซี.พลาสติก และเคมีภัณฑ์ และทำเครื่องสนามต่าง ๆ การฟอกย้อมสี ตกแต่งสำเร็จผ้าและด้าย","status":"ดำเนินกิจการ","lat":13.7181166666667,"lon":100.296416666667},"10730100125285":{"id":"10730100125285","name":"บริษัท ไทยวัฒนาไรซ์โพรดัคท์ จำกัด","owner":"บริษัท ไทยวัฒนาไรซ์โพรดัคท์ จำกัด","displayRegistration":"3-10(3)-1/28นฐ","province":"นครปฐม","district":"สามพราน","subdistrict":"ยายชา","industryType":"ทำเส้นก๋วยเตี๋ยวแห้ง","status":"ดำเนินกิจการ","lat":13.72775,"lon":100.249466666667},"10730200125177":{"id":"10730200125177","name":"บริษัท แหลมทองอุตสาหกรรมอาหาร จำกัด","owner":"บริษัท แหลมทองอุตสาหกรรมอาหาร จำกัด","displayRegistration":"3-12(10)-1/17นฐ","province":"นครปฐม","district":"สามพราน","subdistrict":"อ้อมใหญ่","industryType":"ทำเวเฟอร์ ชอคโกแลต ลูกกวาด ท๊อฟฟี่ หมากฝรั่ง ข้าวเกรียบกุ","status":"ดำเนินกิจการ","lat":13.7076333333333,"lon":100.27185},"10730100125236":{"id":"10730100125236","name":"บริษัท โรงงานลูกกวาดเม่งเซ้ง จำกัด","owner":"บริษัท โรงงานลูกกวาดเม่งเซ้ง จำกัด","displayRegistration":"3-12(10)-1/23นฐ","province":"นครปฐม","district":"สามพราน","subdistrict":"บ้านใหม่","industryType":"ทำลูกกวาด ขนมหวานและหมากฝรั่ง","status":"ดำเนินกิจการ","lat":13.7035666666667,"lon":100.24705},"10730000525329":{"id":"10730000525329","name":"บริษัท เอส.พี.เพ็ทแพค จำกัด","owner":"บริษัท เอส.พี.เพ็ทแพค จำกัด","displayRegistration":"3-53(4)-5/32นฐ","province":"นครปฐม","district":"สามพราน","subdistrict":"ไร่ขิง","industryType":"ทำขวดพลาสติกและภาชนะเครื่องใช้พลาสติก","status":"ดำเนินกิจการ","lat":13.74023,"lon":100.30009},"10730200125334":{"id":"10730200125334","name":"บริษัท นันยางเท็กซ์ไทล์ จำกัด","owner":"บริษัท นันยางเท็กซ์ไทล์ จำกัด","displayRegistration":"3-22(1)-1/33นฐ","province":"นครปฐม","district":"สามพราน","subdistrict":"ไร่ขิง","industryType":"ปั่นด้าย จำนวนแกนปั่นด้าย 30000 แกน","status":"ดำเนินกิจการ","lat":13.7371,"lon":100.2997},"10730001125335":{"id":"10730001125335","name":"บริษัท แกรนด์ เลเบิล จำกัด","owner":"บริษัท แกรนด์ เลเบิล จำกัด","displayRegistration":"3-22(2)-11/33นฐ","province":"นครปฐม","district":"สามพราน","subdistrict":"บ้านใหม่","industryType":"ทอผ้าแถบตรา เครื่องหมาย และปักเครื่องหมาย","status":"ดำเนินกิจการ","lat":13.6996833333333,"lon":100.24355},"10730200125185":{"id":"10730200125185","name":"โรงน้ำแข็ง เพชรสามพราน","owner":"นางสาวพวงเพชร ชัยวิชยานันท์","displayRegistration":"3-14-1/18นฐ","province":"นครปฐม","district":"สามพราน","subdistrict":"บางช้าง","industryType":"ทำน้ำแข็งซอง","status":"ดำเนินกิจการ","lat":13.7174166666667,"lon":100.205616666667},"10730000425157":{"id":"10730000425157","name":"เต็กฮะเฮง","owner":"นายพงศศักดิ์ โอวัฒนะสิน","displayRegistration":"3-22(3)-4/15นฐ","province":"นครปฐม","district":"สามพราน","subdistrict":"ท่าตลาด","industryType":"ฟอกและย้อมผ้า","status":"ดำเนินกิจการ","lat":13.7510833333333,"lon":100.2452},"10730400225330":{"id":"10730400225330","name":"บริษัท ท็อปเปอร์อินดัสเตรียล จำกัด","owner":"บริษัท ท็อปเปอร์อินดัสเตรียล จำกัด","displayRegistration":"3-53(5)-2/33นฐ","province":"นครปฐม","district":"สามพราน","subdistrict":"อ้อมใหญ่","industryType":"ผลิตภัณฑ์เคลือบพลาสติก เช่น ตะกร้า","status":"ดำเนินกิจการ","lat":13.7029833333333,"lon":100.285416666667},"00730000125320":{"id":"00730000125320","name":"บริษัท วรโชติ ฟู้ดส์ จำกัด","owner":"บริษัท วรโชติ ฟู้ดส์ จำกัด","displayRegistration":"ศ3-10(3)-1/32นฐ","province":"นครปฐม","district":"สามพราน","subdistrict":"บ้านใหม่","industryType":"ทำอาหารจากแป้ง เช่น ข้างเกรียบ","status":"ดำเนินกิจการ","lat":13.6937833333333,"lon":100.246183333333},"10730500125349":{"id":"10730500125349","name":"บริษัท มาสเท็กซ์ จำกัด","owner":"บริษัท มาสเท็กซ์ จำกัด","displayRegistration":"3-23(4)-1/34นฐ","province":"นครปฐม","district":"นครชัยศรี","subdistrict":"ขุนแก้ว","industryType":"ปักแถบผ้าเครื่องหมาย ปักผ้าลูกไม้ฉลุ และปักแถบผ้าลูกไม้ฉลุต่าง ๆ","status":"ดำเนินกิจการ","lat":13.7762966773442,"lon":100.220431221865},"10730600225338":{"id":"10730600225338","name":"บริษัท ไฮเทคไทยคอนกรีต จำกัด","owner":"บริษัท ไฮเทคไทยคอนกรีต จำกัด","displayRegistration":"3-58(1)-2/33นฐ","province":"นครปฐม","district":"สามพราน","subdistrict":"ตลาดจินดา","industryType":"ทำผลิตภัณฑ์คอนกรีต เช่น เสาเข็มคอนกรีตอัดแรง บล๊อคประดับพื้น ท่อระบายน้ำ","status":"ดำเนินกิจการ","lat":13.6831166666667,"lon":100.0864},"10730300125333":{"id":"10730300125333","name":"ห้างหุ้นส่วนจำกัด ฟุดกี่การทอ","owner":"ห้างหุ้นส่วนจำกัด ฟุดกี่การทอ","displayRegistration":"3-22(2)-1/33นฐ","province":"นครปฐม","district":"สามพราน","subdistrict":"อ้อมใหญ่","industryType":"ทอผ้าจากด้ายย้อมสี (จำนวนเครื่องทอ 160 เครื่อง)","status":"ดำเนินกิจการ","lat":13.7093833333333,"lon":100.278433333333},"10730400125324":{"id":"10730400125324","name":"บริษัท แกมม่าเท็กซ์ไทล์ แมนูแฟคเทอริ่ง จำกัด","owner":"บริษัท แกมม่าเท็กซ์ไทล์ แมนูแฟคเทอริ่ง จำกัด","displayRegistration":"3-23(4)-1/32นฐ","province":"นครปฐม","district":"สามพราน","subdistrict":"อ้อมใหญ่","industryType":"ปักแถบผ้าเครื่องหมายต่าง ๆ","status":"ดำเนินกิจการ","lat":13.7085,"lon":100.280716666667},"10730200325330":{"id":"10730200325330","name":"บริษัท สยาม แฮนด์ส จำกัด","owner":"บริษัท สยาม แฮนด์ส จำกัด","displayRegistration":"3-28(1)-3/33นฐ","province":"นครปฐม","district":"สามพราน","subdistrict":"หอมเกร็ด","industryType":"ผลิตเสื้อผ้าสำเร็จรูป เครื่องแต่งกาย เครื่องนุ่งหุ่มทุกชินด (จำนวนจักรเย็บผ้า 133 เครื่อง)","status":"ดำเนินกิจการ","lat":13.78165,"lon":100.2454},"10730400325338":{"id":"10730400325338","name":"บริษัท ทรงสวัสดิ์ (1988) จำกัด","owner":"บริษัท ทรงสวัสดิ์ (1988) จำกัด","displayRegistration":"3-53(4)-3/33นฐ","province":"นครปฐม","district":"สามพราน","subdistrict":"อ้อมใหญ่","industryType":"ทำถุงพลาสติก และเชือกพลาสติก","status":"ดำเนินกิจการ","lat":13.71415,"lon":100.269233333333},"10731400125330":{"id":"10731400125330","name":"บริษัท ไทย เซิ่ง ฟา จำกัด","owner":"บริษัท ไทย เซิ่ง ฟา จำกัด","displayRegistration":"3-87(1)-1/33นฐ","province":"นครปฐม","district":"สามพราน","subdistrict":"หอมเกร็ด","industryType":"ผลิตของเด็กเล่น เช่น ตุ๊กตาผ้า","status":"ดำเนินกิจการ","lat":13.7666166666667,"lon":100.227},"10730000125211":{"id":"10730000125211","name":"บริษัท แหลมทองผลิตภัณฑ์อาหาร จำกัด","owner":"บริษัท แหลมทองผลิตภัณฑ์อาหาร จำกัด","displayRegistration":"3-4(1)-1/21นฐ","province":"นครปฐม","district":"สามพราน","subdistrict":"ไร่ขิง","industryType":"ฆ่าสัตว์ และชำแหละสัตว์ปีก","status":"ดำเนินกิจการ","lat":13.72035,"lon":100.29875},"10730000125153":{"id":"10730000125153","name":"บริษัท โรงเส้นหมี่ชอเฮง จำกัด","owner":"บริษัท โรงเส้นหมี่ชอเฮง จำกัด","displayRegistration":"3-10(3)-1/15นฐ","province":"นครปฐม","district":"สามพราน","subdistrict":"ยายชา","industryType":"ผลิตและจำหน่ายแป้งข้าวเจ้า แป้งข้าวเหนียว เส้นหมี่ และเส้นก๋วยเตี๋ยว ทำขนมจีน อูด้ง แป้งแปรสภาพจากข้าวจ้าวและข้าวเหนียว","status":"ดำเนินกิจการ","lat":13.7279166666667,"lon":100.25065},"10730100125178":{"id":"10730100125178","name":"บริษัท สามมิตรอุตสาหกรรมอาหาร จำกัด","owner":"บริษัท สามมิตรอุตสาหกรรมอาหาร จำกัด","displayRegistration":"3-10(1)-1/17นฐ","province":"นครปฐม","district":"สามพราน","subdistrict":"ท่าข้าม","industryType":"ผลิตอาหารสำเร็จรูป","status":"ดำเนินกิจการ","lat":13.7223833333333,"lon":100.246983333333},"10730100125202":{"id":"10730100125202","name":"ห้างหุ้นส่วนจำกัด โรงสีไฟสมบูรณ์การค้า","owner":"ห้างหุ้นส่วนจำกัด โรงสีไฟสมบูรณ์การค้า","displayRegistration":"3-9(1)-1/20นฐ","province":"นครปฐม","district":"สามพราน","subdistrict":"บางกระทึก","industryType":"สีข้าว กำลังสีสูงสุดของร้านสีข้าว 400 เกวียน/วัน","status":"ดำเนินกิจการ","lat":13.7717666666667,"lon":100.288116666667},"10730100325323":{"id":"10730100325323","name":"บริษัท วรโชติ ฟู้ดส์ จำกัด","owner":"บริษัท วรโชติ ฟู้ดส์ จำกัด","displayRegistration":"3-53(4)-3/32นฐ","province":"นครปฐม","district":"สามพราน","subdistrict":"บ้านใหม่","industryType":"ทำถุงพลาสติก","status":"ดำเนินกิจการ","lat":13.6936,"lon":100.244833333333},"10730400125282":{"id":"10730400125282","name":"บริษัท ส.สามพรานเคมีคอล จำกัด","owner":"บริษัท ส.สามพรานเคมีคอล จำกัด","displayRegistration":"3-42(1)-1/28นฐ","province":"นครปฐม","district":"สามพราน","subdistrict":"อ้อมใหญ่","industryType":"ผลิตซิงค์อ๊อกไซด์ ได้เดือนละ 9.5 ตัน","status":"ดำเนินกิจการ","lat":13.70295,"lon":100.276966666667},"10730000225276":{"id":"10730000225276","name":"บริษัท อนันต์ส่งเสริมเกษตรกรรม จำกัด","owner":"บริษัท อนันต์ส่งเนริมเกษตรกรรม จำกัด","displayRegistration":"3-43(1)-2/27นฐ","province":"นครปฐม","district":"สามพราน","subdistrict":"กระทุ่มล้ม","industryType":"ผลิตปุ๋ยเคมี ผลิตและบรรจุปุ๋ยอินทรีย์ ปุ๋ยอินทรีย์ชีวภาพ ปุ๋ยอินทรีย์เคมี และวัสดุปรับปรุงดิน","status":"ดำเนินกิจการ","lat":13.7334333333333,"lon":100.328766666667},"10730100225291":{"id":"10730100225291","name":"บริษัท ห้างขายยาตราเจ็ดดาว จำกัด","owner":"บริษัท ห้างขายยาตราเจ็ดดาว จำกัด","displayRegistration":"3-46(1)-2/29นฐ","province":"นครปฐม","district":"สามพราน","subdistrict":"อ้อมใหญ่","industryType":"ผลิตยารักษาโรค","status":"หยุดชั่วคราว","lat":13.7070333333333,"lon":100.264333333333},"10730400125241":{"id":"10730400125241","name":"NULL","owner":"นางมาลินี จงยิ่งยศ","displayRegistration":"3-51-1/24นฐ","province":"นครปฐม","district":"สามพราน","subdistrict":"อ้อมใหญ่","industryType":"หล่อดอกยางรถยนต์","status":"ดำเนินกิจการ","lat":13.7100333333333,"lon":100.2838},"10730300125259":{"id":"10730300125259","name":"บริษัท กุมมี่ ลาวาณา จำกัด","owner":"บริษัท กุมมี่ ลาวาณา จำกัด","displayRegistration":"3-52(4)-1/25นฐ","province":"นครปฐม","district":"สามพราน","subdistrict":"ไร่ขิง","industryType":"ทำยางรัดของ","status":"หยุดชั่วคราว","lat":13.72345,"lon":100.271583333333},"10730600125173":{"id":"10730600125173","name":"ห้างหุ้นส่วนจำกัด ไทยอุตสาหกรรมไนล่อนพัฒนา","owner":"ห้างหุ้นส่วนจำกัด ไทยอุตสาหกรรมไนล่อนพัฒนา","displayRegistration":"3-26(2)-1/17นฐ","province":"นครปฐม","district":"สามพราน","subdistrict":"อ้อมใหญ่","industryType":"ผลิตแหและอวน (จำนวนเครื่องทอ 46 เครื่อง)","status":"ดำเนินกิจการ","lat":13.71185,"lon":100.269283333333},"10730300325339":{"id":"10730300325339","name":"บริษัท ซีล เคมีคอล จำกัด","owner":"บริษัท ยงสินพลาสติค จำกัด","displayRegistration":"3-53(1)-3/33นฐ","province":"นครปฐม","district":"สามพราน","subdistrict":"หอมเกร็ด","industryType":"ทำผลิตภัณฑ์พลาสติค เช่น หวี","status":"ดำเนินกิจการ","lat":13.7595166666667,"lon":100.231066666667},"10730500225339":{"id":"10730500225339","name":"บริษัท เอ วี อุตสาหกรรมยาง จำกัด","owner":"บริษัท เอ วี อุตสาหกรรมยาง จำกัด","displayRegistration":"3-53(7)-2/33นฐ","province":"นครปฐม","district":"สามพราน","subdistrict":"อ้อมใหญ่","industryType":"ทำรองเท้าแตะฟองน้ำ","status":"ดำเนินกิจการ","lat":13.7030666666667,"lon":100.273583333333},"10730800225336":{"id":"10730800225336","name":"บริษัท มณฑลสตีลเวอร์ค จำกัด","owner":"บริษัท มณฑลสตีลเวอร์ค จำกัด","displayRegistration":"3-64(12)-2/33นฐ","province":"นครปฐม","district":"สามพราน","subdistrict":"กระทุ่มล้ม","industryType":"ตัด พับ ปั๊มแผ่นโลหะใช้ในการก่อสร้าง","status":"ดำเนินกิจการ","lat":13.7457254805114,"lon":100.322852783231},"10730200425338":{"id":"10730200425338","name":"บริษัท เฟิร์ม อินดัสตรี จำกัด","owner":"บริษัท เฟิร์ม อินดัสตรี จำกัด","displayRegistration":"3-53(1)-4/33นฐ","province":"นครปฐม","district":"สามพราน","subdistrict":"ไร่ขิง","industryType":"ทำซิปและยางยืด","status":"ดำเนินกิจการ","lat":13.7180333333333,"lon":100.2695},"10730200225290":{"id":"10730200225290","name":"บริษัท กิจถาวรพลาสติก จำกัด","owner":"บริษัท กิจถาวรพลาสติก จำกัด","displayRegistration":"3-53(4)-2/29นฐ","province":"นครปฐม","district":"สามพราน","subdistrict":"ยายชา","industryType":"ผลิตถุงพลาสติก","status":"ดำเนินกิจการ","lat":13.7272,"lon":100.25125},"10730000125195":{"id":"10730000125195","name":"บริษัท บางกอกไพบูลย์ไพพ์ จำกัด","owner":"บริษัท บางกอกไพบูลย์ไพพ์ จำกัด","displayRegistration":"3-53(5)-1/19นฐ","province":"นครปฐม","district":"สามพราน","subdistrict":"ไร่ขิง","industryType":"ทำท่อพลาสติกและท่อเอสล่อน","status":"ดำเนินกิจการ","lat":13.7398166666667,"lon":100.263366666667},"10730600125223":{"id":"10730600125223","name":"บริษัท ทานตะวัน อุตสาหกรรม จำกัด (มหาชน)","owner":"บริษัท ทานตะวัน อุตสาหกรรม จำกัด (มหาชน)","displayRegistration":"3-53(5)-1/22นฐ","province":"นครปฐม","district":"สามพราน","subdistrict":"อ้อมใหญ่","industryType":"ทำหลอดเครื่องดื่มด้วยพลาสติก","status":"ดำเนินกิจการ","lat":13.7039833333333,"lon":100.275066666667},"10730300125275":{"id":"10730300125275","name":"บริษัท เจริญวัฒนาไฟเบอร์ แอนด์ เคมีเคิล จำกัด","owner":"บริษัท เจริญวัฒนาไฟเบอร์ แอนด์ เคมีเคิล จำกัด","displayRegistration":"3-53(5)-1/27นฐ","province":"นครปฐม","district":"สามพราน","subdistrict":"คลองใหม่","industryType":"ทำถัง ท่อ และอุปกรณ์ไฟเบอร์กลาสทุกชนิด","status":"ดำเนินกิจการ","lat":13.7479833333333,"lon":100.1982},"10730000225227":{"id":"10730000225227","name":"โรงงานพลาสติกรุ่งนิมิตร","owner":"นายเทพนิมิตร ลาภอร่าม","displayRegistration":"3-53(5)-2/22นฐ","province":"นครปฐม","district":"สามพราน","subdistrict":"ไร่ขิง","industryType":"ทำพลาสติกเม็ด","status":"ดำเนินกิจการ","lat":13.71835,"lon":100.271433333333},"10730300225299":{"id":"10730300225299","name":"บริษัท นาป้า จำกัด","owner":"บริษัท นาป้า จำกัด","displayRegistration":"3-53(5)-2/29นฐ","province":"นครปฐม","district":"สามพราน","subdistrict":"กระทุ่มล้ม","industryType":"ผลิตท่อพลาสติกและวงกบ บานประตูหน้าต่าง จากพลาสติก ฝักบัวอาบน้ำ ก๊อกน้ำสำหรับเครื่องสุขภัณฑ์","status":"ดำเนินกิจการ","lat":13.7212833333333,"lon":100.3286},"10730500125182":{"id":"10730500125182","name":"บริษัท สหไทยเคมีภัณฑ์อุตสาหกรรม จำกัด","owner":"บริษัท สหไทยเคมีภัณฑ์อุตสาหกรรม จำกัด","displayRegistration":"3-53(6)-1/18นฐ","province":"นครปฐม","district":"สามพราน","subdistrict":"กระทุ่มล้ม","industryType":"ทำแบคกาไลท์ และพีโนลิคเรซิน","status":"ดำเนินกิจการ","lat":13.7259,"lon":100.3344},"10730200125300":{"id":"10730200125300","name":"บริษัท แอล.วี.ดับบลิว.กรุ๊ป จำกัด","owner":"บริษัท แอล.วี.ดับบลิว.กรุ๊ป จำกัด","displayRegistration":"3-22(3)-1/30นฐ","province":"นครปฐม","district":"สามพราน","subdistrict":"คลองใหม่","industryType":"ฟอก ย้อมผ้าและด้าย","status":"ดำเนินกิจการ","lat":13.7451666666667,"lon":100.198533333333},"10730300125309":{"id":"10730300125309","name":"บริษัท สี่เฮง (1987) จำกัด","owner":"บริษัท สี่เฮง (1987) จำกัด","displayRegistration":"3-22(4)-1/30นฐ","province":"นครปฐม","district":"สามพราน","subdistrict":"อ้อมใหญ่","industryType":"พิมพ์ผ้า","status":"ดำเนินกิจการ","lat":13.6931333333333,"lon":100.262366666667},"10731300125372":{"id":"10731300125372","name":"บริษัท บางกอกอินเตอร์ฟูด จำกัด","owner":"บริษัท บางกอกอินเตอร์ฟูด จำกัด","displayRegistration":"3-101-1/37นฐ","province":"นครปฐม","district":"สามพราน","subdistrict":"บ้านใหม่","industryType":"ระบบบำบัดน้ำเสียรวม","status":"ดำเนินกิจการ","lat":13.69745,"lon":100.245233333333},"10730300125184":{"id":"10730300125184","name":"บริษัท โรงงานสุราพิเศษสุวรรณภูมิ จำกัด","owner":"บริษัท โรงงานสุราพิเศษสุวรรณภูมิ จำกัด","displayRegistration":"3-16-1/18นฐ","province":"นครปฐม","district":"สามพราน","subdistrict":"ไร่ขิง","industryType":"ผลิตสุราบรั่นดี ได้เดือนละ 2000 เท","status":"ดำเนินกิจการ","lat":13.7425,"lon":100.269416666667},"10730100125186":{"id":"10730100125186","name":"บริษัท แหลมทองอุตสาหกรรมอาหาร จำกัด","owner":"บริษัท แหลมทองอุตสาหกรรมอาหาร จำกัด","displayRegistration":"3-10(2)-1/18นฐ","province":"นครปฐม","district":"สามพราน","subdistrict":"อ้อมใหญ่","industryType":"ทำขนมปังและขนมปังกรอบ","status":"ดำเนินกิจการ","lat":13.7076166666667,"lon":100.271866666667},"10730000525337":{"id":"10730000525337","name":"บริษัท ทีพีบีไอ จำกัด (มหาชน)","owner":"บริษัท ทีพีบีไอ ซันนี่ โปรดักส์ (ประเทศไทย) จำกัด","displayRegistration":"3-53(4)-5/33นฐ","province":"นครปฐม","district":"สามพราน","subdistrict":"ไร่ขิง","industryType":"ผลิตถุงพลาสติก","status":"ดำเนินกิจการ","lat":13.7183833333333,"lon":100.271583333333},"10730200225282":{"id":"10730200225282","name":"บริษัท เบสท์คอนกรีต จำกัด","owner":"บริษัท เบสท์คอนกรีต จำกัด","displayRegistration":"3-58(1)-2/28นฐ","province":"นครปฐม","district":"สามพราน","subdistrict":"คลองใหม่","industryType":"ทำผลิตภัณฑ์คอนกรีต เช่น เสาเข็ม พื้นสำเร็จรูป ได้เดือนละ 375 คิวบิกเมตร","status":"ดำเนินกิจการ","lat":13.7507833333333,"lon":100.1988},"10730900125303":{"id":"10730900125303","name":"ห้างหุ้นส่วนจำกัด ลวดสยามอุตสาหกรรม","owner":"ห้างหุ้นส่วนจำกัด ลวดสยามอุตสาหกรรม","displayRegistration":"3-59-1/30นฐ","province":"นครปฐม","district":"สามพราน","subdistrict":"กระทุ่มล้ม","industryType":"ผลิตเหล็กขาว ลวดทำตะปู และลวดผูกเหล็กก่อสร้าง","status":"ดำเนินกิจการ","lat":13.7259,"lon":100.333966666667},"10730100225309":{"id":"10730100225309","name":"เซ่งไถ่อุตสาหกรรม","owner":"นายพรศักดิ์ พงษ์ขจรธน","displayRegistration":"3-59-2/30นฐ","province":"นครปฐม","district":"สามพราน","subdistrict":"กระทุ่มล้ม","industryType":"หล่อโลหะ","status":"ดำเนินกิจการ","lat":13.7252333333333,"lon":100.33145},"10730600325336":{"id":"10730600325336","name":"บริษัท เพชรเกษมจักรดลซีรามิค จำกัด","owner":"บริษัท เพชรเกษมจักรกลซีรามิค จำกัด","displayRegistration":"3-68-3/33นฐ","province":"นครปฐม","district":"สามพราน","subdistrict":"ไร่ขิง","industryType":"ผลิตและซ่อมแซมเครื่องบด แยก กรองดิน","status":"ดำเนินกิจการ","lat":13.7281666666667,"lon":100.291583333333},"10730900225335":{"id":"10730900225335","name":"บริษัท ไทยครีเอทีฟ ไล้ทติ้งค์ จำกัด","owner":"บริษัท ไทยครีเอทีฟ ไล้ทติ้งค์ จำกัด","displayRegistration":"3-74(1)-2/33นฐ","province":"นครปฐม","district":"สามพราน","subdistrict":"ไร่ขิง","industryType":"ทำอุปกรณ์โคมไฟฟ้า เช่น แป้นรองโคม ช่อไฟ","status":"ดำเนินกิจการ","lat":13.74439,"lon":100.27582},"10730000825331":{"id":"10730000825331","name":"บริษัท พี.พี.แพคเกจจิ้ง จำกัด","owner":"บริษัท พี.พี.แพคเกจจิ้ง จำกัด","displayRegistration":"3-53(4)-8/33นฐ","province":"นครปฐม","district":"สามพราน","subdistrict":"ไร่ขิง","industryType":"ผลิตแผ่นโฟมและภาชนะบรรจุจากโฟม","status":"ดำเนินกิจการ","lat":13.7535833333333,"lon":100.30085},"10730600125215":{"id":"10730600125215","name":"บริษัท จอบสยาม จำกัด","owner":"บริษัท จอบสยาม จำกัด","displayRegistration":"3-66-1/21นฐ","province":"นครปฐม","district":"สามพราน","subdistrict":"กระทุ่มล้ม","industryType":"ผลิตจอบ คันไถ เครื่องจักรที่ใช้ในการเกษตร ผลิตเครื่องจักรและใบมีดที่ใช้ในงานอุตสาหกรรม","status":"ดำเนินกิจการ","lat":13.7278333333333,"lon":100.3347},"10731200125308":{"id":"10731200125308","name":"บริษัท โรงเส้นหมี่ชอเฮง จำกัด","owner":"บริษัท โรงเส้นหมี่ชอเฮง จำกัด","displayRegistration":"3-68-1/30นฐ","province":"นครปฐม","district":"สามพราน","subdistrict":"ยายชา","industryType":"ผลิตเครื่องจักรทำเส้นหมี่ เส้นก๋วยเตี๋ยว แป้งข้าวเจ้าและแป้งข้าวเหนียว","status":"ดำเนินกิจการ","lat":13.7279,"lon":100.250683333333},"10731300125307":{"id":"10731300125307","name":"บริษัท ไทยแมกซ์เวลอิเลคทริค จำกัด","owner":"บริษัท ไทยแมกซ์เวลอิเลคทริค จำกัด","displayRegistration":"3-71-1/30นฐ","province":"นครปฐม","district":"สามพราน","subdistrict":"บ้านใหม่","industryType":"ผลิตหม้อแปลงไฟฟ้า เครื่องทุ่นแรงระบบไฮดรอลิค เครื่องเชื่อมไฟฟ้า เครื่องชุบโลหะและอุปกรณ์ไฟฟ้าอื่น ๆ","status":"ดำเนินกิจการ","lat":13.7042333333333,"lon":100.2476},"10730600125249":{"id":"10730600125249","name":"บริษัท ปานมงคลอุตสาหกรรม จำกัด","owner":"บริษัท ปานมงคลอุตสาหกรรม จำกัด","displayRegistration":"3-72-1/24นฐ","province":"นครปฐม","district":"สามพราน","subdistrict":"บางกระทึก","industryType":"ทำอุปกรณ์วิทยุ","status":"ดำเนินกิจการ","lat":13.7737166666667,"lon":100.283433333333},"20731800125383":{"id":"20731800125383","name":"บริษัท เปโตร ปั๊มโลหะ จำกัด","owner":"บริษัท เปโตร ปั๊มโลหะ จำกัด","displayRegistration":"จ3-64(2)-1/38นฐ","province":"นครปฐม","district":"สามพราน","subdistrict":"อ้อมใหญ่","industryType":"ปั๊มโลหะ","status":"ดำเนินกิจการ","lat":13.7066333333333,"lon":100.283533333333},"20730300125372":{"id":"20730300125372","name":"บริษัท น้ำดื่มซอฟท์ จำกัด","owner":"บริษัท น้ำดื่มซอฟท์ จำกัด","displayRegistration":"จ3-20(1)-1/37นฐ","province":"นครปฐม","district":"สามพราน","subdistrict":"ท่าตลาด","industryType":"ผลิตน้ำดื่มบริโภคในภาชนะบรรจุที่ปิดสนิท","status":"ดำเนินกิจการ","lat":13.75285,"lon":100.216466666667},"20730100225356":{"id":"20730100225356","name":"บริษัท นีโอ เอ็กซิบิท จำกัด","owner":"บริษัท นีโอ เอ็กซิบิท จำกัด","displayRegistration":"จ3-37-2/35นฐ","province":"นครปฐม","district":"สามพราน","subdistrict":"หอมเกร็ด","industryType":"ทำเครื่องเรือนจากไม้ และโลหะ","status":"ดำเนินกิจการ","lat":13.7606666666667,"lon":100.247116666667},"10730600125389":{"id":"10730600125389","name":"บริษัท สินพิริยะอุตสาหกรรม จำกัด","owner":"บริษัท สินพิริยะอุตสาหกรรม จำกัด","displayRegistration":"3-78(2)-1/38นฐ","province":"นครปฐม","district":"สามพราน","subdistrict":"อ้อมใหญ่","industryType":"ผลิตชิ้นส่วนและอะไหล่รถจักรยานยนต์","status":"ดำเนินกิจการ","lat":13.7039333333333,"lon":100.276483333333},"20730800125385":{"id":"20730800125385","name":"บริษัท ศิริธนค้าวัสดุก่อสร้าง (1994) จำกัด","owner":"บริษัท ศิริธนค้าวัสดุก่อสร้าง (1994) จำกัด","displayRegistration":"จ3-34(1)-1/38นฐ","province":"นครปฐม","district":"นครชัยศรี","subdistrict":"ขุนแก้ว","industryType":"ไส ซอยไม้ ทำวงกบประตู_หน้าต่าง และเครื่องเรือนจากไม้","status":"ดำเนินกิจการ","lat":13.7769,"lon":100.2225},"20730500225386":{"id":"20730500225386","name":"บริษัท อ้อมใหญ่ศิรีชัย (1991) จำกัด","owner":"บริษัท อ้อมใหญ่ศิรชัย (1991) จำกัด","displayRegistration":"จ3-53(1)-2/38นฐ","province":"นครปฐม","district":"สามพราน","subdistrict":"อ้อมใหญ่","industryType":"ผลิตตาข่ายพลาสติก","status":"ดำเนินกิจการ","lat":13.7127333333333,"lon":100.26915},"20730200325387":{"id":"20730200325387","name":"บริษัท สิริยนต์ ออโต้อินดัสตรี้ จำกัด","owner":"บริษัท สิริยนต์ ออโต้อินดัสตรี้ จำกัด","displayRegistration":"จ3-77(1)-3/38นฐ","province":"นครปฐม","district":"เมืองนครปฐม","subdistrict":"มาบแค","industryType":"ประกอบตัวถังรถยนต์","status":"ดำเนินกิจการ","lat":13.87305,"lon":100.067366666667},"10730300225265":{"id":"10730300225265","name":"นายดุสิต เอี่ยมวัฒนศิลป์","owner":"นายดุสิต เอี่ยมวัฒนศิลป์","displayRegistration":"3-77(2)-2/26นฐ","province":"นครปฐม","district":"สามพราน","subdistrict":"ท่าข้าม","industryType":"ผลิตโชคอัพรถยนต์และอะไหล่รถยนต์ทุกชนิด","status":"ดำเนินกิจการ","lat":13.7222333333333,"lon":100.254816666667},"10730200225308":{"id":"10730200225308","name":"บริษัท สี่มณฑลอุตสาหกรรม จำกัด","owner":"บริษัท สี่มณฑลอุตสาหกรรม จำกัด","displayRegistration":"3-77(2)-2/30นฐ","province":"นครปฐม","district":"สามพราน","subdistrict":"กระทุ่มล้ม","industryType":"ทำและซ่อมเครื่องกันสะเทือน (โช๊คอัพ) รถยนต์","status":"ดำเนินกิจการ","lat":13.74885,"lon":100.328916666667},"20731300225378":{"id":"20731300225378","name":"บริษัท วัฒนกิจการชุบ จำกัด","owner":"บริษัท วัฒนกิจการชุบ จำกัด","displayRegistration":"จ3-100(5)-2/37นฐ","province":"นครปฐม","district":"สามพราน","subdistrict":"กระทุ่มล้ม","industryType":"ชุบโลหะ","status":"ดำเนินกิจการ","lat":13.7262333333333,"lon":100.309066666667},"10730000225318":{"id":"10730000225318","name":"บริษัท กรุงเจริญอุตสาหกรรมสิ่งทอ จำกัด","owner":"บริษัท กรุงเจริญอุตสาหกรรมสิ่งทอ จำกัด","displayRegistration":"3-22(2)-2/31นฐ","province":"นครปฐม","district":"สามพราน","subdistrict":"อ้อมใหญ่","industryType":"ทอผ้า (จำนวนเครื่องทอ 340 เครื่อง)","status":"ดำเนินกิจการ","lat":13.7043666666667,"lon":100.275733333333},"10730100125319":{"id":"10730100125319","name":"บริษัท เอ็น เอส ทีฟู้ด อินดัสทรี กรุ๊ป จำกัด","owner":"บริษัท เอ็น เอส ที ฟู้ด อินดัสทรี กรุ๊ป จำกัด","displayRegistration":"3-9(4)-1/31นฐ","province":"นครปฐม","district":"สามพราน","subdistrict":"ท่าข้าม","industryType":"ผลิตอาหารสำเร็จรูป เช่น ขนมไข่กรอบ และขนมถั่วกรอบ เป็นต้น","status":"ดำเนินกิจการ","lat":13.7081,"lon":100.25255},"10730800125221":{"id":"10730800125221","name":"บริษัท ร่มไทย จำกัด","owner":"บริษัท ร่มไทย จำกัด","displayRegistration":"3-87(4)-1/22นฐ","province":"นครปฐม","district":"สามพราน","subdistrict":"อ้อมใหญ่","industryType":"ผลิตร่มกันฝน","status":"ดำเนินกิจการ","lat":13.7049166666667,"lon":100.276616666667},"10730400225298":{"id":"10730400225298","name":"บริษัท โตโยต้านครปฐม ผู้จำหน่ายโตโยต้า จำกัด","owner":"บริษัท โตโยต้านครปฐม ผู้จำหน่ายโตโยต้า จำกัด","displayRegistration":"3-95(1)-2/29นฐ","province":"นครปฐม","district":"สามพราน","subdistrict":"อ้อมใหญ่","industryType":"ซ่อมรถยนต์","status":"หยุดชั่วคราว","lat":13.7081666666667,"lon":100.2838},"20732400125385":{"id":"20732400125385","name":"บริษัท ไพบูลย์ส่งเสริมการเกษตร จำกัด","owner":"บริษัท ไพบูลย์ส่งเสริมการเกษตร จำกัด","displayRegistration":"จ3-66-1/38นฐ","province":"นครปฐม","district":"สามพราน","subdistrict":"อ้อมใหญ่","industryType":"ผลิตประกอบ ดัดแปลง หรือซ่อมแซมเครื่องจักรสำหรับใช้ในการกสิกรรม","status":"หยุดชั่วคราว","lat":13.7004333333333,"lon":100.27875},"10731300125323":{"id":"10731300125323","name":"บริษัท ซีนิกซ์ อีเล็คเท็ค จำกัด","owner":"บริษัท ซีนิกซ์ อีเล็คเท็ค จำกัด","displayRegistration":"3-71-1/32นฐ","province":"นครปฐม","district":"สามพราน","subdistrict":"กระทุ่มล้ม","industryType":"ผลิตเครื่องกำเนิดไฟฟ้า","status":"ดำเนินกิจการ","lat":13.7226,"lon":100.303166666667},"10730900125329":{"id":"10730900125329","name":"บริษัท เมทเทิลวัน จำกัด","owner":"บริษัท ยูนิเวอร์แซลแคน จำกัด","displayRegistration":"3-64(1)-1/32นฐ","province":"นครปฐม","district":"สามพราน","subdistrict":"ตลาดจินดา","industryType":"ทำภาชนะบรรจุจากแผ่นเหล็ก เช่น กระป๋อง","status":"ดำเนินกิจการ","lat":13.67095,"lon":100.088566666667},"20730001325388":{"id":"20730001325388","name":"บริษัท โตโยต้านครปฐมผู้จำหน่ายโตโยต้า จำกัด","owner":"บริษัท โตโยต้านครปฐมผู้จำหน่ายโตโยต้า จำกัด","displayRegistration":"จ3-95(1)-13/38นฐ","province":"นครปฐม","district":"เมืองนครปฐม","subdistrict":"ธรรมศาลา","industryType":"ซ่อมรถยนต์","status":"ดำเนินกิจการ","lat":13.8131833333333,"lon":100.102483333333},"20730000325389":{"id":"20730000325389","name":"บริษัท คอนกรีตไลน์ จำกัด","owner":"บริษัท คอนกรีตไลน์ จำกัด","displayRegistration":"จ3-58(1)-3/38นฐ","province":"นครปฐม","district":"บางเลน","subdistrict":"ดอนตูม","industryType":"ผลิตเสาเข็มคอนกรีตอัดแรง และผลิตภัณฑ์คอนกรีตอื่น ๆ","status":"ดำเนินกิจการ","lat":14.0252,"lon":100.117533333333},"10730100125327":{"id":"10730100125327","name":"บริษัท ยูนิเกรน จำกัด","owner":"บริษัท ยูนิเกรน จำกัด","displayRegistration":"3-9(1)-1/32นฐ","province":"นครปฐม","district":"สามพราน","subdistrict":"ไร่ขิง","industryType":"ขัดข้าว","status":"ดำเนินกิจการ","lat":13.75395,"lon":100.300833333333},"00730100125329":{"id":"00730100125329","name":"บริษัท กรุงเทพสตาชอินดัสเทรียล จำกัด","owner":"บริษัท กรุงเทพสตาชอินดัสเทรียล จำกัด","displayRegistration":"ศ3-15(1)-1/32นฐ","province":"นครปฐม","district":"สามพราน","subdistrict":"ไร่ขิง","industryType":"ผลิตแป้งสำหรับผสมเป็นอาหารสัตว์น้ำ","status":"ดำเนินกิจการ","lat":13.71255,"lon":100.275483333333},"10730500325337":{"id":"10730500325337","name":"ห้างหุ้นส่วนจำกัด เชียงแสง","owner":"ห้างหุ้นส่วนจำกัด เชียงแสง","displayRegistration":"3-55-3/33นฐ","province":"นครปฐม","district":"สามพราน","subdistrict":"บางกระทึก","industryType":"ทำเซรามิค","status":"ดำเนินกิจการ","lat":13.7105870810602,"lon":100.309179863638},"10730000225342":{"id":"10730000225342","name":"บริษัท เอส.วี.สปินนิ่ง จำกัด","owner":"บริษัท เอส.วี.สปินนิ่ง จำกัด","displayRegistration":"3-22(1)-2/34นฐ","province":"นครปฐม","district":"สามพราน","subdistrict":"คลองใหม่","industryType":"ปั่นด้าย (จำนวนแกนปั่นด้าย 20,000 แกน)","status":"ดำเนินกิจการ","lat":13.7450666666667,"lon":100.198533333333},"10730300225331":{"id":"10730300225331","name":"บริษัท วัชรบรรจุภัณฑ์ จำกัด","owner":"บริษัท วัชรบรรจุภัณฑ์ จำกัด","displayRegistration":"3-53(4)-2/33นฐ","province":"นครปฐม","district":"สามพราน","subdistrict":"อ้อมใหญ่","industryType":"ผลิตผลิตภัณฑ์พลาสติกต่าง ๆ เช่น ภาชนะบรรจุ","status":"ดำเนินกิจการ","lat":13.7118,"lon":100.257083333333},"10730000425264":{"id":"10730000425264","name":"ห้างหุ้นส่วนจำกัด โรงสีบ้านคอน","owner":"ห้างหุ้นส่วนจำกัด โรงสีบ้านดอน","displayRegistration":"3-9(1)-4/26นฐ","province":"นครปฐม","district":"กำแพงแสน","subdistrict":"สระสี่มุม","industryType":"สีข้าว กำลังสีสูงสุดของร้านสีข้าว 40 เกวียน/วัน","status":"ดำเนินกิจการ","lat":14.0503666666667,"lon":99.9902833333333},