{"20160001525532":{"id":"20160001525532","name":"ห้างหุ้นส่วนจำกัด พี พี เจ ดีเวอร์ล็อปเม้นท์","owner":"ห้างหุ้นส่วนจำกัด พี พี เจ ดีเวอร์ล็อปเม้นท์","displayRegistration":"จ3-58(1)-15/53ลบ","province":"ลพบุรี","district":"เมืองลพบุรี","subdistrict":"ท่าแค","industryType":"ทำผลิตภัณฑ์คอนกรีตผสมเสร็จ","status":"ดำเนินกิจการ","lat":14.8647746948149,"lon":100.613262295354},"20161000125381":{"id":"20161000125381","name":"บริษัท สหชัยอิเลคโทรนิคส์ (ประเทศไทย) จำกัด","owner":"บริษัท สหชัยอิเลคโทรนิคส์ (ประเทศไทย) จำกัด","displayRegistration":"จ2-73-1/38ลบ","province":"ลพบุรี","district":"เมืองลพบุรี","subdistrict":"กกโก","industryType":"รับจ้างประกอบอุปกรณ์อิเลคโทรนิคส์ ประเภทสายไฟ","status":"ดำเนินกิจการ","lat":14.7781,"lon":100.69168},"10160400125381":{"id":"10160400125381","name":"บริษัท เหล็กทรัพย์ จำกัด","owner":"บริษัท เหล็กทรัพย์ จำกัด","displayRegistration":"3-59-1/38ลบ","province":"ลพบุรี","district":"พัฒนานิคม","subdistrict":"ดีลัง","industryType":"หลอม หล่อ รีดเหล็กแท่ง (Billet) และผลิตเหล็กเส้นเสริมคอนกรีตชนิดเหล็กเส้นกลม เหล็กข้ออ้อย (จำนวน 1 สายการผลิต)ได้ปีละ 170,000 ตัน","status":"ดำเนินกิจการ","lat":14.86421,"lon":100.91273},"10160100125384":{"id":"10160100125384","name":"บริษัท ซินเทอร์ พลาสท์ ไทย จำกัด","owner":"บริษัท ซินเทอร์ พลาสท์ ไทย จำกัด","displayRegistration":"3-53(1)-1/38ลบ","province":"ลพบุรี","district":"ท่าวุ้ง","subdistrict":"บางงา","industryType":"ผลิตผลิตภัณฑ์พลาสติก เช่น เครื่องเรือน เครื่องใช้ ถังน้ำ ฯลฯ","status":"ดำเนินกิจการ","lat":14.88009,"lon":100.46201},"20160000225332":{"id":"20160000225332","name":"NULL","owner":"นายประเสริฐ คำพานิช","displayRegistration":"จ3-9(1)-2/33ลบ","province":"ลพบุรี","district":"โคกสำโรง","subdistrict":"โคกสำโรง","industryType":"สีข้าวชนิดแยกแกลบแยกรำ (กำลังสีสูงสุดของร้านสีข้าว 60 เกวียน/วัน)","status":"ดำเนินกิจการ","lat":15.06741,"lon":100.7315},"20160300125414":{"id":"20160300125414","name":"บริษัท เอสคอร์ท เอ็นจิเนียริ่ง เอ็นเตอร์ไพรส์ จำกัด","owner":"บริษัท เอสคอร์ท เอ็นจิเนียริ่ง เอ็นเตอร์ไพรส์ จำกัด","displayRegistration":"จ3-73-1/41ลบ","province":"ลพบุรี","district":"เมืองลพบุรี","subdistrict":"ท่าศาลา","industryType":"ประกอบชิ้นส่วนอิเลคโทรนิคส์ และคอมพิวเตอร์","status":"ดำเนินกิจการ","lat":14.80302,"lon":100.67201},"00160000125353":{"id":"00160000125353","name":"บริษัท สหฟาร์ม จำกัด","owner":"บริษัท สหฟาร์ม จำกัด","displayRegistration":"ศ3-4(1)-1/35ลบ","province":"ลพบุรี","district":"ชัยบาดาล","subdistrict":"ห้วยหิน","industryType":"ฆ่าไก่ ชำแหละ และห้องเย็นแช่แข็ง","status":"ดำเนินกิจการ","lat":15.10013,"lon":101.01088},"10160200125383":{"id":"10160200125383","name":"บริษัท อินโดรามา โพลีเมอร์ส จำกัด (มหาชน)","owner":"บริษัท อินโดรามา โพลีเมอร์ส จำกัด (มหาชน)","displayRegistration":"3-53(5)-1/38ลบ","province":"ลพบุรี","district":"ท่าวุ้ง","subdistrict":"เขาสมอคอน","industryType":"ผลิตโพลิเอทิลินเทเรฟทาเลท","status":"ดำเนินกิจการ","lat":14.90224,"lon":100.46498},"10160300125382":{"id":"10160300125382","name":"บริษัท เฌอร่า จำกัด (มหาชน)","owner":"บริษัท เฌอร่า จำกัด (มหาชน)","displayRegistration":"3-56-1/38ลบ","province":"ลพบุรี","district":"พัฒนานิคม","subdistrict":"ช่องสาริกา","industryType":"ผลิตวัสดุซีเมนต์คอมโพสิทธ์ เสริมแรงด้วยเส้นใย ขยายในส่วนผลิตพลังงานไฟฟ้าใช้พลังงานแสงอาทิตย์ขนาดกำลังผลิต 9.98 เมกะวัตต์ เพื่อใช้ในโรงงานเท่านั้น","status":"ดำเนินกิจการ","lat":14.80083,"lon":100.91192},"10160000225383":{"id":"10160000225383","name":"บริษัท สุรินทร์ ออมย่า เคมิคอล(ประเทศไทย) จำกัด","owner":"บริษัท สุรินทร์ ออมย่า เคมิคอล(ประเทศไทย) จำกัด","displayRegistration":"3-42(1)-2/38ลบ","province":"ลพบุรี","district":"เมืองลพบุรี","subdistrict":"โคกตูม","industryType":"บดย่อย แต่งแร่ ผลิตแคลเซี่ยมคาร์บอเนต","status":"ดำเนินกิจการ","lat":14.83397,"lon":100.85449},"20160400125397":{"id":"20160400125397","name":"บริษัท วี.พี. พัฒนาคอนกรีต จำกัด","owner":"บริษัท วี.พี.พัฒนาอุตสาหกรรม จำกัด","displayRegistration":"จ3-58(1)-1/39ลบ","province":"ลพบุรี","district":"พัฒนานิคม","subdistrict":"หนองบัว","industryType":"ทำคอนกรีตผสมเสร็จ","status":"ดำเนินกิจการ","lat":14.86007,"lon":101.03251},"20160500125396":{"id":"20160500125396","name":"เบลโก้ไทยไดมอนด์อิควิปเม้นท์","owner":"ห้างหุ้นส่วนจำกัด เบลโก้ไทยไดมอนท์อิควิปเมนท์","displayRegistration":"จ3-61-1/39ลบ","province":"ลพบุรี","district":"เมืองลพบุรี","subdistrict":"ถนนใหญ่","industryType":"ผลิตและซ่อมแซม ดัดแปลงโต๊ะเจียรไนเพชร พลอย และผลิตอุปกรณ เครื่องมือเครื่องใช้ในการเจียรไนเพชร พลอย","status":"ดำเนินกิจการ","lat":14.82366,"lon":100.6404},"10160000125393":{"id":"10160000125393","name":"ห้างหุ้นส่วนจำกัด ดับบลิว.อี ท่าหลวง","owner":"ห้างหุ้นส่วนจำกัด ดับบลิว.อี ท่าหลวง","displayRegistration":"3-28(1)-1/39ลบ","province":"ลพบุรี","district":"ชัยบาดาล","subdistrict":"ชัยบาดาล","industryType":"ตัดเย็บเสื้อผ้าสำเร็จรูป (จำนวนจักรเย็บผ้า 1,000 เครื่อง)","status":"ดำเนินกิจการ","lat":15.07705,"lon":101.05371},"10160500125380":{"id":"10160500125380","name":"บริษัท ริชชี่ ริช เอชพี จำกัด","owner":"บริษัท ริชชี่ ริช เอชพี จำกัด","displayRegistration":"3-67(2)-1/38ลบ","province":"ลพบุรี","district":"พัฒนานิคม","subdistrict":"มะนาวหวาน","industryType":"ผลิตเครื่องจักรกล เช่น เครื่องตัดโลหะ เครื่องพับโลหะ ฯลฯ","status":"ดำเนินกิจการ","lat":14.88575,"lon":101.01664},"10160200125391":{"id":"10160200125391","name":"บริษัท คอนกรีตถาวร จำกัด","owner":"บริษัท คอนกรีตถาวร จำกัด","displayRegistration":"3-58(1)-1/39ลบ","province":"ลพบุรี","district":"พัฒนานิคม","subdistrict":"มะนาวหวาน","industryType":"ผลิตภัณฑ์คอนกรีตสำเร็จรูป เช่น พื้นและผนังสำเร็จรูป","status":"ดำเนินกิจการ","lat":14.88572,"lon":101.01663},"20160000325397":{"id":"20160000325397","name":"โรงสีศรีรักษา","owner":"นายวิรัตน์ ศรีรักษา","displayRegistration":"จ3-9(1)-3/39ลบ","province":"ลพบุรี","district":"เมืองลพบุรี","subdistrict":"ถนนใหญ่","industryType":"สีข้าว กำลังสีสูงสุดของร้านสีข้าว 15 เกวียน/วัน","status":"ดำเนินกิจการ","lat":14.8417,"lon":100.61745},"20161000125399":{"id":"20161000125399","name":"เอส.เอส.พี","owner":"บริษัท เอส.เอส.พี.แอนด์ บราเทอร์(ประเทศไทย) จำกัด","displayRegistration":"จ2-72-1/39ลบ","province":"ลพบุรี","district":"เมืองลพบุรี","subdistrict":"นิคมสร้างตนเอง","industryType":"ประกอบชิ้นส่วน ตบแต่งชิ้นส่วน เครื่องมืออีเลคโทรนิคส์","status":"ดำเนินกิจการ","lat":14.80068,"lon":100.7384},"20160100125390":{"id":"20160100125390","name":"บริษัท แอพพลายฟอร์ช (ประเทศไทย) จำกัด","owner":"บริษัท แอพพลายฟอร์ซ (ประเทศไทยป จำกัด","displayRegistration":"จ3-15(1)-1/39ลบ","province":"ลพบุรี","district":"ชัยบาดาล","subdistrict":"ลำนารายณ์","industryType":"ผลิตอาหารเสริมสำหรับสัตว์ วิตามิน และแร่ธาตุอินทรีย์","status":"ดำเนินกิจการ","lat":15.2343,"lon":101.15252},"10160400125399":{"id":"10160400125399","name":"บริษัท บี.ฟู้ดส์ โปรดักส์ อินเตอร์เนชั่นแนล จำกัด","owner":"บริษัท บี.ฟู้ดส์ โปรดักส์ อินเตอร์เนชั่นแนล จำกัด","displayRegistration":"3-101-1/39ลบ","province":"ลพบุรี","district":"พัฒนานิคม","subdistrict":"ช่องสาริกา","industryType":"บำบัดน้ำเสีย ปริมาณการบำบัดน้ำเสียสูงสุดเพิ่มขึ้นจากเดิม 7000 ลูกบาศก์เมตรต่อวัน รวมเป็นปริมาณการบำบัดน้ำเสียสูงสุด 12000 ลูกบาศก์เมตรต่อวัน","status":"ดำเนินกิจการ","lat":14.8313309605175,"lon":100.909670591354},"00160000125395":{"id":"00160000125395","name":"บริษัท เจริญโภคภัณฑ์โปรดิ๊วส จำกัด","owner":"บริษัท เจริญโภคภัณฑ์โปรดิ๊วส จำกัด","displayRegistration":"ศ3-2(1)-1/39ลบ","province":"ลพบุรี","district":"พัฒนานิคม","subdistrict":"ดีลัง","industryType":"ผลิตเมล็ดพันธุ์พืช","status":"ดำเนินกิจการ","lat":14.8709,"lon":100.90918},"20160800125393":{"id":"20160800125393","name":"จันวรากรณ์ อ๊อกซิเจน","owner":"ห้างหุ้นส่วนจำกัด จันวรากรณ์ อ๊อกซิเจน","displayRegistration":"จ3-89-1/39ลบ","province":"ลพบุรี","district":"ชัยบาดาล","subdistrict":"ศิลาทิพย์","industryType":"บรรจุอ๊อกซิเจน","status":"ดำเนินกิจการ","lat":15.28099,"lon":101.124},"10160000225391":{"id":"10160000225391","name":"ทีจี.แอ๊ดวานซ์คอนกรีต","owner":"บริษัท ทีจี.แอ๊ดวานซ์คอนกรีต จำกัด","displayRegistration":"3-58(1)-2/39ลบ","province":"ลพบุรี","district":"พัฒนานิคม","subdistrict":"ช่องสาริกา","industryType":"ผลิตผนังสำเร็จรูป","status":"ดำเนินกิจการ","lat":14.77436,"lon":100.90944},"20160000425395":{"id":"20160000425395","name":"บริษัท ดีคอนโปรดักส์ จำกัด (มหาชน)","owner":"บริษัท ดีคอนโปรดักส์ จำกัด (มหาชน)","displayRegistration":"จ3-58(1)-4/39ลบ","province":"ลพบุรี","district":"พัฒนานิคม","subdistrict":"ช่องสาริกา","industryType":"ผลิตวัสดุก่อสร้าง แผ่นพื้นและเสาเข็มสำเร็จรูป คอนกรีตอัดแรง","status":"ดำเนินกิจการ","lat":14.77555,"lon":100.91791},"20160600125395":{"id":"20160600125395","name":"เทพศิริโลหะ","owner":"นายประจวบ เทพศิริ","displayRegistration":"จ3-63(2)-1/39ลบ","province":"ลพบุรี","district":"เมืองลพบุรี","subdistrict":"เขาสามยอด","industryType":"ทำประตู-หน้าต่างเหล็ก","status":"ดำเนินกิจการ","lat":14.80941,"lon":100.6696},"10160000125401":{"id":"10160000125401","name":"โรงน้ำแข็งบ้านหมี่","owner":"นายธีระ ปิยะสุวรรณ์","displayRegistration":"3-14-1/40ลบ","province":"ลพบุรี","district":"บ้านหมี่","subdistrict":"โพนทอง","industryType":"ผลิตน้ำแข็งซอง ได้วันละ 704 ซอง และน้ำแข็งก้อนเล็ก ได้วันละ 120 ตัน","status":"ดำเนินกิจการ","lat":15.04465,"lon":100.55975},"20160000225407":{"id":"20160000225407","name":"ตั้งเง็กฮะ","owner":"นายสามารถ วิมุติสุนทร","displayRegistration":"จ3-9(6)-2/40ลบ","province":"ลพบุรี","district":"ชัยบาดาล","subdistrict":"นาโสม","industryType":"ทำมันเส้น","status":"ดำเนินกิจการ","lat":15.24469,"lon":101.29884},"20160100225356":{"id":"20160100225356","name":"อู่กิมเฮงการช่าง","owner":"นายปรีชา งามเลิศชัย","displayRegistration":"จ3-66-2/35ลบ","province":"ลพบุรี","district":"ชัยบาดาล","subdistrict":"ลำนารายณ์","industryType":"ซ่อมแซมอุปกรณ์ทางการเกษตร","status":"ดำเนินกิจการ","lat":15.20529,"lon":101.13162},"10160100125400":{"id":"10160100125400","name":"บริษัท นารายณ์บางกอกรับเบอร์ จำกัด","owner":"บริษัท นารายณ์บางกอกรับเบอร์ จำกัด","displayRegistration":"3-33-1/40ลบ","province":"ลพบุรี","district":"หนองม่วง","subdistrict":"หนองม่วง","industryType":"ทำชิ้นส่วนรองเท้า","status":"ดำเนินกิจการ","lat":15.21993,"lon":100.65193},"20160300225404":{"id":"20160300225404","name":"บริษัท สยามนิสสัน ลำนารายณ์ สาขาพัฒนานิคม จำกัด","owner":"บริษัท สยามนิสสัน ลำนารายณ์ สาขาพัฒนานิคม จำกัด","displayRegistration":"จ3-95(1)-2/40ลบ","province":"ลพบุรี","district":"พัฒนานิคม","subdistrict":"ช่องสาริกา","industryType":"ซ่อมแซม บำรุงรักษารถยนต์","status":"ดำเนินกิจการ","lat":14.82948,"lon":100.90844},"20160000125409":{"id":"20160000125409","name":"ไซโล ธนาทรัพย์","owner":"นางสุภัทร เกรียงไกรลิปิกร","displayRegistration":"จ3-2(4)-1/40ลบ","province":"ลพบุรี","district":"ชัยบาดาล","subdistrict":"ชัยนารายณ์","industryType":"อบเมล็ดพืช และไซโล","status":"ดำเนินกิจการ","lat":15.20543,"lon":101.104},"20161100125406":{"id":"20161100125406","name":"-","owner":"นายมานิตย์ สมพันธ์","displayRegistration":"จ3-60-1/40ลบ","province":"ลพบุรี","district":"เมืองลพบุรี","subdistrict":"บ้านข่อย","industryType":"หล่อหลอมอลูมิเนียม","status":"ดำเนินกิจการ","lat":14.67294,"lon":100.52748},"20160000525392":{"id":"20160000525392","name":"ห้างหุ้นส่วนจำกัด เทียรประเสริฐ","owner":"ห้างหุ้นส่วนจำกัด เทียรประเสริฐ","displayRegistration":"จ3-58(1)-5/39ลบ","province":"ลพบุรี","district":"เมืองลพบุรี","subdistrict":"นิคมสร้างตนเอง","industryType":"ผลิตคอนกรีตผสมเสร็จ","status":"ดำเนินกิจการ","lat":14.78912,"lon":100.70172},"20160000325405":{"id":"20160000325405","name":"ยิ่งเฮงพืชผล","owner":"นายแก้ว บัวหลวงงาม","displayRegistration":"จ3-9(6)-3/40ลบ","province":"ลพบุรี","district":"ชัยบาดาล","subdistrict":"หนองยายโต๊ะ","industryType":"ทำมันเส้น","status":"ดำเนินกิจการ","lat":15.25575,"lon":101.2468},"20160900125400":{"id":"20160900125400","name":"-","owner":"นางสาวบุญเรือน เดชสนธิ","displayRegistration":"จ3-55-1/40ลบ","province":"ลพบุรี","district":"เมืองลพบุรี","subdistrict":"โพธิ์ตรุ","industryType":"ผลิตผลิตภัณฑ์เครื่องปั้นดินเผา","status":"ดำเนินกิจการ","lat":14.74148,"lon":100.53948},"20160100425402":{"id":"20160100425402","name":"อู่ธาราทิพย์การาจ","owner":"นายจิรพันธ์ ธนจิรคุณ","displayRegistration":"จ3-95(1)-4/40ลบ","province":"ลพบุรี","district":"เมืองลพบุรี","subdistrict":"ถนนใหญ่","industryType":"เคาะพ่นสีรถยนต์","status":"ดำเนินกิจการ","lat":14.81506,"lon":100.63363},"20161000125407":{"id":"20161000125407","name":"บริษัท นิยมชัยคอนกรีต จำกัด","owner":"บริษัท นิยมชัยคอนกรีต จำกัด","displayRegistration":"จ3-58(1)-1/40ลบ","province":"ลพบุรี","district":"ชัยบาดาล","subdistrict":"ม่วงค่อม","industryType":"ผลิตคอนกรีตผสมเสร็จ","status":"ดำเนินกิจการ","lat":15.08487,"lon":101.00648},"10160000225409":{"id":"10160000225409","name":"บริษัท เพอร์ฟอร์แมนซ์ รับเบอร์ จำกัด","owner":"บริษัท เพอร์ฟอร์แมนซ์ รับเบอร์ จำกัด","displayRegistration":"3-33-2/40ลบ","province":"ลพบุรี","district":"หนองม่วง","subdistrict":"หนองม่วง","industryType":"ทำพื้นรองเท้า","status":"ดำเนินกิจการ","lat":15.21935,"lon":100.65202},"20160200325403":{"id":"20160200325403","name":"บริษัท อีซูซุลพบุรี จำกัด","owner":"บริษัท อีซูซุลพบุรี จำกัด","displayRegistration":"จ3-95(1)-3/40ลบ","province":"ลพบุรี","district":"ชัยบาดาล","subdistrict":"นิคมลำนารายณ์","industryType":"ซ่อมและบำรุงรักษารถยนต์","status":"ดำเนินกิจการ","lat":15.2328,"lon":101.12622},"10160100225408":{"id":"10160100225408","name":"บริษัท แซนด์ แอนด์ ซอยล์ อุตสาหกรรม จำกัด","owner":"บริษัท แซนด์ แอนด์ ซอยล์ อุตสาหกรรม จำกัด","displayRegistration":"3-42(1)-2/40ลบ","province":"ลพบุรี","district":"เมืองลพบุรี","subdistrict":"โคกตูม","industryType":"ผลิตแคลเซี่ยมคาร์บอเนต","status":"ดำเนินกิจการ","lat":14.83944,"lon":100.85767},"20160600125403":{"id":"20160600125403","name":"บริษัท เจริญโภคภัณฑ์โปรดิ๊วส์ จำกัด","owner":"บริษัท เจริญโภคภัณฑ์โปรดิ๊วส์ จำกัด","displayRegistration":"จ3-43(1)-1/40ลบ","province":"ลพบุรี","district":"พัฒนานิคม","subdistrict":"พัฒนานิคม","industryType":"ผสมปุ๋ย","status":"ดำเนินกิจการ","lat":14.85333,"lon":100.97645},"10160300125416":{"id":"10160300125416","name":"บริษัท เพ็ทฟอร์ม (ไทยแลนด์) จำกัด","owner":"บริษัท เพ็ทฟอร์ม (ไทยแลนด์) จำกัด","displayRegistration":"3-53(5)-1/41ลบ","province":"ลพบุรี","district":"ท่าวุ้ง","subdistrict":"เขาสมอคอน","industryType":"ผลิตและฉีดบรรจุภัณฑ์พลาสติก (PRE FORM OF PET)","status":"ดำเนินกิจการ","lat":14.90226,"lon":100.46499},"20160100125408":{"id":"20160100125408","name":"โรงสีไฟซัวเจริญชัย 2","owner":"นายวุฒิชัย สุขสด","displayRegistration":"จ3-2(5)-1/40ลบ","province":"ลพบุรี","district":"บ้านหมี่","subdistrict":"สนามแจง","industryType":"อบและเก็บรักษาเมล็ดพืช","status":"ดำเนินกิจการ","lat":15.03614,"lon":100.52538},"20160100525409":{"id":"20160100525409","name":"บริษัท ไทยธาดากรุ๊ป จำกัด","owner":"บริษัท ไทยธาดากรุ๊ป จำกัด","displayRegistration":"จ3-95(1)-5/40ลบ","province":"ลพบุรี","district":"เมืองลพบุรี","subdistrict":"นิคมสร้างตนเอง","industryType":"ซ่อมรถยนต์","status":"ดำเนินกิจการ","lat":14.76738,"lon":100.71024},"20160500125404":{"id":"20160500125404","name":"บริษัท คอสต้า วูดเด็น แอนด์ ฟอเรสท์ จำกัด","owner":"บริษัท คอสต้า วูดเด็น แอนด์ ฟอเรสท์ จำกัด","displayRegistration":"จ3-36(1)-1/40ลบ","province":"ลพบุรี","district":"พัฒนานิคม","subdistrict":"พัฒนานิคม","industryType":"ทำเฟอร์นิเจอร์เครื่องเรือน และไม้แกะสลัก","status":"ดำเนินกิจการ","lat":14.86594,"lon":100.92766},"00160100125394":{"id":"00160100125394","name":"บริษัท บี.ฟู้ดส์ โปรดักส์ อินเตอร์เนชั่นแนล จำกัด","owner":"บริษัท บี.ฟู้ดส์ โปรดักส์ อินเตอร์เนชั่นแนล จำกัด","displayRegistration":"ศ3-15(2)-1/39ลบ","province":"ลพบุรี","district":"พัฒนานิคม","subdistrict":"ช่องสาริกา","industryType":"ผลิตขนไก่ป่น","status":"ดำเนินกิจการ","lat":14.82935,"lon":100.91044},"20160400125413":{"id":"20160400125413","name":"บริษัท โตโยต้าลพบุรีอุดมชัย ผู้จำหน่ายโตโยต้า จำกัด","owner":"บริษัท โตโยต้าลพบุรีอุดมชัย ผู้จำหน่ายโตโยต้า จำกัด","displayRegistration":"จ3-95(1)-1/41ลบ","province":"ลพบุรี","district":"เมืองลพบุรี","subdistrict":"ท่าศาลา","industryType":"ซ่อมแซมเครื่องยนต์, เคาะ พ่นสีรถยนต์","status":"ดำเนินกิจการ","lat":14.78433,"lon":100.6824},"10160100125418":{"id":"10160100125418","name":"ห้างหุ้นส่วนจำกัด โรงสีย่งเส็ง 5 (บ้านชี)","owner":"ห้างหุ้นส่วนจำกัด โรงสีย่งเส็ง 5 (บ้านชี)","displayRegistration":"3-9(1)-1/41ลบ","province":"ลพบุรี","district":"บ้านหมี่","subdistrict":"บ้านชี","industryType":"สีข้าวชนิดแยกแกลบแยกรำ กำลังสีสูงสุดของร้านสีข้าว 70 เกวียน/วัน","status":"ดำเนินกิจการ","lat":14.95664,"lon":100.48057},"10160000125427":{"id":"10160000125427","name":"บริษัท คิวเอ็ม อินเวนท์ จำกัด","owner":"บริษัท คิวเอ็ม อินเวนท์ จำกัด","displayRegistration":"3-53(5)-1/42ลบ","province":"ลพบุรี","district":"เมืองลพบุรี","subdistrict":"โคกตูม","industryType":"ทำพลาสติกเป็นแผ่น ชิ้น หรือรูปทรงต่าง ๆ รวมทั้งทำผลิตภัณฑ์สำหรับใช้เป็นฉนวน","status":"ดำเนินกิจการ","lat":14.85313,"lon":100.80162},"20160000125417":{"id":"20160000125417","name":"บริษัท แปซิฟิคเมล็ดพันธ์ จำกัด","owner":"บริษัท แปซิฟิคเมล็ดพันธ์ จำกัด","displayRegistration":"จ3-2(1)-1/41ลบ","province":"ลพบุรี","district":"เมืองลพบุรี","subdistrict":"โคกตูม","industryType":"อบ คัดเมล็ดพันธ์","status":"ดำเนินกิจการ","lat":14.81252,"lon":100.85587},"20160000125425":{"id":"20160000125425","name":"โรงงานปรับปรุงสภาพเมล็ดพันธ์พืช","owner":"สหกรณ์การเกษตรท่าวุ้ง จำกัด","displayRegistration":"จ3-2(1)-1/42ลบ","province":"ลพบุรี","district":"ท่าวุ้ง","subdistrict":"ท่าวุ้ง","industryType":"ผลิตเมล็ดพันธุ์พืช","status":"ดำเนินกิจการ","lat":14.80165,"lon":100.50045},"20160300125422":{"id":"20160300125422","name":"บริษัท โอเอแซดที จำกัด","owner":"บริษัท โอเอแซคที จำกัด","displayRegistration":"จ3-28(1)-1/42ลบ","province":"ลพบุรี","district":"ชัยบาดาล","subdistrict":"ท่าดินดำ","industryType":"ผลิตเสื้อสำเร็จรูป","status":"ดำเนินกิจการ","lat":15.12217,"lon":101.12236},"20160600125429":{"id":"20160600125429","name":"ห้างหุ้นส่วนจำกัด ลพบุรีรวมช่าง","owner":"บริษัท ลพบุรี รวมช่าง ซีเอ็นซี จำกัด","displayRegistration":"จ3-65-1/42ลบ","province":"ลพบุรี","district":"เมืองลพบุรี","subdistrict":"ท่าศาลา","industryType":"ซ่อมอุปกรณ์สำหรับเครื่องยนต์","status":"ดำเนินกิจการ","lat":14.78499,"lon":100.68224},"20160700125428":{"id":"20160700125428","name":"บริษัท พันธุ์เจริญ จำกัด","owner":"บริษัท พันธุ์เจริญ จำกัด","displayRegistration":"จ3-95(1)-1/42ลบ","province":"ลพบุรี","district":"เมืองลพบุรี","subdistrict":"ท่าศาลา","industryType":"ซ่อมรถยนต์และเครื่องยนต์","status":"ดำเนินกิจการ","lat":14.79673,"lon":100.6651},"20160000225423":{"id":"20160000225423","name":"-","owner":"นางสาวรุ่งรวี จันทร์ติวงศ์","displayRegistration":"จ3-9(1)-2/42ลบ","province":"ลพบุรี","district":"พัฒนานิคม","subdistrict":"ดีลัง","industryType":"สีข้าวชนิดแยกแกลบแยกรำ กำลังสีสูงสุด 12 เกวียน/วัน","status":"ดำเนินกิจการ","lat":14.93453,"lon":100.89558},"20160000325439":{"id":"20160000325439","name":"-","owner":"นายธนยศ กุลตาธนาศิริ","displayRegistration":"จ3-9(6)-3/43ลบ","province":"ลพบุรี","district":"ท่าหลวง","subdistrict":"ซับจำปา","industryType":"ทำมันเส้น","status":"ดำเนินกิจการ","lat":15.04503,"lon":101.20383},"20160000425437":{"id":"20160000425437","name":"NULL","owner":"นายลออง มะณี","displayRegistration":"จ3-9(6)-4/43ลบ","province":"ลพบุรี","district":"ท่าหลวง","subdistrict":"ซับจำปา","industryType":"ทำมันเส้น","status":"ดำเนินกิจการ","lat":15.07029,"lon":101.20796},"20160000225431":{"id":"20160000225431","name":"วุฒิชัยพืชผล","owner":"นางพิมพ์วดี ปี่ทอง","displayRegistration":"จ3-9(6)-2/43ลบ","province":"ลพบุรี","district":"ท่าหลวง","subdistrict":"หัวลำ","industryType":"ทำมันเส้น","status":"ดำเนินกิจการ","lat":14.95639,"lon":101.22425},"20160200125423":{"id":"20160200125423","name":"-","owner":"นางสาวสุกัลยา แผลงปัญญา","displayRegistration":"จ3-9(6)-1/42ลบ","province":"ลพบุรี","district":"ชัยบาดาล","subdistrict":"ซับตะเคียน","industryType":"ทำมันเส้น","status":"ดำเนินกิจการ","lat":15.11305,"lon":101.31495},"20160200125431":{"id":"20160200125431","name":"สมบูรณ์พานิช","owner":"นางผ่องพรรณ ศิริโรจนกุล","displayRegistration":"จ3-9(6)-1/43ลบ","province":"ลพบุรี","district":"ท่าหลวง","subdistrict":"หัวลำ","industryType":"ทำ มันเส้น","status":"ดำเนินกิจการ","lat":15.01209,"lon":101.27356},"20160300125430":{"id":"20160300125430","name":"โรงน้ำแข็ง แอล ที กรุ๊ป","owner":"นางภัทร์ธีนันท์ กังสวัสดิ์","displayRegistration":"จ3-14-1/43ลบ","province":"ลพบุรี","district":"พัฒนานิคม","subdistrict":"พัฒนานิคม","industryType":"ทำน้ำแข็งก้อนเล็ก","status":"ดำเนินกิจการ","lat":14.85464,"lon":101.01056},"10160100125426":{"id":"10160100125426","name":"บริษัท ลินเด้ (ประเทศไทย) จำกัด (มหาชน)","owner":"บริษัท ไทยอินดัสเตรียล แก๊ส จำกัด (มหาชน)","displayRegistration":"3-89-1/42ลบ","province":"ลพบุรี","district":"เมืองลพบุรี","subdistrict":"นิคมสร้างตนเอง","industryType":"ผลิตก๊าซไนโตรเจน","status":"ดำเนินกิจการ","lat":14.77777,"lon":100.69299},"10160100125434":{"id":"10160100125434","name":"บริษัท พลบุรี จำกัด","owner":"บริษัท พลบุรี จำกัด โดยนายธนะพงษ์ ธนาภิสิทธกุล","displayRegistration":"3-28(1)-1/43ลบ","province":"ลพบุรี","district":"พัฒนานิคม","subdistrict":"พัฒนานิคม","industryType":"ตัดเย็บเสื้อผ้าสำเร็จรูป","status":"ดำเนินกิจการ","lat":14.85431,"lon":100.98202},"20160000325421":{"id":"20160000325421","name":"โรงสีเทพธัญญะ","owner":"นายสุเทพ มนอัตระผดุง","displayRegistration":"จ3-9(1)-3/42ลบ","province":"ลพบุรี","district":"โคกสำโรง","subdistrict":"เพนียด","industryType":"สีข้าวชนิดแยกแกลบแยกรำ (กำลังสีสูงสุดของร้านสีข้าว 30 เกวียน/วัน)","status":"ดำเนินกิจการ","lat":15.07392,"lon":100.78742},"10160000225433":{"id":"10160000225433","name":"สหอินเตอร์ฟูดส์","owner":"บริษัท สหฟาร์ม จำกัด","displayRegistration":"3-4(3)-2/43ลบ","province":"ลพบุรี","district":"ชัยบาดาล","subdistrict":"ห้วยหิน","industryType":"ทำผลิตภัณฑ์อาหารสำเร็จรูปจากเนื้อสัตว์ เช่น ไก่ย่าง ไก่ทอด ไก่คลุกแป้ง","status":"ดำเนินกิจการ","lat":15.10718,"lon":101.00375},"10160000125435":{"id":"10160000125435","name":"บริษัท ผลิตภัณฑ์อาหารเพื่อสุขภาพ จำกัด","owner":"บริษัท ผลิตภัณฑ์อาหารเพื่อสุขภาพ จำกัด","displayRegistration":"3-4(3)-1/43ลบ","province":"ลพบุรี","district":"ชัยบาดาล","subdistrict":"ห้วยหิน","industryType":"ทำลูกชิ้น ไส้กรอก","status":"ดำเนินกิจการ","lat":15.10084,"lon":101.00967},"20160100125432":{"id":"20160100125432","name":"อุดมแสงทอง 2","owner":"นายกิติศักดิ์ เกตุพุก","displayRegistration":"จ3-9(1)-1/43ลบ","province":"ลพบุรี","district":"เมืองลพบุรี","subdistrict":"โพธิ์เก้าต้น","industryType":"สีข้าวชนิดแยกเกลบแยกรำ กำลังสีสูงสุด 24 เกวียน/วัน","status":"ดำเนินกิจการ","lat":14.78435,"lon":100.60488},"20160500125438":{"id":"20160500125438","name":"บริษัท เทอร์ราโก้ อินดัสตรี (ไทยแลนด์) จำกัด","owner":"บริษัท เทอร์ราโก้ อินดัสตรี (ไทยแลนด์) จำกัด","displayRegistration":"จ3-45(1)-1/43ลบ","province":"ลพบุรี","district":"เมืองลพบุรี","subdistrict":"โคกตูม","industryType":"ผลิตสีเคลือบผิวภายในและภายนอกอาคาร งานตบแต่งสิ่งปลูกสร้าง, ซีเมนต์ผสมพิเศษ เพื่องานตบแต่งอาคารและผลิตภัณฑ์ใช้ในการกันซึม","status":"ดำเนินกิจการ","lat":14.86057,"lon":100.79461},"20160100225430":{"id":"20160100225430","name":"ห้างหุ้นส่วนจำกัด บอสส์ไอซ์","owner":"ห้างหุ้นส่วนจำกัด บอสส์ไอซ์","displayRegistration":"จ3-14-2/43ลบ","province":"ลพบุรี","district":"พัฒนานิคม","subdistrict":"พัฒนานิคม","industryType":"ทำน้ำแข็งก้อนเล็กและน้ำแข็งซอง","status":"ดำเนินกิจการ","lat":14.84619,"lon":100.98367},"20160000725430":{"id":"20160000725430","name":"ร้านปัญญาพาณิชย์","owner":"นายปัญญา บุญบันดาลฤทธิ์","displayRegistration":"จ3-9(6)-7/43ลบ","province":"ลพบุรี","district":"ชัยบาดาล","subdistrict":"ท่ามะนาว","industryType":"แปลงสภาพมันหัวให้เป็นมันเส้น","status":"ดำเนินกิจการ","lat":15.16833,"lon":101.1741},"10160000225227":{"id":"10160000225227","name":"NULL","owner":"นายไล้ เทพอารักษ์","displayRegistration":"3-34(1)-2/22ลบ","province":"ลพบุรี","district":"โคกสำโรง","subdistrict":"โคกสำโรง","industryType":"ไสไม้และซอยไม้, ทำวงกบประตู-หน้าต่าง","status":"ดำเนินกิจการ","lat":15.06033,"lon":100.71798},"20160000125441":{"id":"20160000125441","name":"ห้างหุ้นส่วนจำกัด โรงสีชวนรำลึกรุ่งเรืองธัญญะกิจ","owner":"ห้างหุ้นส่วนจำกัด โรงสีชวนรำลึกรุ่งเรืองธัญญะกิจ","displayRegistration":"จ3-2(1)-1/44ลบ","province":"ลพบุรี","district":"บ้านหมี่","subdistrict":"สนามแจง","industryType":"อบเมล็ดพืชและสีข้าว กำลังสีสูงสุดของร้านสีข้าว 300 เกวียน/วัน","status":"ดำเนินกิจการ","lat":15.03697,"lon":100.53457},"10160100125442":{"id":"10160100125442","name":"บริษัท สหฟาร์ม จำกัด","owner":"บริษัท สหฟาร์ม จำกัด","displayRegistration":"3-101-1/44ลบ","province":"ลพบุรี","district":"ชัยบาดาล","subdistrict":"ห้วยหิน","industryType":"บำบัดของเสีย (ปรับคุณภาพน้ำเสีย)","status":"ดำเนินกิจการ","lat":15.09551,"lon":101.01607},"20161300125446":{"id":"20161300125446","name":"บริษัท กอร์ซาน อคูสติค (ประเทศไทย) จำกัด","owner":"บริษัท กอร์ซาน อคูสติค (ประเทศไทย) จำกัด","displayRegistration":"จ2-72-1/44ลบ","province":"ลพบุรี","district":"เมืองลพบุรี","subdistrict":"โก่งธนู","industryType":"ประกอบลำโพงขนาดเล็กสำหรับเครื่องโทรศัพท์","status":"ดำเนินกิจการ","lat":14.67453,"lon":100.60082},"20160500125446":{"id":"20160500125446","name":"บริษัท สำราญกิจ จำกัด","owner":"บริษัท สำราญกิจ 1994 จำกัด","displayRegistration":"จ3-50(1)-1/44ลบ","province":"ลพบุรี","district":"ชัยบาดาล","subdistrict":"นาโสม","industryType":"ผลิตแอสฟัลท์ติดคอนกรีต","status":"ดำเนินกิจการ","lat":15.23955,"lon":101.28133},"20160500125453":{"id":"20160500125453","name":"ห้างหุ้นส่วนจำกัด ช.อิมหลีค้าเหล็ก 1999","owner":"ห้างหุ้นส่วนจำกัด ช.อิมหลีค้าเหล็ก 1999","displayRegistration":"จ3-64(11)-1/45ลบ","province":"ลพบุรี","district":"เมืองลพบุรี","subdistrict":"นิคมสร้างตนเอง","industryType":"อัดเศษเหล็กและเศษกระดาษ","status":"ดำเนินกิจการ","lat":14.7682,"lon":100.7075},"20160000225449":{"id":"20160000225449","name":"โรงสีข้าวสหกรณ์การเกษตร ท่าวุ้ง จำกัด","owner":"สหกรณ์การเกษตร ท่าวุ้ง จำกัด","displayRegistration":"จ3-9(1)-2/44ลบ","province":"ลพบุรี","district":"ท่าวุ้ง","subdistrict":"ท่าวุ้ง","industryType":"สีข้าวชนิดแยกแกลบแยกรำ กำลังสีสูงสุดของร้านสีข้าว 40 เกวียน/วัน","status":"ดำเนินกิจการ","lat":14.80167,"lon":100.50046},"20160000425353":{"id":"20160000425353","name":"พ้งการช่าง","owner":"นายสิทธิชัย งามเลิศชัย","displayRegistration":"จ3-66-4/35ลบ","province":"ลพบุรี","district":"ชัยบาดาล","subdistrict":"ชัยนารายณ์","industryType":"ซ่อมอุปกรณ์การเกษตร","status":"ดำเนินกิจการ","lat":15.20393,"lon":101.06625},"20160300125448":{"id":"20160300125448","name":"แอล บี ฟู้ดส์","owner":"นายสุวัฒน์ เอนกศัลยพงศ์","displayRegistration":"จ3-10(1)-1/44ลบ","province":"ลพบุรี","district":"เมืองลพบุรี","subdistrict":"ป่าตาล","industryType":"ทำขนมปังและขนมเค็ก","status":"ดำเนินกิจการ","lat":14.78926,"lon":100.63477},"20160200125449":{"id":"20160200125449","name":"โรงสีไฟซัวเจริญชัย 2","owner":"นายวุฒิชัย สุขสด","displayRegistration":"จ3-9(1)-1/44ลบ","province":"ลพบุรี","district":"บ้านหมี่","subdistrict":"สนามแจง","industryType":"สีข้าวชนิดแยกแกลบแยกรำ กำลังสีสูงสุดของร้านสีข้าว 250 เกวียน/วัน","status":"ดำเนินกิจการ","lat":15.03614,"lon":100.52538},"20160400125447":{"id":"20160400125447","name":"ไทยกวงน้ำแข็งหลอด","owner":"นางจิตภินันท์ จำรูญพาณิชย์กุล","displayRegistration":"จ3-14-1/44ลบ","province":"ลพบุรี","district":"บ้านหมี่","subdistrict":"สนามแจง","industryType":"ผลิตน้ำแข็งก้อนเล็ก","status":"ดำเนินกิจการ","lat":15.03703,"lon":100.53298},"10160000225458":{"id":"10160000225458","name":"บริษัท ทีเอ็มพี ไรซ์ มิลล์ จำกัด","owner":"บริษัท ทีเอ็มพี ไรซ์ มิลล์ จำกัด","displayRegistration":"3-9(1)-2/45ลบ","province":"ลพบุรี","district":"ท่าวุ้ง","subdistrict":"เขาสมอคอน","industryType":"สีข้าวนึ่งและปรับปรุงคุณภาพข้าว","status":"ดำเนินกิจการ","lat":13.733302,"lon":100.51417},"00160000125361":{"id":"00160000125361","name":"บริษัท มารวย ฟีดมิลล์ จำกัด","owner":"บริษัท มิตรภาพอาหารสัตว์ จำกัด","displayRegistration":"ศ3-15(1)-1/36ลบ","province":"ลพบุรี","district":"พัฒนานิคม","subdistrict":"พัฒนานิคม","industryType":"ผลิตอาหารสัตว์","status":"ดำเนินกิจการ","lat":14.84891,"lon":100.93417},"20160100125457":{"id":"20160100125457","name":"บริษัท ที.ดี.แดรี่ฟู้ดส์ จำกัด","owner":"บริษัท ที.ดี.แดรี่ฟู้ดส์ จำกัด","displayRegistration":"จ3-5(1)-1/45ลบ","province":"ลพบุรี","district":"พัฒนานิคม","subdistrict":"หนองบัว","industryType":"ผลิตนมพร้อมดื่มพลาสเจอร์ไรซ์","status":"ดำเนินกิจการ","lat":14.82785,"lon":101.07165},"10160100125459":{"id":"10160100125459","name":"บริษัท เอเชีย เพ็ท (ไทยแลนด์) จำกัด","owner":"บริษัท เอเชีย เพ็ท (ไทยแลนด์) จำกัด","displayRegistration":"3-44-1/45ลบ","province":"ลพบุรี","district":"ท่าวุ้ง","subdistrict":"เขาสมอคอน","industryType":"ผลิตโพลีเอทิลินเทเรฟทาเลท","status":"ดำเนินกิจการ","lat":14.90229,"lon":100.465},"20160700125451":{"id":"20160700125451","name":"บริษัท โนวา ซาวด์ จำกัด","owner":"บริษัท โนวา ซาวด์ จำกัด","displayRegistration":"จ3-72-1/45ลบ","province":"ลพบุรี","district":"เมืองลพบุรี","subdistrict":"เขาพระงาม","industryType":"ประกอบลำโพง","status":"ดำเนินกิจการ","lat":14.88868,"lon":100.66165},"20160300125455":{"id":"20160300125455","name":"บริษัท โกลเด้น ไลน์ บิสซิเนส จำกัด","owner":"บริษัท โกลเด้น ไลน์ บิสซิเนส จำกัด","displayRegistration":"จ3-46(2)-1/45ลบ","province":"ลพบุรี","district":"ชัยบาดาล","subdistrict":"ห้วยหิน","industryType":"ผลิตยาสัตว์","status":"ดำเนินกิจการ","lat":15.10932,"lon":101.02499},"20160000225456":{"id":"20160000225456","name":"ห้างหุ้นส่วนจำกัด กลุ่มผู้เลี้ยงโคนมเขื่อนป่าสัก","owner":"ห้างหุ้นส่วนจำกัด กลุ่มผู้เลี้ยงโคนมเขื่อนป่าสัก","displayRegistration":"จ3-5(1)-2/45ลบ","province":"ลพบุรี","district":"พัฒนานิคม","subdistrict":"พัฒนานิคม","industryType":"ผลิตนมสดให้ไร้เชื้อหรือฆ่าเชื้อโดยการพาสเจอร์ไรซ์","status":"ดำเนินกิจการ","lat":14.85803,"lon":101.01031},"10160000125450":{"id":"10160000125450","name":"บริษัท ลพบุรี สตาร์ช จำกัด","owner":"บริษัท ลพบุรี สตาร์ช จำกัด","displayRegistration":"3-9(2)-1/45ลบ","province":"ลพบุรี","district":"ชัยบาดาล","subdistrict":"นิคมลำนารายณ์","industryType":"ผลิตแป้งมันและผลิตพลังงานไฟฟ้าจากก๊าซชีวภาพ กำลังการผลิต 2.826 เมกะวัตต์ เพื่อใช้เองภายในโรงงาน","status":"ดำเนินกิจการ","lat":15.25736,"lon":101.17726},"20160200125464":{"id":"20160200125464","name":"บริษัท พี.วี.พัฒนานมสด จำกัด","owner":"บริษัท พี.วี.พัฒนานมสด จำกัด","displayRegistration":"จ3-5(1)-1/46ลบ","province":"ลพบุรี","district":"พัฒนานิคม","subdistrict":"พัฒนานิคม","industryType":"ทำนมสดโดยการฆ่าเชื้อ","status":"ดำเนินกิจการ","lat":14.85202,"lon":100.96514},"10160200125466":{"id":"10160200125466","name":"บริษัท เบทาโกรแลนด์ จำกัด","owner":"บริษัท เบทาโกรแลนด์ จำกัด","displayRegistration":"3-101-1/46ลบ","province":"ลพบุรี","district":"พัฒนานิคม","subdistrict":"ช่องสาริกา","industryType":"บำบัดน้ำเสีย","status":"ดำเนินกิจการ","lat":14.77557,"lon":100.92163},"10160000225466":{"id":"10160000225466","name":"บริษัท อาหารเบทเทอร์ จำกัด","owner":"บริษัท อาหารเบทเทอร์ จำกัด","displayRegistration":"3-4(3)-2/46ลบ","province":"ลพบุรี","district":"พัฒนานิคม","subdistrict":"ช่องสาริกา","industryType":"ผลิตอาหารสำเร็จรูปจากเนื้อสัตว์ เช่น ลูกชิ้นและไส้กรอก","status":"ดำเนินกิจการ","lat":14.77555,"lon":100.92157},"10160000125468":{"id":"10160000125468","name":"บริษัท เบทาโกร เกษตรอุตสาหกรรม จำกัด","owner":"บริษัท เบทาโกร เกษตรอุตสาหกรรม จำกัด","displayRegistration":"3-4(1)-1/46ลบ","province":"ลพบุรี","district":"พัฒนานิคม","subdistrict":"ช่องสาริกา","industryType":"ฆ่า ชำแหละ และตัดแต่งสุกร","status":"ดำเนินกิจการ","lat":14.7755,"lon":100.92153},"20160500125461":{"id":"20160500125461","name":"บริษัท เฌอร่า จำกัด (มหาชน)","owner":"บริษัท เฌอร่า จำกัด (มหาชน)","displayRegistration":"จ3-58(1)-1/46ลบ","province":"ลพบุรี","district":"พัฒนานิคม","subdistrict":"ช่องสาริกา","industryType":"ผลิตกระเบื้องคอนกรีตและอุปกรณ์ในการมุงหลังคาประกอบกระเบื้อง","status":"ดำเนินกิจการ","lat":14.80072,"lon":100.91191},"20160100325461":{"id":"20160100325461","name":"ห้างหุ้นส่วนจำกัด ลพบุรีหล่อยาง","owner":"ห้างหุ้นส่วนจำกัด ลพบุรีหล่อยาง","displayRegistration":"จ3-95(1)-3/46ลบ","province":"ลพบุรี","district":"เมืองลพบุรี","subdistrict":"ทะเลชุบศร","industryType":"ซ่อมช่วงล่างรถยนต์ ตั้งศูนย์ถ่วงล้อ ปะยาง","status":"ดำเนินกิจการ","lat":14.79975,"lon":100.63666},"20160700125444":{"id":"20160700125444","name":"บริษัท ลพบุรีพร้อมเซอร์วิส จำกัด","owner":"บริษัท ลพบุรีพร้อมเซอร์วิส จำกัด","displayRegistration":"จ3-73-1/44ลบ","province":"ลพบุรี","district":"เมืองลพบุรี","subdistrict":"กกโก","industryType":"ประกอบทรานสฟอร์เมอร์ มอเตอร์ ชิ้นส่วนอิเลคฯ อุปกรณ์แบบพิมพ์","status":"ดำเนินกิจการ","lat":14.76755,"lon":100.68866},"20160012425474":{"id":"20160012425474","name":"ห้างหุ้นส่วนจำกัด ไม้เด็ดก่อสร้าง","owner":"นางนวพรรรณ วงษ์ธนาพฤกษ์","displayRegistration":"จ3-58(1)-124/47ลบ","province":"ลพบุรี","district":"โคกสำโรง","subdistrict":"วังขอนขว้าง","industryType":"ทำคอนกรีตผสมเสร็จ","status":"ดำเนินกิจการ","lat":15.03364,"lon":100.69556},"00160000125338":{"id":"00160000125338","name":"โคกสำโรงน้ำแข็งหลอด","owner":"นางปรียา กังสวัสดิ์","displayRegistration":"ศ3-14-1/33ลบ","province":"ลพบุรี","district":"โคกสำโรง","subdistrict":"โคกสำโรง","industryType":"ทำน้ำแข็งก้อนเล็ก ได้วันละ 42.11 ตัน","status":"ดำเนินกิจการ","lat":15.07337,"lon":100.71511},"20160300325402":{"id":"20160300325402","name":"NULL","owner":"นายนัฎฐพงษ์ เหลืองทอง","displayRegistration":"จ2-9(1)-3/40ลบ","province":"ลพบุรี","district":"บ้านหมี่","subdistrict":"หนองเมือง","industryType":"สีข้าว","status":"ดำเนินกิจการ","lat":15.09618,"lon":100.56657},"20160300125463":{"id":"20160300125463","name":"พันธ์พืชผล","owner":"นายสุวิชาญ สมประสิทธิ์","displayRegistration":"จ3-15(1)-1/46ลบ","province":"ลพบุรี","district":"ชัยบาดาล","subdistrict":"เกาะรัง","industryType":"ทำมันเส้นและอัดกากอ้อย","status":"ดำเนินกิจการ","lat":15.31544,"lon":101.23966},"20160700125402":{"id":"20160700125402","name":"ลพบุรีพลาสติก","owner":"บริษัท ลพบุรีพลาสติก จำกัด","displayRegistration":"จ3-53(1)-1/40ลบ","province":"ลพบุรี","district":"เมืองลพบุรี","subdistrict":"โพธิ์เก้าต้น","industryType":"ผลิตภัณฑ์พลาสติก","status":"ดำเนินกิจการ","lat":14.77463,"lon":100.60135},"20160005025471":{"id":"20160005025471","name":"ห้างหุ้นส่วนจำกัด ปรีชานุกูลรุ่งเรืองกิจ","owner":"ห้างหุ้นส่วนจำกัด ปรีชานุกูลรุ่งเรืองกิจ","displayRegistration":"จ3-9(1)-50/47ลบ","province":"ลพบุรี","district":"เมืองลพบุรี","subdistrict":"กกโก","industryType":"สีข้าว กำลังผลิตสูงสุดของร้านสีข้าว 100 เกวียน/วัน","status":"ดำเนินกิจการ","lat":14.74916,"lon":100.65718},"10160000425470":{"id":"10160000425470","name":"บริษัท ผลิตขนไก่ป่นไทย จำกัด","owner":"บริษัท ผลิตขนไก่ป่นไทย จำกัด","displayRegistration":"3-15(2)-4/47ลบ","province":"ลพบุรี","district":"พัฒนานิคม","subdistrict":"โคกสลุง","industryType":"ผลิตอาหารสัตว์จากขนไก่ป่น","status":"ดำเนินกิจการ","lat":15.00431,"lon":100.9616},"10160000125476":{"id":"10160000125476","name":"บริษัท แอร์โปรดัคส์อินดัสตรีย์ จำกัด","owner":"บริษัท นิปปอนซันโซ่ (ไทยแลนด์) จำกัด","displayRegistration":"3-89-1/47ลบ","province":"ลพบุรี","district":"พัฒนานิคม","subdistrict":"ดีลัง","industryType":"ผลิตออกซิเจนเหลว ก๊าซออกซิเจน ไนโตรเจนเหลว ก๊าซไนโตรเจน อาร์กอนเหลว ก๊าซอาร์กอน","status":"ดำเนินกิจการ","lat":14.8643,"lon":100.9127},"10160001325471":{"id":"10160001325471","name":"บริษัท อายิโนะโมะโต๊ะ เบทาโกร สเปเชียลตี้ ฟู้ดส์ จำกัด","owner":"บริษัท อายิโนะโมะโต๊ะ เบทาโกร สเปเชียลตี้ ฟู้ดส์ จำกัด","displayRegistration":"3-4(3)-13/47ลบ","province":"ลพบุรี","district":"พัฒนานิคม","subdistrict":"ช่องสาริกา","industryType":"ผลิตอาหารสำเร็จรูปและกึ่งสำเร็จรูปจากเนื้อสัตว์","status":"ดำเนินกิจการ","lat":14.77563,"lon":100.92251},"20160010625471":{"id":"20160010625471","name":"ห้างหุ้นส่วนจำกัด ใบแก้วคอนกรีต(2004)","owner":"ห้างหุ้นส่วนจำกัด ใบแก้วคอนกรีต (2004)","displayRegistration":"จ3-58(1)-106/47ลบ","province":"ลพบุรี","district":"โคกสำโรง","subdistrict":"คลองเกตุ","industryType":"ทำคอนกรีตผสมเสร็จ","status":"ดำเนินกิจการ","lat":15.06966,"lon":100.7504},"20160100125440":{"id":"20160100125440","name":"โรงสีไฟยงสวัสดิ์","owner":"นายธวัชชัย โฆษิตาภรณ์","displayRegistration":"จ3-2(5)-1/44ลบ","province":"ลพบุรี","district":"โคกสำโรง","subdistrict":"คลองเกตุ","industryType":"อบพืชหรือเมล็ดพืชด้วยไซโล","status":"หยุดชั่วคราว","lat":15.06879,"lon":100.74383},"20160000125433":{"id":"20160000125433","name":"สหกรณ์การเกษตรบ้านหมี่ จำกัด","owner":"สหกรณ์การเกษตรบ้านหมี่ จำกัด","displayRegistration":"จ3-2(1)-1/43ลบ","province":"ลพบุรี","district":"บ้านหมี่","subdistrict":"โพนทอง","industryType":"ผลิตเมล็ดพันธุ์ข้าว","status":"ดำเนินกิจการ","lat":15.03623,"lon":100.54947},"20160600125445":{"id":"20160600125445","name":"ห้างหุ้นส่วนจำกัด ปึงเกียงเส็งธุรกิจคอนกรีต 2000","owner":"ห้างหุ้นส่วนจำกัด งามยิ่งเจริญคอนกรีต","displayRegistration":"จ3-58(1)-1/44ลบ","province":"ลพบุรี","district":"บ้านหมี่","subdistrict":"สนามแจง","industryType":"ผลิตคอนกรีตผสมเสร็จ","status":"ดำเนินกิจการ","lat":15.03491,"lon":100.51213},"10160300125390":{"id":"10160300125390","name":"NULL","owner":"นายวิเชียร ศรีแตง","displayRegistration":"3-77(1)-1/39ลบ","province":"ลพบุรี","district":"เมืองลพบุรี","subdistrict":"ท่าศาลา","industryType":"สร้าง-ประกอบดัดแปลงสภาพรถยนต์","status":"ดำเนินกิจการ","lat":14.79414,"lon":100.68274},"20160000425460":{"id":"20160000425460","name":"ธีรโชตเจริญกิจ 2","owner":"นางสุนันทา หนูทอง","displayRegistration":"จ3-2(1)-4/46ลบ","province":"ลพบุรี","district":"ท่าวุ้ง","subdistrict":"ท่าวุ้ง","industryType":"อบลดความชื้นและกองเก็บรักษาข้าวเปลือก","status":"ดำเนินกิจการ","lat":14.80279,"lon":100.50098},"20160100125465":{"id":"20160100125465","name":"บริษัท ท่าหลวงเกษตร จำกัด","owner":"บริษัท ท่าหลวงเกษตร จำกัด","displayRegistration":"จ3-2(2)-1/46ลบ","province":"ลพบุรี","district":"ชัยบาดาล","subdistrict":"ม่วงค่อม","industryType":"ผลิตและจำหน่ายเมล็ดทานตะวัน และธัญญพืช","status":"ดำเนินกิจการ","lat":15.05299,"lon":101.02247},"20160100325354":{"id":"20160100325354","name":"บริษัท บี.ฟูดส์โปรดักส์ อินเตอร์เนชั่นแนล จำกัด","owner":"นายสุรชัย แต้ไพสิฐพงษ์","displayRegistration":"จ1-2(11)-3/35ลบ","province":"ลพบุรี","district":"พัฒนานิคม","subdistrict":"โคกสลุง","industryType":"ฟักไข่","status":"ดำเนินกิจการ","lat":15.266795,"lon":101.118745},"20160000325462":{"id":"20160000325462","name":"บริษัท ทรายทองธรณี 1996 จำกัด","owner":"บริษัท ทรายทองธรณี 1996 จำกัด","displayRegistration":"จ3-3(2)-3/46ลบ","province":"ลพบุรี","district":"พัฒนานิคม","subdistrict":"โคกสลุง","industryType":"ขุดตักดินลูกรัง","status":"ดำเนินกิจการ","lat":15.00492,"lon":100.97435},"20160000125458":{"id":"20160000125458","name":"บริษัท พีพี ฟู้ด ลพบุรี จำกัด","owner":"บริษัท พีพีฟู้ดลพบุรี จำกัด","displayRegistration":"จ3-4(1)-1/45ลบ","province":"ลพบุรี","district":"ท่าวุ้ง","subdistrict":"บ้านเบิก","industryType":"ฆ่าและชำแหละไก่","status":"ดำเนินกิจการ","lat":14.72292,"lon":100.49435},"20160100225463":{"id":"20160100225463","name":"โรงงานผลิตภัณฑ์นม วิทยาลัยเกษตรเทคโนโลยี","owner":"วิทยาลัยเกษตรและ เทคโนโลยีลพบุรี","displayRegistration":"จ3-5(1)-2/46ลบ","province":"ลพบุรี","district":"พัฒนานิคม","subdistrict":"พัฒนานิคม","industryType":"ผลิตนมพาสเจอร์ไรส์","status":"ดำเนินกิจการ","lat":14.88402,"lon":100.9797},"20161400125403":{"id":"20161400125403","name":"บริษัท ไทยกรีนเทค จำกัด","owner":"บริษัท ไทยกรีนเทค จำกัด","displayRegistration":"จ3-97-1/40ลบ","province":"ลพบุรี","district":"พัฒนานิคม","subdistrict":"หนองบัว","industryType":"ผลิตและประกอบชิ้นส่วนเครื่องจักร","status":"ดำเนินกิจการ","lat":14.82962,"lon":101.06756},"20160100225406":{"id":"20160100225406","name":"ห้างหุ้นส่วนจำกัด พิกเพาเวอร์กรุ๊ป 2555","owner":"ห้างหุ้นส่วนจำกัด พิกเพาเวอร์กรุ๊ป2555","displayRegistration":"จ3-58(1)-2/40ลบ","province":"ลพบุรี","district":"เมืองลพบุรี","subdistrict":"ถนนใหญ่","industryType":"ผลิตคอนกรีต (รอแจ้ง)","status":"ดำเนินกิจการ","lat":14.82732,"lon":100.63177},"20160004825475":{"id":"20160004825475","name":"-","owner":"นางสาวนาตยา ทัพวิเศษ","displayRegistration":"จ3-3(2)-48/47ลบ","province":"ลพบุรี","district":"พัฒนานิคม","subdistrict":"โคกสลุง","industryType":"ขุดตักดินลูกรัง","status":"ดำเนินกิจการ","lat":14.97537,"lon":101.00308},"20160004925481":{"id":"20160004925481","name":"ห้างหุ้นส่วนจำกัด ข้าวไทยรุ่งเรือง","owner":"ห้างหุ้นส่วนจำกัด ข้าวไทยรุ่งเรือง","displayRegistration":"จ3-9(1)-49/48ลบ","province":"ลพบุรี","district":"เมืองลพบุรี","subdistrict":"โคกกะเทียม","industryType":"สีข้าว ชนิดแยกแกลบแยกรำ ขนาด 300 เกวียน/วัน และอบข้าวลดความชื้น","status":"ดำเนินกิจการ","lat":14.8768,"lon":100.58447},"10160000725481":{"id":"10160000725481","name":"บริษัท เบทาโกร จำกัด (มหาชน)","owner":"บริษัท เบทาโกร จำกัด (มหาชน)","displayRegistration":"3-15(1)-7/48ลบ","province":"ลพบุรี","district":"พัฒนานิคม","subdistrict":"ช่องสาริกา","industryType":"ผลิตอาหารสัตว์สำเร็จรูป และส่วนผสมอาหารสัตว์","status":"ดำเนินกิจการ","lat":14.80999,"lon":100.90728},"20160000425387":{"id":"20160000425387","name":"บริษัท คิวมิกซ์ซัพพลาย จำกัด","owner":"บริษัท คิวมิกซ์ซัพพลาย จำกัด","displayRegistration":"จ3-58(1)-4/38ลบ","province":"ลพบุรี","district":"เมืองลพบุรี","subdistrict":"นิคมสร้างตนเอง","industryType":"ผลิตคอนกรีตผสมเสร็จ","status":"ดำเนินกิจการ","lat":14.777031,"lon":100.697059},"20160004225486":{"id":"20160004225486","name":"บริษัท ปุ๋ยอินทรีย์ชีวภาพลพบุรี จำกัด","owner":"บริษัท ปุ๋ยอินทรีย์ชีวภาพลพบุรี จำกัด","displayRegistration":"จ3-43(1)-42/48ลบ","province":"ลพบุรี","district":"ท่าวุ้ง","subdistrict":"ท่าวุ้ง","industryType":"ผลิตปุ๋ยอินทรีย์","status":"ดำเนินกิจการ","lat":14.80279,"lon":100.50098},"20160000825487":{"id":"20160000825487","name":"บริษัท ทรัพย์รุ่งเรือง เอ็นจิเนียริ่ง แอนด์ ซัพพลาย จำกัด","owner":"บริษัท ทรัพย์รุ่งเรือง เอ็นจิเนียริ่ง แอนด์ ซัพพลาย จำกัด (สาขาที่ 2)","displayRegistration":"จ3-64(6)-8/48ลบ","province":"ลพบุรี","district":"บ้านหมี่","subdistrict":"สนามแจง","industryType":"ทำผลิตภัณฑ์จากโลหะ เช่น โครงสร้างเครื่องจักร","status":"ดำเนินกิจการ","lat":15.03554,"lon":100.51222},"20160009625482":{"id":"20160009625482","name":"คอนกรีตผสมเสร็จ ลพบุรี-ท่าวุ้ง","owner":"นางกนิษฐา จิระพันธุ์วาณิช","displayRegistration":"จ3-58(1)-96/48ลบ","province":"ลพบุรี","district":"ท่าวุ้ง","subdistrict":"ท่าวุ้ง","industryType":"คอนกรีตผสมเสร็จ","status":"ดำเนินกิจการ","lat":14.82141,"lon":100.49784},"10160002525483":{"id":"10160002525483","name":"บริษัท ชลสิทธิ์โฟรเซ่นฟูดส์ จำกัด","owner":"บริษัท ชลสิทธิ์โฟรเซ่นฟูดส์ จำกัด","displayRegistration":"3-92-25/48ลบ","province":"ลพบุรี","district":"พัฒนานิคม","subdistrict":"ดีลัง","industryType":"ห้องเย็น","status":"ดำเนินกิจการ","lat":14.83863,"lon":100.91147},"10160000425488":{"id":"10160000425488","name":"บริษัท โกลเด้นฟีด เอ็นเตอร์ไพรส์ จำกัด","owner":"บริษัท โกลเด้นฟีด เอ็นเตอร์ไพรส์ จำกัด","displayRegistration":"3-15(2)-4/48ลบ","province":"ลพบุรี","district":"โคกสำโรง","subdistrict":"วังเพลิง","industryType":"ผลิตขนไก่ป่น","status":"ดำเนินกิจการ","lat":15.06607,"lon":100.89466},"20160000725489":{"id":"20160000725489","name":"บริษัท เบ็ทเทอร์ฟาร์ม่า จำกัด","owner":"บริษัท เบ็ทเทอร์ฟาร์ม่า จำกัด","displayRegistration":"จ3-46(2)-7/48ลบ","province":"ลพบุรี","district":"พัฒนานิคม","subdistrict":"ช่องสาริกา","industryType":"การผลิตวัตถุที่มุ่งหมายสำหรับใช้ในการวิเคราะห์ บำบัด บรรเทา รักษา หรือป้องกันโรค หรือความเจ็บป่วยของมนุษย์หรือสัตว์","status":"ดำเนินกิจการ","lat":14.78443,"lon":100.91316},"20160008525485":{"id":"20160008525485","name":"โรงสียิ่งเจริญธัญญกิจ","owner":"นายบุญธรรม จะมา","displayRegistration":"จ3-9(1)-85/48ลบ","province":"ลพบุรี","district":"เมืองลพบุรี","subdistrict":"โคกลำพาน","industryType":"สีข้าวขนิดแยกแกลบแยกรำ 300 เกวียน / วัน","status":"ดำเนินกิจการ","lat":14.75205,"lon":100.64458},"20160002525481":{"id":"20160002525481","name":"บริษัท เบ็ทเทอร์ฟาร์ม่า จำกัด","owner":"บริษัท เบ็ทเทอร์ฟาร์ม่า จำกัด","displayRegistration":"จ3-15(1)-25/48ลบ","province":"ลพบุรี","district":"พัฒนานิคม","subdistrict":"ช่องสาริกา","industryType":"การทำอาหารผสม หรืออาหารสำเร็จรูปสำหรับเลี้ยงสัตว์","status":"ดำเนินกิจการ","lat":14.78456,"lon":100.91315},"10160000325498":{"id":"10160000325498","name":"บริษัท ซีโนสยามไบโอเทคนิค จำกัด","owner":"บริษัท ชิโนสยามไบโอเทคนิค จำกัด","displayRegistration":"3-4(3)-3/49ลบ","province":"ลพบุรี","district":"พัฒนานิคม","subdistrict":"ช่องสาริกา","industryType":"ผลิตวัตถุดิบสำหรับอาหารเสริม","status":"ดำเนินกิจการ","lat":14.78104,"lon":100.91332},"20160010825485":{"id":"20160010825485","name":"ห้างหุ้นส่วนจำกัด รุ่งเรืองรัตน์","owner":"ห้างหุ้นส่วนจำกัด รุ่งเรืองรัตน์","displayRegistration":"จ3-9(1)-108/48ลบ","province":"ลพบุรี","district":"โคกสำโรง","subdistrict":"เพนียด","industryType":"สีข้าว กำลังสีสูงสุดของร้านสีข้าว 350 เกวียน/วัน ปรับปรุงคุณภาพ ขัด อบความร้อน ข้าวเปลือก ข้าวสาร พืชไร่ทุกชนิด ปริมาณ 500 ตัน/วัน และเก็บรักษาพืชไร่ทุกชนิด","status":"ดำเนินกิจการ","lat":15.07527,"lon":100.79698},"10160000325340":{"id":"10160000325340","name":"นิยมชัยปูนขาว","owner":"ห้างหุ้นส่วนจำกัด ศิลานิยมชัย","displayRegistration":"3-57(1)-3/34ลบ","province":"ลพบุรี","district":"ชัยบาดาล","subdistrict":"นาโสม","industryType":"ทำปูนขาว","status":"ดำเนินกิจการ","lat":15.23972,"lon":101.28133},"20160100125424":{"id":"20160100125424","name":"ชัยเทพวัฒนา","owner":"นายพรชัย เมธาศักดิ์","displayRegistration":"จ3-9(1)-1/42ลบ","province":"ลพบุรี","district":"ชัยบาดาล","subdistrict":"ม่วงค่อม","industryType":"สีข้าวชนิดแยกแกลบแยกรำ (กำลังสีสูงสุดของร้านสีข้าว 25 เกวียน/วัน","status":"ดำเนินกิจการ","lat":15.05758,"lon":100.97143},"20160001225489":{"id":"20160001225489","name":"บริษัท แมชชีนฮาร์เวสติ้ง จำกัด","owner":"บริษัท แมชชีนฮาร์เวสติ้ง จำกัด","displayRegistration":"จ3-36(1)-12/48ลบ","province":"ลพบุรี","district":"หนองม่วง","subdistrict":"หนองม่วง","industryType":"การทำภาชนะบรรจุจากไม้ เช่น รังผึ้งและส่วนประกอบที่ใช้กับรังผึ้ง","status":"ดำเนินกิจการ","lat":15.24142,"lon":100.65343},"10160100125368":{"id":"10160100125368","name":"บริษัท บี.ฟู้ดส์ โปรดักส์ อินเตอร์เนชั่นแนล จำกัด","owner":"บริษัท บี.ฟู้ดส์ โปรดักส์ อินเตอร์เนชั่นแนล จำกัด","displayRegistration":"3-4(1)-1/36ลบ","province":"ลพบุรี","district":"พัฒนานิคม","subdistrict":"ช่องสาริกา","industryType":"การฆ่าสัตว์และชำแหละไก่ ปรุงสุกไก่ย่างเสียบไม้","status":"ดำเนินกิจการ","lat":14.82918,"lon":100.91048},"10160000125153":{"id":"10160000125153","name":"โรงสีเซ่งย้ง","owner":"นายทนงศักดิ์ จิววัฒนารักษ์","displayRegistration":"3-9(1)-1/15ลบ","province":"ลพบุรี","district":"เมืองลพบุรี","subdistrict":"โคกลำพาน","industryType":"สีข้าวชนิดแยกแกลบแยกรำ กำลังสีสูงสุดของร้านสีข้าว 30 เกวียน/วัน","status":"ดำเนินกิจการ","lat":14.75941,"lon":100.6423},"10160000125260":{"id":"10160000125260","name":"บริษัท อินเตอร์ โฟกัส ฟู้ด จำกัด","owner":"บริษัท อินเตอร์ โฟกัส ฟู้ด จำกัด","displayRegistration":"3-12(11)-1/26ลบ","province":"ลพบุรี","district":"เมืองลพบุรี","subdistrict":"เขาสามยอด","industryType":"ทำไอศครีม","status":"ดำเนินกิจการ","lat":14.82023,"lon":100.64881},"10160200125367":{"id":"10160200125367","name":"บริษัท จีซีบีซี จำกัด","owner":"บริษัท จีซีบีซี จำกัด","displayRegistration":"3-37-1/36ลบ","province":"ลพบุรี","district":"ท่าหลวง","subdistrict":"แก่งผักกูด","industryType":"ผลิตแผ่นอัดจากกากอ้อย ได้ 60000 ลูกบาศก์เมตรต่อปี","status":"ดำเนินกิจการ","lat":15.04608,"lon":101.09056},"20160400125363":{"id":"20160400125363","name":"บริษัท สำรวยการค้าลพบุรี จำกัด","owner":"บริษัท สำรวยการค้าลพบุรี จำกัด","displayRegistration":"จ3-40(1)-1/36ลบ","province":"ลพบุรี","district":"โคกสำโรง","subdistrict":"โคกสำโรง","industryType":"อัดเศษกระดาษ,ตัดเศษโลหะ,และอัดเศษโลหะ","status":"ดำเนินกิจการ","lat":15.0641,"lon":100.71421},"10160000325480":{"id":"10160000325480","name":"ห้างหุ้นส่วนจำกัด กรีนไอซ์ ชัยบาดาล","owner":"ห้างหุ้นส่วนจำกัดกรีนไอซ์ ชัยบาดาล","displayRegistration":"3-14-3/48ลบ","province":"ลพบุรี","district":"ชัยบาดาล","subdistrict":"นิคมลำนารายณ์","industryType":"ผลิตน้ำดื่ม น้ำแข็งก้อนเล็กวันละ 45 ตัน น้ำแข็งซองวันละ 721 ซอง","status":"ดำเนินกิจการ","lat":15.26227,"lon":101.18827},"20160006125486":{"id":"20160006125486","name":"บริษัท ชิโนระสา จำกัด","owner":"บริษัท ชิโนระสา จำกัด","displayRegistration":"จ3-3(2)-61/48ลบ","province":"ลพบุรี","district":"พัฒนานิคม","subdistrict":"โคกสลุง","industryType":"ขุดตักกรวด ดินลูกรัง","status":"ดำเนินกิจการ","lat":14.97638,"lon":101.00096},"20160000125516":{"id":"20160000125516","name":"บริษัท ร็อคซ เวิลด์ อินดัสทรี้ จำกัด","owner":"บริษัท ร๊อคช เวิลด์ อินดัสทรี้ จำกัด","displayRegistration":"จ3-58(3)-1/51ลบ","province":"ลพบุรี","district":"เมืองลพบุรี","subdistrict":"โคกตูม","industryType":"ทำผลิตภัณฑ์จากหินแคลเซียม","status":"ดำเนินกิจการ","lat":14.8655523918947,"lon":100.79554162703},"20160010825519":{"id":"20160010825519","name":"ก๊อปเปอร์มาร์กเฟอร์นิเจอร์","owner":"นางสาวธนัชพร คุ้นมาก","displayRegistration":"จ3-37-108/51ลบ","province":"ลพบุรี","district":"ชัยบาดาล","subdistrict":"ลำนารายณ์","industryType":"ทำเครื่องเรือนจากไม้","status":"ดำเนินกิจการ","lat":15.217776,"lon":101.140121},"20160019125507":{"id":"20160019125507","name":"นางทัศนี วังเจริญ","owner":"นางทัศนี วังเจริญ","displayRegistration":"จ3-105-191/50ลบ","province":"ลพบุรี","district":"เมืองลพบุรี","subdistrict":"โคกตูม","industryType":"คัดแยกวัสดุที่ไม่ใช้แล้วที่ไม่เป็นของเสียอันตราย ได้แก่ การคัดแยกพลาสติกกระดาษ","status":"ดำเนินกิจการ","lat":14.85005,"lon":100.81425},"20160003725502":{"id":"20160003725502","name":"ศิริศิลป์เกษตรอุตสาหกรรม","owner":"นายศิริศักดิ์ ศรีเจริญศิลป์","displayRegistration":"จ3-2(1)-37/50ลบ","province":"ลพบุรี","district":"พัฒนานิคม","subdistrict":"หนองบัว","industryType":"อบ กระเทาะ เก็บรักษา คัด หรือแยกขนาดเมล็ดพืช","status":"ดำเนินกิจการ","lat":14.83323,"lon":101.05996},"20160014525503":{"id":"20160014525503","name":"บริษัท โตโยต้าลพบุรีอุดมชัย ผู้จำหน่ายโตโยต้า จำกัด","owner":"บริษัท โตโยต้าลพบุรีอุดมชัย ผู้จำหน่ายโตโยต้า จำกัด","displayRegistration":"จ3-95(1)-145/50ลบ","province":"ลพบุรี","district":"เมืองลพบุรี","subdistrict":"กกโก","industryType":"ซ่อมแซมรถยนต์ หรือส่วนประกอบของรถยนต์","status":"ดำเนินกิจการ","lat":14.78437,"lon":100.68249},"20160032725507":{"id":"20160032725507","name":"บริษัท ฐาวิตี อินเตอร์เนชั่นแนล กรุ๊ป จำกัด","owner":"บริษัท ฐาวิตี อินเตอร์เนชั่นแนล กรุ๊ป จำกัด","displayRegistration":"จ3-3(2)-327/50ลบ","province":"ลพบุรี","district":"พัฒนานิคม","subdistrict":"โคกสลุง","industryType":"ขุดตักดินลูกรัง","status":"ดำเนินกิจการ","lat":15.00408,"lon":100.96905},"20160004325500":{"id":"20160004325500","name":"K.M.T พลาสติก","owner":"นายปรีชา เครือกาบ","displayRegistration":"จ3-53(4)-43/50ลบ","province":"ลพบุรี","district":"เมืองลพบุรี","subdistrict":"เขาพระงาม","industryType":"ผลิตขวดพลาสติก","status":"ดำเนินกิจการ","lat":14.99478,"lon":100.66285},"20160103725501":{"id":"20160103725501","name":"ห้างหุ้นส่วนจำกัด ลัทธสิทธิ์การค้า","owner":"ห้างหุ้นส่วนจำกัด ลัทธสิทธิ์การค้า","displayRegistration":"จ3-36(1)-37/50ลบ","province":"ลพบุรี","district":"ชัยบาดาล","subdistrict":"ศิลาทิพย์","industryType":"ผลิตไม้พาเลท และชิ้นส่วน","status":"ดำเนินกิจการ","lat":15.29428,"lon":101.09997},"20160003125505":{"id":"20160003125505","name":"มาลัยบารมี","owner":"นางมาลัย บารมี","displayRegistration":"จ3-53(9)-31/50ลบ","province":"ลพบุรี","district":"โคกสำโรง","subdistrict":"โคกสำโรง","industryType":"ล้าง บด ย่อยพลาสติก","status":"ดำเนินกิจการ","lat":15.0641,"lon":100.71421},"20160044925509":{"id":"20160044925509","name":"NULL","owner":"นายสุชาติ นาคบุรินทร์","displayRegistration":"จ3-3(2)-449/50ลบ","province":"ลพบุรี","district":"พัฒนานิคม","subdistrict":"พัฒนานิคม","industryType":"ขุดดิน","status":"ดำเนินกิจการ","lat":14.85677,"lon":101.01796},"10160000125518":{"id":"10160000125518","name":"บริษัท เอส.พี.ฟิงเกอร์ฮัท จำกัด","owner":"บริษัท เอส.พี.ฟิงเกอร์ฮัท จำกัด","displayRegistration":"3-15(2)-1/51ลบ","province":"ลพบุรี","district":"พัฒนานิคม","subdistrict":"พัฒนานิคม","industryType":"ผลิตขนไก่ป่น เนื้อป่น กระดูกป่น","status":"ดำเนินกิจการ","lat":14.86857,"lon":100.92767},"10160000125443":{"id":"10160000125443","name":"บริษัท โรงสีโชควรลักษณ์รุ่งเรืองกิจ จำกัด","owner":"บริษัท โรงสีโชควรลักษณ์รุ่งเรืองกิจ จำกัด","displayRegistration":"3-9(1)-1/44ลบ","province":"ลพบุรี","district":"ท่าวุ้ง","subdistrict":"โพตลาดแก้ว","industryType":"สีข้าว แยกแกลบแยกรำกำลังสีสูงสุดของร้านสีข้าว 300 เกวียน/วัน","status":"ดำเนินกิจการ","lat":14.78231,"lon":100.56549},"20160004025506":{"id":"20160004025506","name":"บริษัท เค.พี. อะโกร อินดัสทรี้ (ลพบุรี) จำกัด","owner":"บริษัท เค.พี.อะโกร อินดัสทรี้ (ลพบุรี) จำกัด","displayRegistration":"จ3-2(1)-40/50ลบ","province":"ลพบุรี","district":"พัฒนานิคม","subdistrict":"ดีลัง","industryType":"ให้บริการลดความชื้นและปรับปรุงสภาพเมล็ดพันธุ์","status":"ดำเนินกิจการ","lat":14.87088,"lon":100.90905},"10160000225516":{"id":"10160000225516","name":"บริษัท ทรัพย์ทิพย์ จำกัด","owner":"บริษัท ทรัพย์ทิพย์ จำกัด","displayRegistration":"3-17-2/51ลบ","province":"ลพบุรี","district":"ชัยบาดาล","subdistrict":"นิคมลำนารายณ์","industryType":"ผลิตเอทานอลเพื่อใช้เป็นเชื้อเพลิง กำลังการผลิต 200,000 ลิตรต่อวัน","status":"ดำเนินกิจการ","lat":15.250815,"lon":101.175299},"20160003425517":{"id":"20160003425517","name":"บริษัท เค เค พัฒนาการเกษตร จำกัด","owner":"บริษัท เค เค พัฒนาการเกษตร จำกัด","displayRegistration":"จ3-43(1)-34/51ลบ","province":"ลพบุรี","district":"พัฒนานิคม","subdistrict":"หนองบัว","industryType":"ผลิตปุ๋ยอินทรีย์ชีวภาพชนิดเม็ด","status":"ดำเนินกิจการ","lat":14.89283,"lon":101.04387},"20160002025516":{"id":"20160002025516","name":"บริษัท ศิริมงคลชัย จำกัด","owner":"บริษัท ศิริมงคลชัย จำกัด","displayRegistration":"จ3-2(1)-20/51ลบ","province":"ลพบุรี","district":"บ้านหมี่","subdistrict":"หนองทรายขาว","industryType":"อบข้าวเปลือก","status":"ดำเนินกิจการ","lat":14.9928311801072,"lon":100.578649681862},"20160011625512":{"id":"20160011625512","name":"โดการช่าง","owner":"นายเดือน สลุงอยู่","displayRegistration":"จ3-95(1)-116/51ลบ","province":"ลพบุรี","district":"เมืองลพบุรี","subdistrict":"ทะเลชุบศร","industryType":"ซ่อมรถยนต์","status":"ดำเนินกิจการ","lat":14.795619,"lon":100.637528},"20160000725513":{"id":"20160000725513","name":"โรงกลึงชัยมอเตอร์ พี ที 2","owner":"นายวิศาล อรรจนาวัฒน์","displayRegistration":"จ3-66-7/51ลบ","province":"ลพบุรี","district":"ชัยบาดาล","subdistrict":"ชัยนารายณ์","industryType":"ผลิตและซ่อมอุปกรณ์การเกษตร","status":"ดำเนินกิจการ","lat":15.22219,"lon":101.12786},"20160022925505":{"id":"20160022925505","name":"บริษัท เซเม็กซ์ (ประเทศไทย) จำกัด","owner":"บริษัท เซเม็กซ์ (ประเทศไทย) จำกัด","displayRegistration":"จ3-3(2)-229/50ลบ","province":"ลพบุรี","district":"พัฒนานิคม","subdistrict":"ชอนน้อย","industryType":"การขุดกรวดหรือดิน","status":"ดำเนินกิจการ","lat":14.7711,"lon":100.96429},"20160023025503":{"id":"20160023025503","name":"บริษัท เซเม็กซ์ (ประเทศไทย) จำกัด","owner":"บริษัท เซเม็กซ์ (ประเทศไทย) จำกัด","displayRegistration":"จ3-3(2)-230/50ลบ","province":"ลพบุรี","district":"พัฒนานิคม","subdistrict":"ชอนน้อย","industryType":"การขุดกรวดหรือดิน","status":"ดำเนินกิจการ","lat":14.7816,"lon":100.98006},"20160000325496":{"id":"20160000325496","name":"ห้างหุ้นส่วนจำกัด ส.เสริมสร้างพืชผล","owner":"ห้างหุ้นส่วนจำกัด ส.เสริมสร้างพืชผล (2005)","displayRegistration":"จ3-2(9)-3/49ลบ","province":"ลพบุรี","district":"ชัยบาดาล","subdistrict":"ลำนารายณ์","industryType":"ผลิตเมล็ดพันธุ์พืชทุกชนิด","status":"ดำเนินกิจการ","lat":15.19796,"lon":101.14809},"20160003425491":{"id":"20160003425491","name":"ห้างหุ้นส่วนจำกัด วราภรณ์การเกษตร","owner":"ห้างหุ้นส่วนจำกัด วราภรณ์การเกษตร","displayRegistration":"จ3-43(1)-34/49ลบ","province":"ลพบุรี","district":"หนองม่วง","subdistrict":"ดงดินแดง","industryType":"ทำปุ๋ย","status":"ดำเนินกิจการ","lat":15.37168,"lon":100.72885},"20160003325493":{"id":"20160003325493","name":"ศรีพงษ์พานิช","owner":"นายสุรพงษ์ หาษดำรงกุล","displayRegistration":"จ3-2(1)-33/49ลบ","province":"ลพบุรี","district":"ชัยบาดาล","subdistrict":"ท่ามะนาว","industryType":"อบเมล็ดข้าวโพดและพืชไร่อื่นๆ , ปอกหัวพืชหรือทำให้เป็นเส้นหรือแว่นของพืชไร่ต่าง ๆ เช่น มันสำปะหลัง เป็นต้น","status":"ดำเนินกิจการ","lat":15.18827,"lon":101.16065},"10160000925495":{"id":"10160000925495","name":"บริษัท คิง สตาร์ช จำกัด","owner":"บริษัท คิง สตาร์ช จำกัด","displayRegistration":"3-9(2)-9/49ลบ","province":"ลพบุรี","district":"พัฒนานิคม","subdistrict":"หนองบัว","industryType":"ผลิตแป้งข้าวโพดและแป้งจากธัญพืช","status":"ดำเนินกิจการ","lat":14.89204,"lon":101.04465},"20160004225494":{"id":"20160004225494","name":"ธวัฒน์ชัยอบเมล็ดพืช","owner":"นายธวัฒน์ชัย เกรียงไกรลิปิกร","displayRegistration":"จ3-2(1)-42/49ลบ","province":"ลพบุรี","district":"ชัยบาดาล","subdistrict":"ชัยนารายณ์","industryType":"อบเมล็ดพืช","status":"ดำเนินกิจการ","lat":15.20547,"lon":101.10417},"10160000825497":{"id":"10160000825497","name":"บริษัท บลูเวฟ สตาร์ช จำกัด","owner":"บริษัท บลูเวฟ สตาร์ช จำกัด","displayRegistration":"3-9(2)-8/49ลบ","province":"ลพบุรี","district":"ชัยบาดาล","subdistrict":"ศิลาทิพย์","industryType":"ผลิตแป้งมันสำปะหลัง และแป้งมันดัดแปร","status":"ดำเนินกิจการ","lat":15.34402,"lon":101.20116},"20160004525497":{"id":"20160004525497","name":"ห้างหุ้นส่วนจำกัด อรุณรัชช์ วอเตอร์ แอนด์ ไอซ์","owner":"ห้างหุ้นส่วนจำกัด อรุณรัชช์ วอเตอร์ แอนด์ ไอซ์","displayRegistration":"จ3-14-45/49ลบ","province":"ลพบุรี","district":"พัฒนานิคม","subdistrict":"ช่องสาริกา","industryType":"ผลิตน้ำแข็งก้อนเล็ก และการทำน้ำดื่ม","status":"ดำเนินกิจการ","lat":14.8173,"lon":100.92175},"20160014525495":{"id":"20160014525495","name":"บริษัท เหอเซิงไท่ จำกัด","owner":"บริษัท กรุงเทพ ผลิตภัณฑ์ ยิบซั่ม จำกัด","displayRegistration":"จ3-58(1)-145/49ลบ","province":"ลพบุรี","district":"พัฒนานิคม","subdistrict":"ช่องสาริกา","industryType":"ผลิตแผ่นยิปซัม เช่น ฝ้า เพดาน ผนังผื้น","status":"ดำเนินกิจการ","lat":14.78473,"lon":100.90662},"20160002325494":{"id":"20160002325494","name":"ห้างหุ้นส่วนจำกัด ชูศิลปการเกษตร","owner":"ห้างหุ้นส่วนจำกัด ชูศิลปการเกษตร","displayRegistration":"จ3-66-23/49ลบ","province":"ลพบุรี","district":"ชัยบาดาล","subdistrict":"ชัยนารายณ์","industryType":"ผลิตเครื่องมือการเกษตร","status":"ดำเนินกิจการ","lat":15.18512,"lon":101.07485},"20160100125507":{"id":"20160100125507","name":"มั้งกี้บริวผับ (โรงแรมลพบุรีอินน์)","owner":"บริษัท ลพบุรีกิจวัฒนา จำกัด","displayRegistration":"จ3-19(2)-1/50ลบ","province":"ลพบุรี","district":"เมืองลพบุรี","subdistrict":"ทะเลชุบศร","industryType":"ผลิตเบียร์ เพื่อเป็นของชำรวย และบริการลูกค้า","status":"ดำเนินกิจการ","lat":14.79941,"lon":100.64871},"10160014425490":{"id":"10160014425490","name":"บริษัท ดีคอนโปรดักส์ จำกัด (มหาชน)","owner":"บริษัท ดีตอนโปรดักส์ จำกัด (มหาชน)","displayRegistration":"3-58(1)-144/49ลบ","province":"ลพบุรี","district":"พัฒนานิคม","subdistrict":"ช่องสาริกา","industryType":"ผลิตวัสดุก่อสร้าง","status":"ดำเนินกิจการ","lat":14.77737,"lon":100.93968},"10160011025541":{"id":"10160011025541","name":"บริษัท พัฒนาพลังงานธรรมชาติ จำกัด โดยนายวรมน เป๊ก ขำขนิษฐ์","owner":"บริษัท พัฒนาพลังงานธรรมชาติ จำกัด โดยนายวรมน เป๊ก ขำขนิษฐ์","displayRegistration":"3-88(1)-110/54ลบ","province":"ลพบุรี","district":"โคกสำโรง","subdistrict":"วังเพลิง","industryType":"ผลิตพลังงานไฟฟ้าขนาด 8 เมกะวัตต์ (NET AC) หรือเทียบเท่า 10 MW DC","status":"ดำเนินกิจการ","lat":15.0531919031657,"lon":100.891258183789},"20160002325544":{"id":"20160002325544","name":"นิคมพืชผล","owner":"นายภูวสิชณ์ หวังศุภกิจโกศล","displayRegistration":"จ3-9(6)-23/54ลบ","province":"ลพบุรี","district":"ชัยบาดาล","subdistrict":"ซับตะเคียน","industryType":"ทำมันเส้น ได้เดือน 330 ตัน","status":"ดำเนินกิจการ","lat":15.11215,"lon":101.31223},"20160000725539":{"id":"20160000725539","name":"บริษัท วายเคเจ จำกัด","owner":"บริษัท วายเคเจ จำกัด","displayRegistration":"จ3-47(1)-7/53ลบ","province":"ลพบุรี","district":"บ้านหมี่","subdistrict":"บางพึ่ง","industryType":"ผลิตโรลออนจากสารส้ม","status":"ดำเนินกิจการ","lat":14.9978626687174,"lon":100.482875459897},"20160011125539":{"id":"20160011125539","name":"บริษัท ลพบุรีฮอนด้าคาร์ส์ จำกัด","owner":"บริษัท ลพบุรีฮอนด้าคาร์ส์ จำกัด","displayRegistration":"จ3-95(1)-111/53ลบ","province":"ลพบุรี","district":"เมืองลพบุรี","subdistrict":"ท่าศาลา","industryType":"ซ่อมเครื่องยนต์","status":"ดำเนินกิจการ","lat":14.7847,"lon":100.68175},"20160002825535":{"id":"20160002825535","name":"ห้างหุ้นส่วนจำกัด เทียรประเสริฐ","owner":"ห้างหุ้นส่วนจำกัด เทียรประเสริฐ","displayRegistration":"จ3-50(4)-28/53ลบ","province":"ลพบุรี","district":"เมืองลพบุรี","subdistrict":"โคกตูม","industryType":"ผลิตแอสฟัลท์คอนกรีต","status":"ดำเนินกิจการ","lat":14.7517499953241,"lon":100.744562438692},"20160000525541":{"id":"20160000525541","name":"ห้างหุ้นส่วนจำกัด เทียรประเสริฐ","owner":"ห้างหุ้นส่วนจำกัด เทียรประเสริฐ","displayRegistration":"จ3-58(1)-5/54ลบ","province":"ลพบุรี","district":"เมืองลพบุรี","subdistrict":"นิคมสร้างตนเอง","industryType":"ผลิตท่อคอนกรีตอัดแรง","status":"ดำเนินกิจการ","lat":14.7517499953241,"lon":100.744562438692},"20160006325532":{"id":"20160006325532","name":"ร้านปรีชาฟาร์มาซี (แผนกเกษตร)","owner":"นายปรีชา มานะยิ่งเมต","displayRegistration":"จ3-2(1)-63/53ลบ","province":"ลพบุรี","district":"พัฒนานิคม","subdistrict":"ดีลัง","industryType":"อบข้าวโพด","status":"ดำเนินกิจการ","lat":14.845354,"lon":100.904863},"20160001925534":{"id":"20160001925534","name":"อุตสาหกรรมห้องเย็นพูลทรัพย์สิน","owner":"นายธงชัย แก้วเริงฤทธิ์","displayRegistration":"จ3-92-19/53ลบ","province":"ลพบุรี","district":"เมืองลพบุรี","subdistrict":"ป่าตาล","industryType":"ห้องเย็น","status":"ดำเนินกิจการ","lat":14.76725,"lon":100.64988},"10160000625533":{"id":"10160000625533","name":"บริษัท ยูเนี่ยนลิงค์ จำกัด","owner":"บริษัท แซนด์ แอนด์ ซอยล์ อุตสาหกรรม จำกัด","displayRegistration":"3-42(1)-6/53ลบ","province":"ลพบุรี","district":"เมืองลพบุรี","subdistrict":"โคกตูม","industryType":"ผลิตแคลเซียมคอมเปาด์และทัลคั่มคอมเปาด์","status":"ดำเนินกิจการ","lat":14.8508376380585,"lon":100.86013861627},"10160002925543":{"id":"10160002925543","name":"ชัยบาดาลวู้ดชิพ","owner":"บริษัท คันนา จำกัด","displayRegistration":"3-34(4)-29/54ลบ","province":"ลพบุรี","district":"ชัยบาดาล","subdistrict":"เขาแหลม","industryType":"ผลิตชิ้นไม้สับจากไม้ที่ปลูกขึ้นโดยเฉพาะ 13 ชนิด ตามมติคณะรัฐมนตรีเพื่อจำหน่าย","status":"ดำเนินกิจการ","lat":15.053881,"lon":100.965529},"10160000225284":{"id":"10160000225284","name":"วิรัชการช่าง","owner":"นางสาวเรณู วิรัชพินทุ","displayRegistration":"3-66-2/28ลบ","province":"ลพบุรี","district":"ชัยบาดาล","subdistrict":"ชัยนารายณ์","industryType":"ผลิตและซ่อมชิ้นส่วนอุปกรณ์รถไถ","status":"ดำเนินกิจการ","lat":15.21121,"lon":101.12993},"10160100225234":{"id":"10160100225234","name":"อู่รวมช่าง","owner":"นายหง่าน วงษ์สุวรรณ","displayRegistration":"3-66-2/23ลบ","province":"ลพบุรี","district":"ชัยบาดาล","subdistrict":"ลำนารายณ์","industryType":"กลึง-เชื่อมโลหะและซ่อมอุปกรณ์การเกษตร","status":"ดำเนินกิจการ","lat":15.20852,"lon":101.13532},"10160000225318":{"id":"10160000225318","name":"ไทยทวีพืชผล","owner":"นางหริน สีพันธ์","displayRegistration":"3-9(6)-2/31ลบ","province":"ลพบุรี","district":"ชัยบาดาล","subdistrict":"ลำนารายณ์","industryType":"ทำมันเส้น ได้เดือนละ 3 ตัน","status":"ดำเนินกิจการ","lat":15.18274,"lon":101.10945},"10160000525238":{"id":"10160000525238","name":"ติ่งบริการ 2","owner":"นางไพรัตน์ อินทร","displayRegistration":"3-66-5/23ลบ","province":"ลพบุรี","district":"ชัยบาดาล","subdistrict":"ชัยนารายณ์","industryType":"กลึง เชื่อมโลหะ ซ่อมอุปกรณ์การเกษตร","status":"ดำเนินกิจการ","lat":15.21109,"lon":101.11932},"10160100125335":{"id":"10160100125335","name":"บริษัท แอพพลายเค็ม (ประเทศไทย) จำกัด","owner":"บริษัท แอพพลายเค็ม (ประเทศไทย) จำกัด","displayRegistration":"3-43(1)-1/33ลบ","province":"ลพบุรี","district":"ชัยบาดาล","subdistrict":"ลำนารายณ์","industryType":"ผสมปุ๋ยเกร็ด ปุ๋ยน้ำ และอาหารเสริมพืช","status":"ดำเนินกิจการ","lat":15.2343,"lon":101.15252},"00160000225336":{"id":"00160000225336","name":"โรงน้ำแข็งชัยบาดาล","owner":"นางอุษณีย์ ตรีพรชัยศักดิ์","displayRegistration":"ศ3-14-2/33ลบ","province":"ลพบุรี","district":"ชัยบาดาล","subdistrict":"ชัยนารายณ์","industryType":"ทำน้ำแข็ง ได้วันละ 256 ซอง","status":"ดำเนินกิจการ","lat":15.22347,"lon":101.12923},"10160000725291":{"id":"10160000725291","name":"ตี๋ใหญ่การช่าง","owner":"นายแสงเพชร งามเลิศชัย","displayRegistration":"3-66-7/29ลบ","province":"ลพบุรี","district":"ชัยบาดาล","subdistrict":"ชัยนารายณ์","industryType":"ซ่อมแซมเครื่องจักรและอุปกรณ์ของเครื่องจักรสำหรับใช้ในการก","status":"ดำเนินกิจการ","lat":15.21459,"lon":101.12758},"00160000225351":{"id":"00160000225351","name":"โรงวงกบลพบุรี","owner":"นายประดิษฐ์ สกุลสุวรรณ","displayRegistration":"ศ3-34(2)-2/35ลบ","province":"ลพบุรี","district":"เมืองลพบุรี","subdistrict":"เขาสามยอด","industryType":"ทำวงกบ บานประตู-หน้าต่างจากไม้","status":"ดำเนินกิจการ","lat":14.80818,"lon":100.65976},"10160000125351":{"id":"10160000125351","name":"ลพบุรีหล่อยาง","owner":"นายสมโภชน์ ทำเสมอดี","displayRegistration":"3-51-1/35ลบ","province":"ลพบุรี","district":"เมืองลพบุรี","subdistrict":"นิคมสร้างตนเอง","industryType":"หล่อดอกยางรถยนต์ กำลังผลิต 3,600 เส้น/ปี","status":"ดำเนินกิจการ","lat":14.7763,"lon":100.69502},"10160012325544":{"id":"10160012325544","name":"อีเนอร์คิว ห้วยหิน 2","owner":"บริษัท อีเนอร์คิว จำกัด","displayRegistration":"3-88(1)-123/54ลบ","province":"ลพบุรี","district":"ชัยบาดาล","subdistrict":"เขาแหลม","industryType":"ผลิตไฟฟ้าด้วยแสงอาทิตย์ ขนาด 1.25 เมกกะวัตต์","status":"ดำเนินกิจการ","lat":15.0786156359714,"lon":100.970615696711},"10160000425249":{"id":"10160000425249","name":"สหพันธ์พานิช","owner":"นายณรงค์ฤทธิ์ ปรีชานุกูล","displayRegistration":"3-9(1)-4/24ลบ","province":"ลพบุรี","district":"เมืองลพบุรี","subdistrict":"นิคมสร้างตนเอง","industryType":"สีข้าว กำลังสีสูงสุดของร้านสีข้าว 12 เกวียน/วัน","status":"ดำเนินกิจการ","lat":14.7806,"lon":100.68973},"20160002025540":{"id":"20160002025540","name":"บริษัท หวังดี เอ็นเนอยี่ จำกัด","owner":"บริษัท หวังดี เอ็นเนอยี จำกัด","displayRegistration":"จ3-89-20/54ลบ","province":"ลพบุรี","district":"ชัยบาดาล","subdistrict":"นิคมลำนารายณ์","industryType":"ผลิตก๊าซชีวภาพ","status":"ดำเนินกิจการ","lat":15.25736,"lon":101.17726},"10160300125291":{"id":"10160300125291","name":"เรื่อนจำกลางลพบุรี","owner":"กรมราชทัณฑ์ กระทรวงมหาดไทย","displayRegistration":"3-37-1/29ลบ","province":"ลพบุรี","district":"เมืองลพบุรี","subdistrict":"ทะเลชุบศร","industryType":"ทำเครื่องเรือนจากไม้","status":"ดำเนินกิจการ","lat":14.79468,"lon":100.65129},"10160100125152":{"id":"10160100125152","name":"สุธารสลพบุรี","owner":"บริษัท สุธารส อินทิเกรชั่น จำกัด","displayRegistration":"3-53(4)-1/15ลบ","province":"ลพบุรี","district":"เมืองลพบุรี","subdistrict":"ทะเลชุบศร","industryType":"ทำถุงพลาสติก","status":"ดำเนินกิจการ","lat":14.7981,"lon":100.62377},"20160001025525":{"id":"20160001025525","name":"บริษัท ซัคเซซ ฟูล แฟคเทอรี่ แอนด์ แมนูแฟคเจอริ่ง จำกัด","owner":"บริษัท ซัคเซซ ฟูล แฟคเทอรี่ แอนด์ แมนูแฟคเจอริ่ง จำกัด","displayRegistration":"จ3-64(10)-10/52ลบ","province":"ลพบุรี","district":"เมืองลพบุรี","subdistrict":"โพธิ์เก้าต้น","industryType":"ชุบโลหะ","status":"ดำเนินกิจการ","lat":14.7573049380188,"lon":100.595892054035},"10160000325530":{"id":"10160000325530","name":"บริษัท อี 85 จำกัด","owner":"บริษัท อี 85 จำกัด","displayRegistration":"3-9(2)-3/53ลบ","province":"ลพบุรี","district":"ลำสนธิ","subdistrict":"หนองรี","industryType":"ผลิตแป้งจากมันสำปะหลัง (กำลังการผลิตแป้งหมาด 70 ตัน/วัน) ขยายกำลังการผลิตเพิ่มอีก 140 ตัน/วัน รวมกำลังการผลิต 210 ตัน/วัน, ผลิตก๊าซชีวภาพ และผลิตพลังงานไฟฟ้าจากก๊าซชีวภาพ","status":"ดำเนินกิจการ","lat":15.23347,"lon":101.31587},"10160100225291":{"id":"10160100225291","name":"บริษัท ลพบุรีน้ำแข็งหลอด จำกัด","owner":"บริษัท ลพบุรีน้ำแข็งหลอด จำกัด","displayRegistration":"3-14-2/29ลบ","province":"ลพบุรี","district":"เมืองลพบุรี","subdistrict":"ทะเลชุบศร","industryType":"ทำน้ำแข็งก้อนเล็ก ได้วันละ 65.99 ตัน","status":"ดำเนินกิจการ","lat":14.79376,"lon":100.63962},"10160000125237":{"id":"10160000125237","name":"โรงไสไม้ลพบุรี","owner":"นายประดิษฐ สกุลสุวรรณ","displayRegistration":"3-34(1)-1/23ลบ","province":"ลพบุรี","district":"เมืองลพบุรี","subdistrict":"เขาสามยอด","industryType":"ไสไม้","status":"ดำเนินกิจการ","lat":14.80824,"lon":100.65975},"10160000125211":{"id":"10160000125211","name":"บริษัท ศิลานิยมทองมา จำกัด","owner":"บริษัท ศิลานิยมทองมา จำกัด","displayRegistration":"3-3(1)-1/21ลบ","province":"ลพบุรี","district":"ชัยบาดาล","subdistrict":"นาโสม","industryType":"โม่ บด ย่อยหิน","status":"ดำเนินกิจการ","lat":15.2220460952216,"lon":101.147848782923},"10160000325159":{"id":"10160000325159","name":"บริษัท ศิลานิยมชัย จำกัด","owner":"บริษัท ศิลานิยมชัย จำกัด","displayRegistration":"3-3(1)-3/15ลบ","province":"ลพบุรี","district":"ชัยบาดาล","subdistrict":"นาโสม","industryType":"โม่ บด ย่อยหิน","status":"หยุดชั่วคราว","lat":15.2220460952216,"lon":101.147848782923},"10160000125310":{"id":"10160000125310","name":"โรงงานไซโลลำนารายณ์","owner":"บริษัท สหฟาร์ม จำกัด","displayRegistration":"3-2(5)-1/31ลบ","province":"ลพบุรี","district":"ชัยบาดาล","subdistrict":"นิคมลำนารายณ์","industryType":"อบพืชและไซโล","status":"ดำเนินกิจการ","lat":15.22788,"lon":101.12658},"00160200125344":{"id":"00160200125344","name":"บริษัท เบทาโกร จำกัด (มหาชน)","owner":"บริษัท เบทาโกร จำกัด (มหาชน)","displayRegistration":"ส3-15(1)-1/34ลบ","province":"ลพบุรี","district":"พัฒนานิคม","subdistrict":"ช่องสาริกา","industryType":"ผลิตอาหารสัตว์ผสมสำเร็จรูป และส่วนผสมอาหารสัตว์ สำหรบสัตว์น้ำ","status":"ดำเนินกิจการ","lat":14.81152,"lon":100.91129},"10160000525279":{"id":"10160000525279","name":"อุตสาหะวัฒนา","owner":"นางสมจิตร ปานขาว","displayRegistration":"3-9(1)-5/27ลบ","province":"ลพบุรี","district":"บ้านหมี่","subdistrict":"เชียงงา","industryType":"สีข้าวชนิดแยกแกลบแยกรำ (กำลังสีสูงสุดของร้านสีข้าว 12 เกวียน/วัน)","status":"ดำเนินกิจการ","lat":15.05138,"lon":100.53832},"20160300125364":{"id":"20160300125364","name":"รุ่งเรืองการช่าง","owner":"นายสุทัศน์ ชอบเพื่อน","displayRegistration":"จ3-34(2)-1/36ลบ","province":"ลพบุรี","district":"ท่าวุ้ง","subdistrict":"เขาสมอคอน","industryType":"ทำวงกบบานประตู-หน้าต่างจากไม้","status":"ดำเนินกิจการ","lat":14.91049,"lon":100.46788},"20160000325371":{"id":"20160000325371","name":"อู่ชัยยศบริการ","owner":"นายชูกิจ เจินสหกิจ","displayRegistration":"จ3-66-3/37ลบ","province":"ลพบุรี","district":"บ้านหมี่","subdistrict":"หินปัก","industryType":"ผลิต ประกอบ ดัดแปลง และซ่อมแซมเครื่องจักรสำหรับใช้ในการกสิกรรม","status":"ดำเนินกิจการ","lat":15.05218,"lon":100.57702},"10160000425264":{"id":"10160000425264","name":"ยนต์ประดิษฐ์","owner":"นายสมนึก พรประดิษฐ์","displayRegistration":"3-66-4/26ลบ","province":"ลพบุรี","district":"บ้านหมี่","subdistrict":"บ้านหมี่","industryType":"ผลิตและซ่อมรถไถนา","status":"ดำเนินกิจการ","lat":15.04092,"lon":100.54121},"10160000125179":{"id":"10160000125179","name":"สวัสดิ์บริการ","owner":"นางศรีอัมพร เอกบุตร","displayRegistration":"3-66-1/17ลบ","province":"ลพบุรี","district":"บ้านหมี่","subdistrict":"โพนทอง","industryType":"ประกอบรถไถนาขนาดเล็ก","status":"ดำเนินกิจการ","lat":15.04322,"lon":100.54502},"10160005725155":{"id":"10160005725155","name":"บริษัท ศิริมงคลชัย จำกัด","owner":"บริษัท ศิริมงคลชัย จำกัด","displayRegistration":"3-9(1)-57/15ลบ","province":"ลพบุรี","district":"บ้านหมี่","subdistrict":"หนองทรายขาว","industryType":"สีข้าว กำลังสีสูงสุดของร้านสีข้าว รวมเป็น 1000 เกวียน/วัน และอบข้าวเปลือก","status":"ดำเนินกิจการ","lat":14.99356,"lon":100.57885},"10160000825331":{"id":"10160000825331","name":"หนึ่งแทรกเตอร์","owner":"นายสมชัย ตรีจักรสังข์","displayRegistration":"3-66-8/33ลบ","province":"ลพบุรี","district":"บ้านหมี่","subdistrict":"บ้านกล้วย","industryType":"ซ่อมอุปกรณ์การเกษตร","status":"ดำเนินกิจการ","lat":15.04627,"lon":100.55931},"20160000425346":{"id":"20160000425346","name":"ห้างหุ้นส่วนจำกัด บุญฤทธิ์การเกษตร","owner":"ห้างหุ้นส่วนจำกัด บุญฤทธิ์การเกษตร","displayRegistration":"จ3-9(1)-4/34ลบ","province":"ลพบุรี","district":"บ้านหมี่","subdistrict":"บางพึ่ง","industryType":"สีข้าวชนิดแยกแกลบแยกรำ กำลังสีสูงสุดของร้านสีข้าว 500 เกวียน/วัน","status":"หยุดชั่วคราว","lat":14.96658,"lon":100.47744},"20160400125389":{"id":"20160400125389","name":"ห้างหุ้นส่วนจำกัด ใบแก้วก่อสร้าง (1995)","owner":"ห้างหุ้นส่วนจำกัด ใบแก้วก่อสร้าง","displayRegistration":"จ3-58(1)-1/38ลบ","province":"ลพบุรี","district":"โคกสำโรง","subdistrict":"คลองเกตุ","industryType":"ทำผลิตภัณฑ์คอนกรีต คอนกรีตบล๊อก แผ่นปูพื้น แผ่นพื้นสำเร็จ ท่อคอนกรีต เสาและเสาเข็ม วงส้วม","status":"ดำเนินกิจการ","lat":15.06975,"lon":100.75137},"20160500125362":{"id":"20160500125362","name":"บริษัท สำรวยการค้าลพบุรี จำกัด","owner":"บริษัท สำรวยการค้าลพบุรี จำกัด","displayRegistration":"จ3-53(9)-1/36ลบ","province":"ลพบุรี","district":"โคกสำโรง","subdistrict":"โคกสำโรง","industryType":"ล้าง บด ย่อยพลาสติก","status":"ดำเนินกิจการ","lat":15.0641,"lon":100.71421},"10160000125377":{"id":"10160000125377","name":"-","owner":"นางสาวดุษณีย์ แซ่เอี้ยว","displayRegistration":"3-9(1)-1/37ลบ","province":"ลพบุรี","district":"ลำสนธิ","subdistrict":"หนองรี","industryType":"สีข้าวโพดและข้าวฟ่าง","status":"ดำเนินกิจการ","lat":15.28584,"lon":101.34871},"10160200125375":{"id":"10160200125375","name":"บริษัท เด็มโก้เพาเวอร์ จำกัด","owner":"บริษัท เด็มโก้เพาเวอร์ จำกัด","displayRegistration":"3-100(6)-1/37ลบ","province":"ลพบุรี","district":"หนองม่วง","subdistrict":"บ่อทอง","industryType":"ชุบเคลือบผิวเหล็กด้วยสังกะสีแบบจุ่มร้อน","status":"ดำเนินกิจการ","lat":15.28098,"lon":100.63507},"20160700125360":{"id":"20160700125360","name":"บริษัท เด็มโก้เพาเวอร์ จำกัด","owner":"บริษัท เด็มโก้เพาเวอร์ จำกัด","displayRegistration":"จ3-64(14)-1/36ลบ","province":"ลพบุรี","district":"หนองม่วง","subdistrict":"บ่อทอง","industryType":"แปรรูปเหล็กรูปพรรณ และผลิตภัณฑ์โลหะเป็นอุปกรณ์ใช้ในงานก่อสร้าง งานระบบไฟฟ้าและงานอื่น","status":"ดำเนินกิจการ","lat":15.28098,"lon":100.63507},"10160000325266":{"id":"10160000325266","name":"อู่สมบัติเจริญยนต์","owner":"นายสมบัติ คำภูมี","displayRegistration":"3-65-3/26ลบ","province":"ลพบุรี","district":"ท่าหลวง","subdistrict":"ท่าหลวง","industryType":"ซ่อมชิ้นส่วนอุปกรณ์เครื่องยนต์","status":"ดำเนินกิจการ","lat":15.0682,"lon":101.09164},"20160000225381":{"id":"20160000225381","name":"ธีรโชติเจริญกิจ","owner":"บริษัท ทรงทรัพย์เจริญกิจ จำกัด","displayRegistration":"จ3-9(1)-2/38ลบ","province":"ลพบุรี","district":"ท่าวุ้ง","subdistrict":"บางคู้","industryType":"สีข้าว กำลังสีสูงสุดของร้านสีข้าว 220 เกวียน/วัน","status":"ดำเนินกิจการ","lat":14.81247,"lon":100.52387},"10160000125336":{"id":"10160000125336","name":"บริษัท อุตสาหกรรมน้ำตาล ที.เอ็น จำกัด","owner":"บริษัท อุตสาหกรรมน้ำตาล ที.เอ็น จำกัด","displayRegistration":"3-11(3)-1/33ลบ","province":"ลพบุรี","district":"ท่าหลวง","subdistrict":"แก่งผักกูด","industryType":"ผลิตน้ำตาลทรายดิบ น้ำตาลทรายขาวและน้ำตาลทรายขาวบริสุทธิ์ กำลังการผลิต 11,801 ตันอ้อยต่อวัน","status":"ดำเนินกิจการ","lat":15.04832,"lon":101.09302},"10160000125187":{"id":"10160000125187","name":"โรงสีบ้านคลอง","owner":"นายสุขสันต์ สุวรรณศรี","displayRegistration":"3-9(1)-1/18ลบ","province":"ลพบุรี","district":"สระโบสถ์","subdistrict":"มหาโพธิ","industryType":"สีข้าว (กำลังสีสูงสุดของร้านสีข้าว 6 เกวียน/วัน)","status":"ดำเนินกิจการ","lat":15.28703,"lon":100.82774},"20160000225530":{"id":"20160000225530","name":"บริษัท พี.เอส.เอช.เอ็กสปอร์ต อิมปอร์ต จำกัด","owner":"บริษัท พี.เอส.เอช. เอ็กสปอร์ต อิมปอร์ต จำกัด","displayRegistration":"จ3-2(1)-2/53ลบ","province":"ลพบุรี","district":"พัฒนานิคม","subdistrict":"ดีลัง","industryType":"อบข้าวโพด","status":"ดำเนินกิจการ","lat":14.904519,"lon":100.904922},"20160100525557":{"id":"20160100525557","name":"บริษัท บลูเวฟ เอ็นเนอยี่ จำกัด","owner":"บริษัท บลูเวฟ เอ็นเนอยี่ จำกัด","displayRegistration":"จ3-89-5/55ลบ","province":"ลพบุรี","district":"ชัยบาดาล","subdistrict":"ศิลาทิพย์","industryType":"ผลิต ส่ง และจำหน่ายก๊าซชีวภาพ 30,000 ลบม./วัน","status":"ดำเนินกิจการ","lat":15.3452173874676,"lon":101.203181595019},"20160000225373":{"id":"20160000225373","name":"ศักดาบอดี้เซอร์วิส","owner":"ห้างหุ้นส่วนจำกัด ศักดาบอดี้เซอร์วิส","displayRegistration":"จ3-95(1)-2/37ลบ","province":"ลพบุรี","district":"เมืองลพบุรี","subdistrict":"พรหมมาสตร์","industryType":"เคาะพ่นสีรถยนต์,ซ่อมเครื่องยนต์","status":"ดำเนินกิจการ","lat":14.80924,"lon":100.59914},"20160102325543":{"id":"20160102325543","name":"ห้างหุ้นส่วนจำกัด เขาพระงามคอนสตรัคชั่น","owner":"ห้างหุ้นส่วนจำกัด เขาพระงามคอนสตรัคชั่น","displayRegistration":"จ3-50(4)-23/54ลบ","province":"ลพบุรี","district":"เมืองลพบุรี","subdistrict":"ท่าแค","industryType":"ผลิตยางแอสฟัลท์ติกคอนกรีต","status":"ดำเนินกิจการ","lat":14.8902312895506,"lon":100.623381254371},"20160001725512":{"id":"20160001725512","name":"บริษัท ร็อคคลา ไฟน์ อาร์ท จำกัด","owner":"บริษัท ร็อคคลา ไฟน์ อาร์ท จำกัด","displayRegistration":"จ3-60-17/51ลบ","province":"ลพบุรี","district":"ท่าวุ้ง","subdistrict":"ท่าวุ้ง","industryType":"หล่อบรอนซ์ ตกแต่ง ขัด ทำสี","status":"ดำเนินกิจการ","lat":14.82451,"lon":100.4737},"20160002625513":{"id":"20160002625513","name":"บริษัท ชวรักษ์ จำกัด","owner":"บริษัท ชวรักษ์ จำกัด","displayRegistration":"จ3-64(12)-26/51ลบ","province":"ลพบุรี","district":"หนองม่วง","subdistrict":"บ่อทอง","industryType":"ผลิตท่อประปาเหล็กเหนียวและอุปกรณ์ประกอบท่อทุกประเภท","status":"ดำเนินกิจการ","lat":15.28132,"lon":100.63646},"10160100125236":{"id":"10160100125236","name":"บริษัท ลิ้มอิมหลีค้าเหล็ก จำกัด","owner":"บริษัท ลิ้มอิมหลีค้าเหล็ก จำกัด","displayRegistration":"3-64(11)-1/23ลบ","province":"ลพบุรี","district":"เมืองลพบุรี","subdistrict":"ป่าตาล","industryType":"อัดเศษเหล็กและเศษกระดาษ คัดแยกวัสดุที่ไม่ใช้แล้ว และอัดเศษโลหะปนเปื้อนน้ำมัน","status":"ดำเนินกิจการ","lat":14.78193,"lon":100.63824},"00160100125352":{"id":"00160100125352","name":"หัตถกรรมลพบุรี","owner":"นางสุภาภรณ์ สุริย์จามร","displayRegistration":"ศ3-34(2)-1/35ลบ","province":"ลพบุรี","district":"เมืองลพบุรี","subdistrict":"กกโก","industryType":"ทำวงกบ บานประตู-หน้าต่าง และไสไม้","status":"ดำเนินกิจการ","lat":14.76305,"lon":100.68253},"10160000525287":{"id":"10160000525287","name":"ชำนาญยนต์","owner":"นายไพรัช ธันยปาลิต","displayRegistration":"3-95(1)-5/28ลบ","province":"ลพบุรี","district":"โคกสำโรง","subdistrict":"โคกสำโรง","industryType":"ซ่อมรถยนต์","status":"ดำเนินกิจการ","lat":15.06436,"lon":100.72086},"10160000225367":{"id":"10160000225367","name":"ห้างหุ้นส่วนจำกัด พี.เค.คอนกรีต","owner":"ห้างหุ้นส่วนจำกัด พี.เค.คอนกรีต","displayRegistration":"3-58(1)-2/36ลบ","province":"ลพบุรี","district":"เมืองลพบุรี","subdistrict":"โพธิ์เก้าต้น","industryType":"ผลิตท่อระบายน้ำ คอนกรีตอัดแรง","status":"ดำเนินกิจการ","lat":14.79072,"lon":100.59435},"20160300225362":{"id":"20160300225362","name":"โรงงานคอนกรีตผสมเสร็จลพบุรี","owner":"บริษัท ปูนซิเมนต์ไทย (ท่าหลวง) จำกัด","displayRegistration":"จ3-58(1)-2/36ลบ","province":"ลพบุรี","district":"เมืองลพบุรี","subdistrict":"นิคมสร้างตนเอง","industryType":"ผลิตคอนกรีตผสมเสร็จ","status":"ดำเนินกิจการ","lat":14.79116,"lon":100.71111},"10160100125244":{"id":"10160100125244","name":"โรงสีไฟธาราเจริญ (1993)","owner":"ห้างหุ้นส่วนจำกัด โรงสีไฟธาราเจริญ (1993)","displayRegistration":"3-9(1)-1/24ลบ","province":"ลพบุรี","district":"เมืองลพบุรี","subdistrict":"ท่าศาลา","industryType":"สีข้าวชนิดแยกแกลบแยกรำ (กำลังสีสูงสุดของร้านสีข้าว 60 เกวียน/วัน)","status":"ดำเนินกิจการ","lat":14.7843,"lon":100.68335},"10160000225235":{"id":"10160000225235","name":"โรงเลื่อยจักรลพบุรี","owner":"นายประดิษฐ สกุลสุวรรณ","displayRegistration":"3-34(1)-2/23ลบ","province":"ลพบุรี","district":"เมืองลพบุรี","subdistrict":"เขาสามยอด","industryType":"เลื่อยไม้","status":"ดำเนินกิจการ","lat":14.80826,"lon":100.65979},"20160100125374":{"id":"20160100125374","name":"บริษัท ฟายน์ ออกานิก อินดัสตรี้ส์ (ประเทศไทย) จำกัด","owner":"บริษัท ฟายน์ ออกานิก อินดัสตรี้ส์ (ประเทศไทย) จำกัด","displayRegistration":"จ3-42(1)-1/37ลบ","province":"ลพบุรี","district":"พัฒนานิคม","subdistrict":"ดีลัง","industryType":"การผลิตเคมีภัณฑ์ขั้นอุตสาหกรรมมูลฐานอื่น ๆ","status":"ดำเนินกิจการ","lat":14.85341,"lon":100.92663},"20160200225363":{"id":"20160200225363","name":"มิตรชาวไร่","owner":"นายจักรกฤษณ์ โล่ห์คุณสมบัติ","displayRegistration":"จ3-9(6)-2/36ลบ","province":"ลพบุรี","district":"ชัยบาดาล","subdistrict":"ซับตะเคียน","industryType":"ทำลานตากมันสำปะหลัง","status":"ดำเนินกิจการ","lat":15.11803,"lon":101.32424},"20160900125368":{"id":"20160900125368","name":"บริษัท โตโยต้า นารายณ์แกรนด์ จำกัด","owner":"บริษัท โตโยต้านารายณ์แกรนด์ จำกัด","displayRegistration":"จ3-95(1)-1/36ลบ","province":"ลพบุรี","district":"ชัยบาดาล","subdistrict":"ชัยนารายณ์","industryType":"ซ่อมเครื่องยนต์และส่วนประกอบหรืออุปกรณ์ของยานที่ขับเคลื่อนด้วยเครื่งยนต์","status":"ดำเนินกิจการ","lat":15.22228,"lon":101.12718},"20160000325363":{"id":"20160000325363","name":"พันธุ์พืชผล","owner":"นางสาวรวมพร สมประสิทธิ์","displayRegistration":"จ3-9(6)-3/36ลบ","province":"ลพบุรี","district":"ชัยบาดาล","subdistrict":"นาโสม","industryType":"ทำมันเส้น","status":"ดำเนินกิจการ","lat":15.24183,"lon":101.26878},"10160000125203":{"id":"10160000125203","name":"อินทรพานิช","owner":"นายคูณ อินทรพานิช","displayRegistration":"3-66-1/20ลบ","province":"ลพบุรี","district":"เมืองลพบุรี","subdistrict":"ทะเลชุบศร","industryType":"ผลิตอุปกรณ์เครื่องสีข้าว","status":"ดำเนินกิจการ","lat":14.8267996151347,"lon":100.647476228631},"10160000225243":{"id":"10160000225243","name":"บริษัท ลพบุรีคอนกรีต (1992) จำกัด","owner":"บริษัท ลพบุรีคอนกรีต (1992) จำกัด","displayRegistration":"3-58(1)-2/24ลบ","province":"ลพบุรี","district":"เมืองลพบุรี","subdistrict":"ท่าศาลา","industryType":"ทำคอนเสาไฟฟ้าและเสาไฟฟ้าคอนกรีตเสริมเหล็กอัดแรง ทำท่อคอนกรีต แผ่นพื้นคอนกรีตสำเร็จ และคอนกรีตบล๊อก","status":"ดำเนินกิจการ","lat":14.78522,"lon":100.68188},"10160003025186":{"id":"10160003025186","name":"ชุมนุมสหกรณ์จังหวัดลพบุรี จำกัด","owner":"ชุมนุมสหกรณ์จังหวัดลพบุรี จำกัด","displayRegistration":"3-9(1)-30/18ลบ","province":"ลพบุรี","district":"เมืองลพบุรี","subdistrict":"เขาพระงาม","industryType":"สีข้าว ชนิดแยกแกลบแยกรำ กำลังสีสูงสุดของร้านสีข้าว 145 เกวียน/วัน","status":"ดำเนินกิจการ","lat":14.91155,"lon":100.59783},"10160100125376":{"id":"10160100125376","name":"บริษัท สุธากัญจน์ (มหาชน) จำกัด","owner":"บริษัท สุธากัญจน์ (มหาชน) จำกัด","displayRegistration":"3-57(1)-1/37ลบ","province":"ลพบุรี","district":"พัฒนานิคม","subdistrict":"ช่องสาริกา","industryType":"ทำปูนขาว","status":"ดำเนินกิจการ","lat":14.79184,"lon":100.90735},"10160100325158":{"id":"10160100325158","name":"โรงน้ำแข็งลพบุรี","owner":"นางอุไรวรรณ วุฒิวณิช","displayRegistration":"3-14-3/15ลบ","province":"ลพบุรี","district":"เมืองลพบุรี","subdistrict":"ทะเลชุบศร","industryType":"ผลิตน้ำแข็ง ได้วันละ 1800 ซอง","status":"ดำเนินกิจการ","lat":14.79322,"lon":100.63949},"10160000125294":{"id":"10160000125294","name":"โรงงานอาหารสัตว์พัฒนานิคม","owner":"บริษัท สหฟาร์ม จำกัด","displayRegistration":"3-15(1)-1/29ลบ","province":"ลพบุรี","district":"พัฒนานิคม","subdistrict":"พัฒนานิคม","industryType":"ผลิตอาหารสัตว์","status":"ดำเนินกิจการ","lat":14.85524,"lon":100.99329},"10160200125334":{"id":"10160200125334","name":"ห้างหุ้นส่วนจำกัด เพิ่มพูลนวกิจ","owner":"ห้างหุ้นส่วนจำกัด เพิ่มพูลนวกิจ","displayRegistration":"3-64(2)-1/33ลบ","province":"ลพบุรี","district":"เมืองลพบุรี","subdistrict":"ท่าศาลา","industryType":"อัดเศษเหล็ก อัดกระดาษ","status":"ดำเนินกิจการ","lat":14.796,"lon":100.66685},"10160300125366":{"id":"10160300125366","name":"บริษัท โรแลค ซีนธิซีส จำกัด","owner":"บริษัท โรแลค ซีนธิซีส จำกัด","displayRegistration":"3-42(1)-1/36ลบ","province":"ลพบุรี","district":"พัฒนานิคม","subdistrict":"ดีลัง","industryType":"ผลิตสีย้อมผ้าและหนัง","status":"ดำเนินกิจการ","lat":14.85748,"lon":100.91681},"10160000125369":{"id":"10160000125369","name":"บริษัท ซินเจนทา ซีดส์ (ประเทศไทย) จำกัด","owner":"บริษัท ซินเจนทา ซีดส์ (ประเทศไทย) จำกัด","displayRegistration":"3-2(5)-1/36ลบ","province":"ลพบุรี","district":"พัฒนานิคม","subdistrict":"ดีลัง","industryType":"เก็บรักษา คัด แยกขนาดคุณภาพของข้าวโพดและข้าวฟ่าง","status":"ดำเนินกิจการ","lat":14.84513,"lon":100.90403},"10160000125278":{"id":"10160000125278","name":"อู่สมุทรยนต์","owner":"นายสมุทร วันขวา","displayRegistration":"3-95(1)-1/27ลบ","province":"ลพบุรี","district":"โคกสำโรง","subdistrict":"โคกสำโรง","industryType":"ซ่อมรถยนต์","status":"ดำเนินกิจการ","lat":15.05315,"lon":100.71195},"20160000525525":{"id":"20160000525525","name":"เอี่ยวฮั่วล้งการเกษตร","owner":"นายสมชาย งามประเสริฐสิทธิ์","displayRegistration":"จ3-9(6)-5/52ลบ","province":"ลพบุรี","district":"ชัยบาดาล","subdistrict":"นิคมลำนารายณ์","industryType":"ทำมันเส้น","status":"ดำเนินกิจการ","lat":15.2547296006136,"lon":101.125584636667},"10160000225524":{"id":"10160000225524","name":"บริษัท เพ็ทฟอร์ม (ไทยแลนด์) จำกัด","owner":"บริษัท เพ็ทฟอร์ม (ไทยแลนด์) จำกัด","displayRegistration":"3-53(5)-2/52ลบ","province":"ลพบุรี","district":"ท่าวุ้ง","subdistrict":"เขาสมอคอน","industryType":"ผลิตฝาจุกพลาสติก","status":"ดำเนินกิจการ","lat":14.9023,"lon":100.46499},"10160000625178":{"id":"10160000625178","name":"มงคลชัยวัฒนา","owner":"นายทวีศักดิ์ อุ่นอนันต์","displayRegistration":"3-9(1)-6/17ลบ","province":"ลพบุรี","district":"โคกสำโรง","subdistrict":"เพนียด","industryType":"สีข้าวกำลังสีสูงสุดของร้านสีข้าว 20เกวียน/วัน","status":"ดำเนินกิจการ","lat":15.07473,"lon":100.79283},"00160000125346":{"id":"00160000125346","name":"ห้างหุ้นส่วนจำกัด น้ำแข็งหลอดลำนารายณ์","owner":"ห้างหุ้นส่วนจำกัด น้ำแข็งหลอดลำนารายณ์","displayRegistration":"ศ3-14-1/34ลบ","province":"ลพบุรี","district":"ชัยบาดาล","subdistrict":"ลำนารายณ์","industryType":"ทำน้ำแข็งก้อนเล็ก ได้วันละ 45.34 ตัน","status":"ดำเนินกิจการ","lat":15.20307,"lon":101.13941},"10160000225342":{"id":"10160000225342","name":"เขาตำบลปูนขาว","owner":"ห้างหุ้นส่วนจำกัด ศิลาเขาตำบล","displayRegistration":"3-57(1)-2/34ลบ","province":"ลพบุรี","district":"ชัยบาดาล","subdistrict":"นาโสม","industryType":"ทำปูนขาว","status":"ดำเนินกิจการ","lat":15.23955,"lon":101.28133},"10160100125343":{"id":"10160100125343","name":"ห้างหุ้นส่วนจำกัด ศิลาแผ่นดินทองเขาตำบล","owner":"ห้างหุ้นส่วนจำกัด ศาลาแผ่นดินทองเขาตำบล","displayRegistration":"3-57(1)-1/34ลบ","province":"ลพบุรี","district":"ชัยบาดาล","subdistrict":"นาโสม","industryType":"ทำปูนขาว","status":"ดำเนินกิจการ","lat":15.23955,"lon":101.28116},"00160000225369":{"id":"00160000225369","name":"โรงงาน นารายณ์อาหารสัตว์","owner":"บริษัท สหฟาร์ม จำกัด","displayRegistration":"ศ3-15(1)-2/36ลบ","province":"ลพบุรี","district":"ชัยบาดาล","subdistrict":"นิคมลำนารายณ์","industryType":"ผลิตอาหารสัตว์ กำลังการปละต 300 ตัน/วัน","status":"ดำเนินกิจการ","lat":15.22763,"lon":101.12662},"20160000325355":{"id":"20160000325355","name":"ที.ที เฟิร์ส ลำนารายณ์","owner":"นายแสงเพชร งามเลิศชัย","displayRegistration":"จ3-66-3/35ลบ","province":"ลพบุรี","district":"ชัยบาดาล","subdistrict":"ชัยนารายณ์","industryType":"ซ่อมแซมอุปกรณ์ทางการเกษตร","status":"ดำเนินกิจการ","lat":15.21472,"lon":101.12764},"10160001325224":{"id":"10160001325224","name":"ห้างหุ้นส่วนจำกัด โรงสีไฟยงสวัสดิ์","owner":"ห้างหุ้นส่วนจำกัด โรงสีไฟยงสวัสดิ์","displayRegistration":"3-9(1)-13/22ลบ","province":"ลพบุรี","district":"โคกสำโรง","subdistrict":"คลองเกตุ","industryType":"สีข้าวและสีข้าวนึ่ง กำลังสีสูงสุดของร้านสีข้าว 140 เกวียน/วัน","status":"หยุดชั่วคราว","lat":15.06877,"lon":100.74381},"20160100325362":{"id":"20160100325362","name":"บริษัท สยามนิสสัน แอล.เค.เอส ลำนารายณ์ จำกัด","owner":"บริษัท สยามนิสสันลำนารายณ์ จำกัด","displayRegistration":"จ3-95(1)-3/36ลบ","province":"ลพบุรี","district":"ชัยบาดาล","subdistrict":"ชัยนารายณ์","industryType":"ซ่อมเครื่องยนต์และช่วงล่าง","status":"ดำเนินกิจการ","lat":15.21103,"lon":101.12051},"20160001225521":{"id":"20160001225521","name":"ฐิติวัฒน์ พืชผล","owner":"นายเมธาพันธ์ กุลตา","displayRegistration":"จ3-9(6)-12/52ลบ","province":"ลพบุรี","district":"ท่าหลวง","subdistrict":"ซับจำปา","industryType":"ทำลานมัน","status":"ดำเนินกิจการ","lat":15.070301,"lon":101.208069},"20160002125522":{"id":"20160002125522","name":"ท่าข้าวเจ๊ลั้ง","owner":"นางนภาพร วงศ์เลิศอารักษ์","displayRegistration":"จ3-9(6)-21/52ลบ","province":"ลพบุรี","district":"สระโบสถ์","subdistrict":"สระโบสถ์","industryType":"ทำมันเส้น","status":"ดำเนินกิจการ","lat":15.2049356544006,"lon":100.84093037732},"20160101525523":{"id":"20160101525523","name":"ห้างหุ้นส่วนจำกัด วังเพลิงวัสดุภัณฑ์","owner":"ห้างหุ้นส่วนจำกัด วังเพลิง วัสดุภัณฑ์","displayRegistration":"จ3-58(1)-15/52ลบ","province":"ลพบุรี","district":"โคกสำโรง","subdistrict":"วังเพลิง","industryType":"ผลิตคอนกรีตผสมเสร็จ และท่อคอนกรีตอัดแรง","status":"ดำเนินกิจการ","lat":15.07618,"lon":100.83631},"20160005225527":{"id":"20160005225527","name":"ท่าข้าว ส.วงษ์-มหาโพธิ","owner":"นางสาวพิมพ์นารา ศิริเลิศหิรัญ","displayRegistration":"จ3-9(6)-52/52ลบ","province":"ลพบุรี","district":"สระโบสถ์","subdistrict":"มหาโพธิ","industryType":"ลานมัน และการเก็บรักษาหรือลำเลียงพืช เมล็ดพืชในไซโล โกดัง หรือคลังสินค้า","status":"ดำเนินกิจการ","lat":15.2702854400146,"lon":100.838999697298},"10160001825520":{"id":"10160001825520","name":"ห้างหุ้นส่วนจำกัด โรงสีไฟเจริญประภา","owner":"ห้างหุ้นส่วนจำกัด โรงสีไฟเจริญประภา","displayRegistration":"3-9(1)-18/52ลบ","province":"ลพบุรี","district":"บ้านหมี่","subdistrict":"บางพึ่ง","industryType":"สีข้าว กำลังสีสูงสุดของร้านสีข้าว 500 เกวียน/วัน และอบข้าวเปลือก","status":"ดำเนินกิจการ","lat":14.96211,"lon":100.4794},"20160006225526":{"id":"20160006225526","name":"บริษัท ดินทอง คอร์ปอเรชั่น จำกัด","owner":"บริษัท ดินทอง คอร์ปอเรชั่น จำกัด","displayRegistration":"จ3-43(1)-62/52ลบ","province":"ลพบุรี","district":"ท่าหลวง","subdistrict":"แก่งผักกูด","industryType":"ผลิตปุ๋ยอินทรีย์","status":"ดำเนินกิจการ","lat":15.04832,"lon":101.09302},"10160002125532":{"id":"10160002125532","name":"บริษัท บางกอกโซลาร์ พาวเวอร์ จำกัด (โครงการลพบุรี 4)","owner":"บริษัท บางกอกโซลาร์ พาวเวอร์ จำกัด","displayRegistration":"3-88(1)-21/53ลบ","province":"ลพบุรี","district":"พัฒนานิคม","subdistrict":"ช่องสาริกา","industryType":"ผลิตพลังงานไฟฟ้าจากเซลล์แสงอาทิตย์ กำลังการผลิต 2 เมกะวัตต์","status":"ดำเนินกิจการ","lat":14.774787,"lon":100.91187},"10160002025534":{"id":"10160002025534","name":"บริษัท บางกอกโซลาร์ พาวเวอร์ จำกัด (โครงการลพบุรี 5)","owner":"บริษัท บางกอกโซลาร์ พาวเวอร์ จำกัด","displayRegistration":"3-88(1)-20/53ลบ","province":"ลพบุรี","district":"พัฒนานิคม","subdistrict":"ช่องสาริกา","industryType":"ผลิตพลังงานไฟฟ้าจากเซลล์แสงอาทิตย์ กำลังการผลิต 4.75 เมกะวัตต์","status":"ดำเนินกิจการ","lat":14.774787,"lon":100.91187},"10160000525527":{"id":"10160000525527","name":"บริษัท อิโตแฮม เบทาโกร ฟู้ดส์ จำกัด","owner":"บริษัท อิโตแฮม เบทาโกร ฟู้ดส์ จำกัด","displayRegistration":"3-4(3)-5/52ลบ","province":"ลพบุรี","district":"พัฒนานิคม","subdistrict":"ช่องสาริกา","industryType":"ทำผลิตภัณฑ์อาหารสำเร็จรูปจากเนื้อสัตว์ เช่น ไส้กรอกหมู ไส้กรอกไก่ และแฮม","status":"ดำเนินกิจการ","lat":14.772046,"lon":100.923095},"20160002625521":{"id":"20160002625521","name":"บริษัท กม.75 จำกัด","owner":"บริษัท กม.75 จำกัด","displayRegistration":"จ3-63(2)-26/52ลบ","province":"ลพบุรี","district":"ชัยบาดาล","subdistrict":"นิคมลำนารายณ์","industryType":"ทำหลังคาจากโลหะแผ่นเคลือบ","status":"ดำเนินกิจการ","lat":15.285581488058,"lon":101.151437592308},"20160011525563":{"id":"20160011525563","name":"NULL","owner":"นางสาววีรญา กุลพรพันธ์","displayRegistration":"จ3-9(6)-115/56ลบ","province":"ลพบุรี","district":"ชัยบาดาล","subdistrict":"ศิลาทิพย์","industryType":"ทำลานมัน","status":"ดำเนินกิจการ","lat":15.307524,"lon":101.080568},"10160005525563":{"id":"10160005525563","name":"ห้างหุ้นส่วนจำกัด เก้ากาญจน์","owner":"ห้างหุ้นส่วนจำกัด เก้ากาญจน์","displayRegistration":"3-14-55/56ลบ","province":"ลพบุรี","district":"ชัยบาดาล","subdistrict":"ลำนารายณ์","industryType":"ผลิตน้ำแข็งซอง ขนาดกำลังการผลิต 700 ซองต่อวัน และทำน้ำแข็งก้อนเล็ก ขนาดกำลังการผลิต 500 ตันต่อวัน","status":"ดำเนินกิจการ","lat":15.190429,"lon":101.11587},"20160008425561":{"id":"20160008425561","name":"ลิ้มควงเส็งพืชผล","owner":"นายอำนาจ แซ่เฮง","displayRegistration":"จ3-9(6)-84/56ลบ","province":"ลพบุรี","district":"ชัยบาดาล","subdistrict":"ศิลาทิพย์","industryType":"ทำมันเส้น","status":"ดำเนินกิจการ","lat":15.300519,"lon":101.101},"20160016525550":{"id":"20160016525550","name":"ทรัพย์ไทรพืชผล","owner":"นางวรรณิภา สุทธิอาจ","displayRegistration":"จ3-9(6)-165/55ลบ","province":"ลพบุรี","district":"ชัยบาดาล","subdistrict":"ศิลาทิพย์","industryType":"ทำลานมัน","status":"ดำเนินกิจการ","lat":15.308559,"lon":101.071821},"10160000725572":{"id":"10160000725572","name":"บริษัท เบทาโกร เอ็มเอฟ เดลี จำกัด","owner":"บริษัท เบทาโกร เอ็มเอฟ เดลี จำกัด","displayRegistration":"3-4(3)-7/57ลบ","province":"ลพบุรี","district":"พัฒนานิคม","subdistrict":"ช่องสาริกา","industryType":"ผลิตอาหารสำเร็จรูปแช่แข็งและเย็น","status":"ดำเนินกิจการ","lat":14.811625,"lon":100.910258},"10160002925576":{"id":"10160002925576","name":"บริษัท โยโกชิโระ จำกัด","owner":"บริษัท โยโกชิโระ จำกัด","displayRegistration":"3-105-29/57ลบ","province":"ลพบุรี","district":"เมืองลพบุรี","subdistrict":"บางขันหมาก","industryType":"คัดแยกโลหะ","status":"ดำเนินกิจการ","lat":14.794525,"lon":100.579361},"20160100125572":{"id":"20160100125572","name":"บริษัท โชคมีสุข จำกัด","owner":"บริษัท โชคมีสุข จำกัด","displayRegistration":"จ3-64(11)-1/57ลบ","province":"ลพบุรี","district":"เมืองลพบุรี","subdistrict":"ท่าแค","industryType":"อัดเศษโลหะ","status":"ดำเนินกิจการ","lat":14.84093170152,"lon":100.608352950335},"10160006325567":{"id":"10160006325567","name":"ห้างหุ้นส่วนจำกัด เก้ากีรติ","owner":"ห้างหุ้นส่วนจำกัด เก้ากีรติ","displayRegistration":"3-14-63/56ลบ","province":"ลพบุรี","district":"เมืองลพบุรี","subdistrict":"ป่าตาล","industryType":"ผลิตน้ำแข็งซอง กำลังการผลิตวันละ 112 ตัน และน้ำแข็งก้อนเล็ก กำลังการผลิตวันละ 130 ตัน","status":"ดำเนินกิจการ","lat":14.756239089365,"lon":100.651423483206},"20160003325576":{"id":"20160003325576","name":"บริษัท น้ำแข็งสะพาน 8 (2008) จำกัด","owner":"บริษัท น้ำแข็งสะพาน 8 (2008) จำกัด","displayRegistration":"จ3-14-33/57ลบ","province":"ลพบุรี","district":"เมืองลพบุรี","subdistrict":"ป่าตาล","industryType":"ผลิตน้ำแข็งซอง และน้ำแข็งหลอด","status":"ดำเนินกิจการ","lat":14.7967773314902,"lon":100.645080367528},"20160002925558":{"id":"20160002925558","name":"บริษัท แอดวานซ์ เมทัลลิก้า จำกัด","owner":"บริษัท แอดวานซ์ เมทัลลิก้า จำกัด","displayRegistration":"จ3-64(2)-29/55ลบ","province":"ลพบุรี","district":"พัฒนานิคม","subdistrict":"ช่องสาริกา","industryType":"การทำผลิตภัณฑ์โลหะด้วยวิธีปั๊มหรือกระแทก","status":"ดำเนินกิจการ","lat":14.80936,"lon":100.90728},"20160005125552":{"id":"20160005125552","name":"บริษัท บี-ควิก จำกัด","owner":"บริษัท บี-ควิก จำกัด","displayRegistration":"จ3-95(1)-51/55ลบ","province":"ลพบุรี","district":"เมืองลพบุรี","subdistrict":"ท่าศาลา","industryType":"ศูนย์บริการซ่อมแซมรถยนต์","status":"ดำเนินกิจการ","lat":14.7860900855163,"lon":100.684742679232},"20160001225554":{"id":"20160001225554","name":"บริษัท ส.วิริยะ อินเตอร์เทรด จำกัด","owner":"บริษัท ส.วิริยะ อินเตอร์เทรด จำกัด","displayRegistration":"จ3-2(1)-12/55ลบ","province":"ลพบุรี","district":"ท่าหลวง","subdistrict":"หัวลำ","industryType":"อบพืชไร่และทำมันเส้น","status":"ดำเนินกิจการ","lat":15.039695,"lon":101.297181},"20160000425551":{"id":"20160000425551","name":"ทรัพย ณ ภา","owner":"นายโอฬาร หวังศุภกิจโกศล","displayRegistration":"จ2-9(6)-4/55ลบ","province":"ลพบุรี","district":"สระโบสถ์","subdistrict":"นิยมชัย","industryType":"ทำมันเส้น","status":"ดำเนินกิจการ","lat":15.2495889065078,"lon":100.966430483837},"20160200525556":{"id":"20160200525556","name":"มหาโยธีธัญญากิจ","owner":"นายบน มหาโยธี","displayRegistration":"จ2-9(6)-5/55ลบ","province":"ลพบุรี","district":"สระโบสถ์","subdistrict":"นิยมชัย","industryType":"ทำมันเส้น","status":"ดำเนินกิจการ","lat":15.1886955625694,"lon":100.869194726042},"20160001625555":{"id":"20160001625555","name":"โคกตูมพืชผล","owner":"นายเกียรติ อิสระเสนารักษ์","displayRegistration":"จ3-2(1)-16/55ลบ","province":"ลพบุรี","district":"เมืองลพบุรี","subdistrict":"โคกตูม","industryType":"ทำพืชไร่ อบข้าวโพด ลานตากข้าวโพด และมันสำปะหลัง","status":"ดำเนินกิจการ","lat":14.834844,"lon":100.808668},"20160005325558":{"id":"20160005325558","name":"NULL","owner":"ห้างหุ้นส่วนจำกัด เทียรพานิช","displayRegistration":"จ3-58(1)-53/55ลบ","province":"ลพบุรี","district":"เมืองลพบุรี","subdistrict":"โคกตูม","industryType":"ผลิตคอนกรีตผสมเสร็จ","status":"ดำเนินกิจการ","lat":14.820552,"lon":100.843517},"20160000825552":{"id":"20160000825552","name":"-","owner":"นายธีรวุฒิ พวงจำปี","displayRegistration":"จ3-7(1)-8/55ลบ","province":"ลพบุรี","district":"เมืองลพบุรี","subdistrict":"โคกตูม","industryType":"สกัดน้ำมันจากพืช (หีบน้ำมันมะพร้าว)","status":"ดำเนินกิจการ","lat":14.8329808450219,"lon":100.789116239624},"10160003225554":{"id":"10160003225554","name":"อีเนอร์คิว ห้วยหิน3","owner":"บริษัท อีเนอร์คิว จำกัด","displayRegistration":"3-88(1)-32/55ลบ","province":"ลพบุรี","district":"ชัยบาดาล","subdistrict":"เขาแหลม","industryType":"ผลิตไฟฟ้าด้วยแสงอาทิตย์ ขนาด 1.25 เมกะวัตต์","status":"ดำเนินกิจการ","lat":15.0786156359714,"lon":100.970615696711},"20160001325552":{"id":"20160001325552","name":"บริษัท ธนโชคปาล์ม จำกัด","owner":"บริษัท ธนโชคปาล์มออย จำกัด","displayRegistration":"จ3-7(1)-13/55ลบ","province":"ลพบุรี","district":"พัฒนานิคม","subdistrict":"พัฒนานิคม","industryType":"ผลิตน้ำมันเมล็ดในปาล์ม, น้ำมันมะพร้าว","status":"ดำเนินกิจการ","lat":14.849401,"lon":100.939376},"20160014725558":{"id":"20160014725558","name":"ลานมันมหาโยธีธัญญกิจ","owner":"นายชุมเมฆ มหาโยธี","displayRegistration":"จ3-9(6)-147/55ลบ","province":"ลพบุรี","district":"สระโบสถ์","subdistrict":"นิยมชัย","industryType":"ทำมันเส้น","status":"ดำเนินกิจการ","lat":15.1886955625694,"lon":100.869194726042},"20160005725559":{"id":"20160005725559","name":"บริษัท บารมี เม็ททอลชีท จำกัด","owner":"บริษัท บารมี เม็ททอลชีท จำกัด","displayRegistration":"จ3-63(2)-57/55ลบ","province":"ลพบุรี","district":"ชัยบาดาล","subdistrict":"ศิลาทิพย์","industryType":"ทำผลิตภัณฑ์เกี่ยวกับโลหะแผ่น สำหรับทำหลังคาหรือผนังในงานก่อสร้าง","status":"ดำเนินกิจการ","lat":15.3251681201999,"lon":101.129014281079},"20160000825438":{"id":"20160000825438","name":"บริษัท ลพบุรี เอนเนอจี จำกัด","owner":"บริษัท ลพบุรี เอนเนอจี จำกัด","displayRegistration":"จ3-9(6)-8/43ลบ","province":"ลพบุรี","district":"ท่าหลวง","subdistrict":"ซับจำปา","industryType":"ผลิตมันเส้น","status":"ดำเนินกิจการ","lat":15.0733,"lon":101.22419},"30160000225405":{"id":"30160000225405","name":"ห้างหุ้นส่วนจำกัด ศิลาแผ่นดินทองเขาตำบล","owner":"ห้างหุ้นส่วนจำกัด ศิลาแผ่นดินทองเขาตำบล","displayRegistration":"ธ3-3(1)-2/40ลบ","province":"ลพบุรี","district":"ชัยบาดาล","subdistrict":"นาโสม","industryType":"โม่ บด หรือย่อยหิน","status":"ดำเนินกิจการ","lat":15.1993207602714,"lon":101.144839125252},"20160100225364":{"id":"20160100225364","name":"โรงสีจิตรเจริญ","owner":"นางสาวพรรัตน์ ขำสกุล","displayRegistration":"จ3-9(1)-2/36ลบ","province":"ลพบุรี","district":"บ้านหมี่","subdistrict":"พุคา","industryType":"สีข้าวชนิดแยกแกลบแยกรำ กำลังสีสูงสุดของร้านสีข้าว 30 เกวียน/วัน)","status":"ดำเนินกิจการ","lat":14.95392,"lon":100.59693},"20160002625596":{"id":"20160002625596","name":"บริษัท ที-วัน สตีล โซลูชั่น จำกัด","owner":"บริษัท ที-วัน สตีล โซลูชั่น จำกัด","displayRegistration":"จ3-63(2)-26/59ลบ","province":"ลพบุรี","district":"เมืองลพบุรี","subdistrict":"นิคมสร้างตนเอง","industryType":"ขึ้นลอนแผ่นหลังคาเหล็ก ทั้งผลิตและจำหน่าย","status":"ดำเนินกิจการ","lat":14.7705916667,"lon":100.703458333},"10160001725605":{"id":"10160001725605","name":"-","owner":"นายอุบล เพียเพ็ชร","displayRegistration":"3-34(4)-17/60ลบ","province":"ลพบุรี","district":"ชัยบาดาล","subdistrict":"เกาะรัง","industryType":"ผลิตชิ้นไม้สับจากไม้ที่ปลูกขึ้นโดยเฉพาะ 13 ชนิด ตามมติคณะรัฐมนตรีเพื่อจำหน่าย","status":"ดำเนินกิจการ","lat":15.270109,"lon":101.213285},"20160026325579":{"id":"20160026325579","name":"บริษัท ศักดิ์เฮงกลการ (1999) จำกัด","owner":"บริษัท ศักดิ์เฮงกลการ (1999) จำกัด","displayRegistration":"จ3-95(1)-263/57ลบ","province":"ลพบุรี","district":"เมืองลพบุรี","subdistrict":"เขาพระงาม","industryType":"ทำอู่ซ่อมสีและตัวถังรถยนต์","status":"ดำเนินกิจการ","lat":14.8983329667783,"lon":100.602737169716},"20160007725607":{"id":"20160007725607","name":"บริษัท แชมป์คอนกรีตกรุ๊ป จำกัด","owner":"บริษัท แชมป์คอนกรีตกรุ๊ป จำกัด","displayRegistration":"จ3-58(1)-77/60ลบ","province":"ลพบุรี","district":"ชัยบาดาล","subdistrict":"นิคมลำนารายณ์","industryType":"โรงงานผลิตคอนกรีตผสมเสร็จเพื่อให้บริการทั่วไป โรงงานผลิตและจำหน่ายผลิตภัณฑ์ที่ได้จากคอนกรีต","status":"ดำเนินกิจการ","lat":15.2526400013569,"lon":101.146543172733},"20160001225588":{"id":"20160001225588","name":"จิ้นหลีจั่น","owner":"นายโชคชัย ธรรมานุธรรม","displayRegistration":"จ3-2(1)-12/58ลบ","province":"ลพบุรี","district":"ชัยบาดาล","subdistrict":"นิคมลำนารายณ์","industryType":"สี, อบ เมล็ดข้าวโพด","status":"ดำเนินกิจการ","lat":15.2086850041557,"lon":101.132975952242},"40160000225619":{"id":"40160000225619","name":"บริษัท สุรินทร์ ออมย่า เคมีคอล (ประเทศไทย) จำกัด","owner":"บริษัท สุรินทร์ ออมย่า เคมิคอล (ประเทศไทย) จำกัด","displayRegistration":"3-88(1)-2/61ลบ","province":"ลพบุรี","district":"เมืองลพบุรี","subdistrict":"โคกตูม","industryType":"โรงผลิตพลังงานไฟฟ้าจากเซลล์แสงอาทิตย์ ขนาด 999.6 กิโลวัตต์","status":"ดำเนินกิจการ","lat":14.8606196715325,"lon":100.855578727755},"20160001825585":{"id":"20160001825585","name":"THE SUN GARMENT","owner":"นายสรพรรษ ศิริพานิชกร","displayRegistration":"จ3-28(1)-18/58ลบ","province":"ลพบุรี","district":"เมืองลพบุรี","subdistrict":"โพธิ์เก้าต้น","industryType":"ตัดเย็บเสื้อผ้าสำเร็จรูป","status":"ดำเนินกิจการ","lat":14.7824541067883,"lon":100.593987709856},