{"10530000225346":{"id":"10530000225346","name":"บริษัท มิตซู อุตรดิตถ์ จำกัด","owner":"บริษัท มิตซู อุตรดิตถ์ จำกัด","displayRegistration":"3-95(1)-2/34อต","province":"อุตรดิตถ์","district":"เมืองอุตรดิตถ์","subdistrict":"ป่าเซ่า","industryType":"ซ่อมรถยนต์","status":"ดำเนินกิจการ","lat":17.60096,"lon":100.12496},"10530000125348":{"id":"10530000125348","name":"NULL","owner":"นายผวน ศรีโยยอด","displayRegistration":"3-59-1/34อต","province":"อุตรดิตถ์","district":"เมืองอุตรดิตถ์","subdistrict":"วังกะพี้","industryType":"หลอมหล่อเหล็ก เช่น อะหลั่ยเครื่องสีข้าว","status":"หยุดชั่วคราว","lat":17.52269,"lon":100.09835},"10530000125355":{"id":"10530000125355","name":"ห้างหุ้นส่วนจำกัด ศิลปยนต์การ (อุตรดิตถ์)","owner":"ห้างหุ้นส่วนจำกัด ศิลปยนต์การ (อุตรดิตถ์)","displayRegistration":"3-63(2)-1/35อต","province":"อุตรดิตถ์","district":"เมืองอุตรดิตถ์","subdistrict":"ป่าเซ่า","industryType":"ทำประตู-หน้าต่างเหล็ก ตัด พับ ม้วนโลหะ ซ่อมเครื่องยนต์ ซ่อมและประกอบเครื่องจักรสำหรับใช้ในการกสิกรรม","status":"ดำเนินกิจการ","lat":17.60855,"lon":100.11738},"10530000125207":{"id":"10530000125207","name":"บริษัท น้ำตาลไทยเอกลักษณ์ จำกัด","owner":"บริษัท น้ำตาลไทยเอกลักษณ์ จำกัด","displayRegistration":"3-11(3)-1/20อต","province":"อุตรดิตถ์","district":"เมืองอุตรดิตถ์","subdistrict":"คุ้งตะเภา","industryType":"ผลิตน้ำตาลทรายจากอ้อย","status":"ดำเนินกิจการ","lat":17.66174,"lon":100.20505},"20530001625229":{"id":"20530001625229","name":"ตระกูลงาม","owner":"นายมิสสุ ทิพยาวงษ์","displayRegistration":"จ3-9(1)-16/22อต","province":"อุตรดิตถ์","district":"เมืองอุตรดิตถ์","subdistrict":"หาดงิ้ว","industryType":"สีข้าว กำลังสีสูงสุดของร้านสีข้าว 4 เกวียน/วัน","status":"ดำเนินกิจการ","lat":17.70557,"lon":100.3296},"20530100125360":{"id":"20530100125360","name":"บริษัท สยามไชน์เปเปอร์ จำกัด","owner":"บริษัท สยามไชน์เปเปอร์ จำกัด","displayRegistration":"จ3-38(2)-1/36อต","province":"อุตรดิตถ์","district":"เมืองอุตรดิตถ์","subdistrict":"ถ้ำฉลอง","industryType":"ทำกระดาษจากไม้ไผ่","status":"ดำเนินกิจการ","lat":17.5919,"lon":100.3438},"20530000325383":{"id":"20530000325383","name":"บริษัท สยามนิสสันอุตรดิตถ์ จำกัด","owner":"บริษัท สยามนิสสันอุตรดิตถ์ จำกัด","displayRegistration":"จ3-95(1)-3/38อต","province":"อุตรดิตถ์","district":"เมืองอุตรดิตถ์","subdistrict":"ป่าเซ่า","industryType":"ซ่อมรถยนต์ และล้างอัดฉีดรถยนต์ ได้ 5,000 คัน/ปี","status":"ดำเนินกิจการ","lat":17.61101,"lon":100.12341},"20530100125386":{"id":"20530100125386","name":"วงศ์ศรีอุตสาหกรรมพาณิชย์","owner":"นายผวน ศรีโยยอด","displayRegistration":"จ3-66-1/38อต","province":"อุตรดิตถ์","district":"เมืองอุตรดิตถ์","subdistrict":"ท่าอิฐ","industryType":"ผลิตอุปกรณ์เครื่องจักรสำหรับใช้ในการกสิกรรม ได้ 10,000 ชิ้น/ปี","status":"ดำเนินกิจการ","lat":17.61137,"lon":100.08685},"10530000125322":{"id":"10530000125322","name":"ศิลา ยู.ดี.","owner":"บริษัท ศิลา ยู.ดี. จำกัด","displayRegistration":"3-3(1)-1/32อต","province":"อุตรดิตถ์","district":"ทองแสนขัน","subdistrict":"บ่อทอง","industryType":"โม่ ย่อยหิน ได้ 300,000 ลูกบาศก์เมตร/ปี","status":"ดำเนินกิจการ","lat":17.49718,"lon":100.33705},"10530000125280":{"id":"10530000125280","name":"บริษัท มงคลสมัย จำกัด","owner":"บริษัท มงคลสมัย จำกัด","displayRegistration":"3-16-1/28อต","province":"อุตรดิตถ์","district":"เมืองอุตรดิตถ์","subdistrict":"ผาจุก","industryType":"ผลิตสุราขาวและสุราผสม ตามสัญญาที่ทำไว้กับกรมสรรพสามิต","status":"ดำเนินกิจการ","lat":17.64144,"lon":100.23789},"10530000125314":{"id":"10530000125314","name":"บริษัท อุตรดิตถ์บรรจุภัณฑ์ จำกัด","owner":"บริษัท อุตรดิตถ์บรรจุภัณฑ์ จำกัด","displayRegistration":"3-64(1)-1/31อต","province":"อุตรดิตถ์","district":"เมืองอุตรดิตถ์","subdistrict":"คุ้งตะเภา","industryType":"ทำภาชนะบรรจุจากโลหะ","status":"ดำเนินกิจการ","lat":17.62771,"lon":100.12544},"10530000225288":{"id":"10530000225288","name":"ชุมนุมสหกรณ์จังหวัดอุตรดิตถ์ จำกัด","owner":"ชุมนุมสหกรณ์จังหวัดอุตรดิตถ์ จำกัด","displayRegistration":"3-9(1)-2/28อต","province":"อุตรดิตถ์","district":"เมืองอุตรดิตถ์","subdistrict":"บ้านเกาะ","industryType":"สีข้าว กำลังสีสูงสุดของร้านสีข้าว 60 เกวียน/วัน","status":"ดำเนินกิจการ","lat":17.60306,"lon":100.06539},"10530100125230":{"id":"10530100125230","name":"ศรีสง่ายนต์","owner":"นายลัทธิชัย ไคร้ชม","displayRegistration":"3-65-1/23อต","province":"อุตรดิตถ์","district":"เมืองอุตรดิตถ์","subdistrict":"บ้านเกาะ","industryType":"ซ่อมเครื่องยนต์และประกอบตัวถังรถยนต์ ประกอบรถไทยแลนด์","status":"ดำเนินกิจการ","lat":17.6061,"lon":100.07322},"10530000125306":{"id":"10530000125306","name":"ห้างหุ้นส่วนจำกัด พืชสิน","owner":"ห้างหุ้นส่วนจำกัด พืชสิน","displayRegistration":"3-2(1)-1/30อต","province":"อุตรดิตถ์","district":"เมืองอุตรดิตถ์","subdistrict":"คุ้งตะเภา","industryType":"กระเทาะและอบเมล็ดพืช","status":"ดำเนินกิจการ","lat":17.64254,"lon":100.13347},"10530000125199":{"id":"10530000125199","name":"ห้างหุ้นส่วนจำกัด เล่าซุ่นเส็ง (อุตรดิตถ์)","owner":"ห้างหุ้นส่วนจำกัด เล่าซุ่นเส็ง (อุตรดิตถ์)","displayRegistration":"3-8(1)-1/19อต","province":"อุตรดิตถ์","district":"เมืองอุตรดิตถ์","subdistrict":"ท่าอิฐ","industryType":"ทำลูกตาวเชื่อม หน่อไม้ บรรจุกระป๋องและปีบ","status":"ดำเนินกิจการ","lat":17.63474,"lon":100.09757},"10530000125256":{"id":"10530000125256","name":"ห้างหุ้นส่วนจำกัด อุตรดิตถ์จันทร์พานิช","owner":"ห้างหุ้นส่วนจำกัด อุตรดิตถ์จันทร์พานิช","displayRegistration":"3-8(1)-1/25อต","province":"อุตรดิตถ์","district":"เมืองอุตรดิตถ์","subdistrict":"ท่าอิฐ","industryType":"ทำลูกตาวเชื่อม หน่อไม้บรรจุปี๊บ","status":"ดำเนินกิจการ","lat":17.60969,"lon":100.09739},"10530200125197":{"id":"10530200125197","name":"ห้างหุ้นส่วนสามัญนิติบุคคล โรงน้ำแข็งสุวัฒน์","owner":"ห้างหุ้นส่วนสามัญนิติบุคคล โรงน้ำแข็งสุวัฒน์","displayRegistration":"3-14-1/19อต","province":"อุตรดิตถ์","district":"เมืองอุตรดิตถ์","subdistrict":"ท่าอิฐ","industryType":"ทำน้ำแข็ง ได้วันละ 828 ซอง ทำน้ำแข็งก้อนเล็ก ได้วันละ 10.64 ตัน","status":"ดำเนินกิจการ","lat":17.62798,"lon":100.10357},"10530000225221":{"id":"10530000225221","name":"บริษัท โรงเลื่อยจักรท่าเสา จำกัด","owner":"บริษัท โรงเลื่อยจักรท่าเสา จำกัด","displayRegistration":"3-34(1)-2/22อต","province":"อุตรดิตถ์","district":"เมืองอุตรดิตถ์","subdistrict":"ท่าเสา","industryType":"เลื่อยไม้ เครื่องจักรใช้สำหรับเลื่อยไม้ 432 แรงม้า เครื่องจักรใช้เป็นเครื่องทุ่นแรงและใช้สำหรับซ่อมเครื่องจักร 79.25 แรงม้า","status":"ดำเนินกิจการ","lat":17.6666,"lon":100.10969},"10530000125124":{"id":"10530000125124","name":"สรรพากิจ","owner":"นายสัจจา บุญสพ","displayRegistration":"3-95(1)-1/12อต","province":"อุตรดิตถ์","district":"เมืองอุตรดิตถ์","subdistrict":"ท่าอิฐ","industryType":"ซ่อมรถยนต์ กลึงและเชื่อมโลหะ","status":"ดำเนินกิจการ","lat":17.61513,"lon":100.09245},"10530000225312":{"id":"10530000225312","name":"ห้างหุ้นส่วนจำกัด อุตรดิตถ์สตาร์ไอซ์","owner":"ห้างหุ้นส่วนจำกัด อุตรดิตถ์สตาร์ไอซ์","displayRegistration":"3-14-2/31อต","province":"อุตรดิตถ์","district":"เมืองอุตรดิตถ์","subdistrict":"ท่าอิฐ","industryType":"ทำน้ำแข็งหลอด","status":"ดำเนินกิจการ","lat":17.63474,"lon":100.09757},"10530000225163":{"id":"10530000225163","name":"บุญญะศาสต์","owner":"ห้างหุ้นส่วนจำกัด ชั้นสุพัฒน์ รุ่งเรือง","displayRegistration":"3-10(3)-2/16อต","province":"อุตรดิตถ์","district":"เมืองอุตรดิตถ์","subdistrict":"ท่าอิฐ","industryType":"ทำเส้นก๋วยเตี๋ยว","status":"ดำเนินกิจการ","lat":17.62812,"lon":100.10659},"10530000525182":{"id":"10530000525182","name":"โรงสีกิจไพศาล","owner":"นางสาวนัทยา คำมี","displayRegistration":"3-9(1)-5/18อต","province":"อุตรดิตถ์","district":"ตรอน","subdistrict":"วังแดง","industryType":"สีข้าว กำลังสีสูงสุดของร้านสีข้าว 10 เกวียน/วัน","status":"ดำเนินกิจการ","lat":17.46098,"lon":100.11627},"20530000125387":{"id":"20530000125387","name":"NULL","owner":"นางรัตดา อินอิว","displayRegistration":"จ3-9(1)-1/38อต","province":"อุตรดิตถ์","district":"พิชัย","subdistrict":"นาอิน","industryType":"สีข้าว กำลังสีสูงสุดของร้านสีข้าว 4 เกวียน/วัน","status":"ดำเนินกิจการ","lat":17.2285,"lon":100.20009},"10530000925325":{"id":"10530000925325","name":"โรจน์เซอร์วิส","owner":"นายไพโรจน์ เจียมบรรจง","displayRegistration":"3-95(1)-9/32อต","province":"อุตรดิตถ์","district":"พิชัย","subdistrict":"คอรุม","industryType":"ซ่อมเครื่องรถยนต์","status":"ดำเนินกิจการ","lat":17.29116,"lon":100.07354},"10530000125330":{"id":"10530000125330","name":"ศักดิ์การช่าง","owner":"นายสิทธิศักดิ์ โภชนจันทร์","displayRegistration":"3-65-1/33อต","province":"อุตรดิตถ์","district":"ลับแล","subdistrict":"ไผ่ล้อม","industryType":"ซ่อมเครื่องยนต์ ซ่อมรถจักรยานยนต์ และต่อตัวถังเพื่อใช้ในการก","status":"ดำเนินกิจการ","lat":17.57743,"lon":100.069},"20530001525296":{"id":"20530001525296","name":"สหไพศาล","owner":"นายรัตน์ ศุภรักษ์จินดา","displayRegistration":"จ3-9(1)-15/29อต","province":"อุตรดิตถ์","district":"ตรอน","subdistrict":"วังแดง","industryType":"สีข้าว กำลังสีสูงสุดของร้านสีข้าว 20 เกวียน/วัน","status":"ดำเนินกิจการ","lat":17.47813,"lon":100.11},"10530100125198":{"id":"10530100125198","name":"บริษัท ดรากอน กรีน เอ็นเนอจี จำกัด","owner":"บริษัท ดรากอน กรีน เอ็นเนอจี จำกัด","displayRegistration":"3-9(2)-1/19อต","province":"อุตรดิตถ์","district":"ตรอน","subdistrict":"น้ำอ่าง","industryType":"ทำแป้งมันสำปะหลัง","status":"ดำเนินกิจการ","lat":17.45764,"lon":100.1875},"10530000125389":{"id":"10530000125389","name":"โรงโม่ทองแสนขัน","owner":"บริษัท โรงโม่ทองแสนขัน จำกัด","displayRegistration":"3-3(1)-1/38อต","province":"อุตรดิตถ์","district":"ทองแสนขัน","subdistrict":"บ่อทอง","industryType":"โม่ ย่อยหิน กำลังการผลิต 40,000 ลูกบาศก์เมตร/ปี","status":"ดำเนินกิจการ","lat":17.4965,"lon":100.33502},"20530000925380":{"id":"20530000925380","name":"อีซูซุอุตรดิตถ์","owner":"บริษัท อีซูซอุตรดิตถ์ฮกอันตึ๊ง จำกัด","displayRegistration":"จ3-95(1)-9/38อต","province":"อุตรดิตถ์","district":"เมืองอุตรดิตถ์","subdistrict":"ป่าเซ่า","industryType":"ซ่อมรถยนต์ และเคาะพ่นสีรถยนต์ ได้ 12,000 คัน/ปี","status":"ดำเนินกิจการ","lat":17.60219,"lon":100.12453},"20530001325382":{"id":"20530001325382","name":"ห้างหุ้นส่วนจำกัด ยศสรัลโลหะกิจและแทรค เตอร์","owner":"ห้างหุ้นส่วนจำกัด ยศสรัลโลหะกิจและแทรค เตอร์","displayRegistration":"จ3-95(1)-13/38อต","province":"อุตรดิตถ์","district":"เมืองอุตรดิตถ์","subdistrict":"คุ้งตะเภา","industryType":"ซ่อมรถยนต์ ได้ 144 คัน/ปี","status":"ดำเนินกิจการ","lat":17.62842,"lon":100.12518},"10530000125397":{"id":"10530000125397","name":"บริษัท ส.อรุณคอนกรีต จำกัด","owner":"บริษัท ส.อรุณคอนกรีต จำกัด","displayRegistration":"3-58(1)-1/39อต","province":"อุตรดิตถ์","district":"เมืองอุตรดิตถ์","subdistrict":"งิ้วงาม","industryType":"ทำผลิตภัณฑ์คอนกรีต และคอนกรีตผสมเสร็จ","status":"ดำเนินกิจการ","lat":17.6622,"lon":100.14656},"00530000125399":{"id":"00530000125399","name":"โรงเส้นก๋วยเตี๋ยวศรีชาววัง","owner":"ห้างหุ้นส่วนจำกัด แก้วเจริญโภคทรัพย์","displayRegistration":"ศ3-10(3)-1/39อต","province":"อุตรดิตถ์","district":"เมืองอุตรดิตถ์","subdistrict":"บ้านเกาะ","industryType":"ทำเส้นก๋วยเตี๋ยว","status":"ดำเนินกิจการ","lat":17.59518,"lon":100.09789},"20530000125395":{"id":"20530000125395","name":"ศรีสง่าพัฒนา","owner":"นายประกอบ ไคร้ชม","displayRegistration":"จ3-66-1/39อต","province":"อุตรดิตถ์","district":"เมืองอุตรดิตถ์","subdistrict":"บ้านเกาะ","industryType":"ซ่อมเครื่องยนต์ ประกอบรถไทยแลนด์ ประกอบตัวถังรถยนต์ ซ่อมแซมเครื่องจักรสำหรับใช้ในการเกษตร ประกอบดัดแปลงหรือเปลี่ยนแปลงสภาพรถยนต์","status":"ดำเนินกิจการ","lat":17.60532,"lon":100.07267},"20530000225401":{"id":"20530000225401","name":"บริษัท อุตรดิตถ์ฮอนด้าคาร์ส์ จำกัด","owner":"บริษัท อุตรดตถ์ฮอนด้าคาร์ส์ จำกัด","displayRegistration":"จ3-95(1)-2/40อต","province":"อุตรดิตถ์","district":"เมืองอุตรดิตถ์","subdistrict":"ป่าเซ่า","industryType":"ซ่มรถยนต์ ได้ 2160 คัน/ปี","status":"ดำเนินกิจการ","lat":17.60422,"lon":100.12378},"20530100125402":{"id":"20530100125402","name":"ห้างหุ้นส่วนจำกัด สตาร์น้ำแข็งหลอด","owner":"ห้างหุ้นส่วนจำกัด สตาร์น้ำแข็งหลอด","displayRegistration":"จ3-14-1/40อต","province":"อุตรดิตถ์","district":"น้ำปาด","subdistrict":"แสนตอ","industryType":"ผลิตน้ำแข็งหลอด","status":"ดำเนินกิจการ","lat":17.72278,"lon":100.66397},"10530100125404":{"id":"10530100125404","name":"ดิเรกแทรค","owner":"นายอรรณพ ถั่วทอง","displayRegistration":"3-70-1/40อต","province":"อุตรดิตถ์","district":"เมืองอุตรดิตถ์","subdistrict":"คุ้งตะเภา","industryType":"ซ่อมรถแทรคเตอร์ และทำชิ้นส่วนอุปกรณ์รถแทรกเตอร์","status":"ดำเนินกิจการ","lat":17.63238,"lon":100.12618},"20530000125379":{"id":"20530000125379","name":"ห้างหุ้นส่วนจำกัด โรงสีโชคธนวัฒน์","owner":"บริษัท โรงสีโชคธนวัฒน์ จำกัด","displayRegistration":"จ3-9(1)-1/37อต","province":"อุตรดิตถ์","district":"ตรอน","subdistrict":"บ้านแก่ง","industryType":"สีข้าว กำลังสีสูงสุดของร้านสีข้าว 90 เกวียน/วัน","status":"ดำเนินกิจการ","lat":17.45036,"lon":100.13976},"20530200125401":{"id":"20530200125401","name":"บริษัท เจ.เจ.พี.คอนกรีต จำกัด","owner":"บริษัท เจ.เจ.พี.คอนกรีต จำกัด","displayRegistration":"จ3-58(1)-1/40อต","province":"อุตรดิตถ์","district":"เมืองอุตรดิตถ์","subdistrict":"ป่าเซ่า","industryType":"ผลิตคอนกรีตผสมเสร็จ แผ่นพื้นสำเร็จรูป ท่อคอนกรีตอัดแรง เสาเขม เสาไฟฟ้า บล๊อคคอนกรีต","status":"ดำเนินกิจการ","lat":17.6239,"lon":100.12449},"10530200125403":{"id":"10530200125403","name":"โรงไฟฟ้าพลังน้ำเขื่อนสิริกิติ์","owner":"การไฟฟ้าฝ่ายผลิตแห่งประเทศไทย","displayRegistration":"3-88-1/40อต","province":"อุตรดิตถ์","district":"ท่าปลา","subdistrict":"ผาเลือด","industryType":"ผลิตกระแสไฟฟ้า","status":"ดำเนินกิจการ","lat":17.74499,"lon":100.5578},"20530000325409":{"id":"20530000325409","name":"สรรพากิจ","owner":"ห้างหุ้นส่วนจำกัด อุตรดิตถ์สรรพากิจ","displayRegistration":"จ3-65-3/40อต","province":"อุตรดิตถ์","district":"เมืองอุตรดิตถ์","subdistrict":"ป่าเซ่า","industryType":"ทำชิ้นส่วนอุปกรณ์เครื่องยนต์ กลึง และเชื่อมโลหะ","status":"ดำเนินกิจการ","lat":17.60849,"lon":100.1176},"20530000125411":{"id":"20530000125411","name":"ไม่มีชื่อโรงงาน","owner":"นายสิทธิพล ภู่สมบุญ","displayRegistration":"จ3-9(1)-1/41อต","province":"อุตรดิตถ์","district":"เมืองอุตรดิตถ์","subdistrict":"วังกะพี้","industryType":"สีข้าว ชนิดแยกแกลบแยกรำ(กำลังสีสูงสุดของร้านสีข้าว 25 เกวียน","status":"หยุดชั่วคราว","lat":17.54827,"lon":100.0973},"10530000125413":{"id":"10530000125413","name":"โรงสีป้อมจักรศิลป์","owner":"นายประมุข ป้อมจักรศิลป์","displayRegistration":"3-9(1)-1/41อต","province":"อุตรดิตถ์","district":"เมืองอุตรดิตถ์","subdistrict":"หาดกรวด","industryType":"สีข้าวชนิดแยกแกลบแยกรำ (กำลังสีสูงสุดของร้านสีข้าว 80เกวียน/วัน)","status":"หยุดชั่วคราว","lat":17.55277,"lon":100.17722},"20530100125436":{"id":"20530100125436","name":"NULL","owner":"นายสำรวม เลี้ยงไกรลาศ","displayRegistration":"จ3-9(1)-1/43อต","province":"อุตรดิตถ์","district":"เมืองอุตรดิตถ์","subdistrict":"ผาจุก","industryType":"สีข้าว (กำลังสีสูงสุดของร้านสีข้าว 20 เกวียน/วัน)","status":"ดำเนินกิจการ","lat":17.64165,"lon":100.24214},"20530000225435":{"id":"20530000225435","name":"ท่าทรายสิทธิพร","owner":"นายธนกฤต ย้ายตั้ง","displayRegistration":"จ3-3(4)-2/43อต","province":"อุตรดิตถ์","district":"ตรอน","subdistrict":"วังแดง","industryType":"ดูดทราย","status":"ดำเนินกิจการ","lat":17.46995,"lon":100.11413},"20530100125428":{"id":"20530100125428","name":"ห้างหุ้นส่วนจำกัด ปกรณ์อุตสาหกรรม","owner":"ห้างหุ้นส่วนจำกัด ปกรณ์อุตสาหกรรม","displayRegistration":"จ3-42(1)-1/42อต","province":"อุตรดิตถ์","district":"ทองแสนขัน","subdistrict":"บ่อทอง","industryType":"ผลิตผงแคลเซียมคาร์บอเนตสำหรับเป็นส่วนผสมของอาหารสัตว์","status":"ดำเนินกิจการ","lat":17.48409,"lon":100.34029},"20530400125441":{"id":"20530400125441","name":"บริษัท โตโยต้าอุตรดิตถ์ ผู้จำหน่ายโตโยต้า จำกัด","owner":"บริษัท โตโยต้าอุตรดิตถ์ ผู้จำหน่ายโตโยต้า จำกัด","displayRegistration":"จ3-95(1)-1/44อต","province":"อุตรดิตถ์","district":"เมืองอุตรดิตถ์","subdistrict":"คุ้งตะเภา","industryType":"ซ่อมเครื่องยนต์ และเคาะพ่นสีรถยนต์","status":"ดำเนินกิจการ","lat":17.62525,"lon":100.12519},"20530200125450":{"id":"20530200125450","name":"ห้างหุ้นส่วนจำกัด อุตรดิตถ์อู่บางกอกยนต์","owner":"ห้างหุ้นส่วนจำกัด อุตรดิตถ์อู่บางกอกยนต์","displayRegistration":"จ3-95(1)-1/45อต","province":"อุตรดิตถ์","district":"เมืองอุตรดิตถ์","subdistrict":"คุ้งตะเภา","industryType":"เคาะพ่นสีรถยนต์","status":"ดำเนินกิจการ","lat":17.63158,"lon":100.12563},"20530100125451":{"id":"20530100125451","name":"ศรีสง่าพานิช","owner":"ห้างหุ้นส่วนจำกัด พี พี พี โพรดิวเซอร์","displayRegistration":"จ3-66-1/45อต","province":"อุตรดิตถ์","district":"เมืองอุตรดิตถ์","subdistrict":"ท่าอิฐ","industryType":"ประกอบยานที่ขับเคลื่อนด้วยเครื่องยนต์,ประกอบตัวถังรถยนต์,ซ่อมเครื่องยนต์,และประกอบรถไทยแลนด์","status":"ดำเนินกิจการ","lat":17.61167,"lon":100.1079},"20530200125443":{"id":"20530200125443","name":"ห้างหุ้นส่วนจำกัด สตาร์บ่อทอง","owner":"ห้างหุ้นส่วนจำกัด สตาร์บ่อทอง","displayRegistration":"จ3-14-1/44อต","province":"อุตรดิตถ์","district":"ทองแสนขัน","subdistrict":"บ่อทอง","industryType":"ผลิตน้ำแข็งหลอด","status":"ดำเนินกิจการ","lat":17.46588,"lon":100.34537},"20530000125452":{"id":"20530000125452","name":"โครงการปรับปรุงประสิทธิภาพและคุณภาพผลิตผลการเกษตรของสถาบันการเกษตรกร","owner":"สหกรณ์นิคมพิชัยพัฒนา จำกัด","displayRegistration":"จ3-2(9)-1/45อต","province":"อุตรดิตถ์","district":"พิชัย","subdistrict":"ท่ามะเฟือง","industryType":"ปรับปรุงเมล็ดพันธุ์พืช","status":"ดำเนินกิจการ","lat":17.24556,"lon":100.02635},"10530000125462":{"id":"10530000125462","name":"โรงสีศุภรักษ์","owner":"บริษัท ศุภรักษ์ อินเตอร์ไรซ์ จำกัด","displayRegistration":"3-9(1)-1/46อต","province":"อุตรดิตถ์","district":"เมืองอุตรดิตถ์","subdistrict":"บ้านเกาะ","industryType":"สีข้าว อบเมล็ดข้าวเปลือก และเก็บรักษา","status":"ดำเนินกิจการ","lat":17.60551,"lon":100.07121},"20530300125442":{"id":"20530300125442","name":"ห้างหุ้นส่วนจำกัด พิชัยเฟอร์นิเทค","owner":"บริษัท พิชัยเฟอร์นิเทค จำกัด","displayRegistration":"จ3-37-1/44อต","province":"อุตรดิตถ์","district":"พิชัย","subdistrict":"คอรุม","industryType":"ทำเครื่องเรือนจากไม้","status":"ดำเนินกิจการ","lat":17.30483,"lon":100.05778},"20530000325441":{"id":"20530000325441","name":"ห้างหุ้นส่วนจำกัด โรงสียิ้มบุญมา","owner":"ชุมนุมสหกรณ์เมืองพิชัย","displayRegistration":"จ3-2(1)-3/44อต","province":"อุตรดิตถ์","district":"เมืองอุตรดิตถ์","subdistrict":"วังกะพี้","industryType":"อบเมล็ดข้าวเปลือก","status":"ดำเนินกิจการ","lat":17.53412,"lon":100.09887},"10530100125461":{"id":"10530100125461","name":"บริษัท แทร็คโก้ จำกัด","owner":"บริษัท แทร็คโก้ จำกัด","displayRegistration":"3-50(4)-1/46อต","province":"อุตรดิตถ์","district":"เมืองอุตรดิตถ์","subdistrict":"คุ้งตะเภา","industryType":"ผลิตแอสฟัลท์ติก","status":"ดำเนินกิจการ","lat":17.5991,"lon":100.21015},"20530000225468":{"id":"20530000225468","name":"สหกรณ์การเกษตรเมืองลับแล","owner":"สหกรณ์การเกษตรเมืองลับแล จำกัด","displayRegistration":"จ3-9(1)-2/46อต","province":"อุตรดิตถ์","district":"ลับแล","subdistrict":"ทุ่งยั้ง","industryType":"สีข้าว กำลังสีสูงสุด 40 ก/ว และเก็บรักษาเมล็ดข้าวเปลือก","status":"ดำเนินกิจการ","lat":17.59791,"lon":100.01203},"30530000125393":{"id":"30530000125393","name":"บริษัท เหมืองธารไศล จำกัด","owner":"บริษัท เหมืองธารไศล จำกัด","displayRegistration":"ธ3-3(1)-1/39อต","province":"อุตรดิตถ์","district":"ทองแสนขัน","subdistrict":"บ่อทอง","industryType":"โม่ บด ย่อยหิน","status":"ดำเนินกิจการ","lat":17.51034,"lon":100.34538},"30530000225391":{"id":"30530000225391","name":"บริษัท เอจีไมนิ่ง จำกัด","owner":"บริษัท ศิลาพิชัย จำกัด","displayRegistration":"ธ3-3(1)-2/39อต","province":"อุตรดิตถ์","district":"เมืองอุตรดิตถ์","subdistrict":"ผาจุก","industryType":"โม่ ย่อยหิน","status":"ดำเนินกิจการ","lat":17.61832,"lon":100.25866},"20530000925471":{"id":"20530000925471","name":"บริษัท เม็ลทัล อัลลอย ดีไซน์ จำกัด","owner":"บริษัท เม็ลทัล อัลลอย ดีไซน์ จำกัด","displayRegistration":"จ3-62-9/47อต","province":"อุตรดิตถ์","district":"เมืองอุตรดิตถ์","subdistrict":"หาดกรวด","industryType":"ผลิต ตบแต่ง ดัดแปลงหรือซ่อมแซมเครื่องเรือน เครื่องตบแต่งภายในอาคาร เครื่องมือหรือเครื่องใช้จากโลหะ","status":"ดำเนินกิจการ","lat":17.55449,"lon":100.17417},"20530004925477":{"id":"20530004925477","name":"ห้างหุ้นส่วนจำกัด เอส.พี.ไอซ์","owner":"ห้างหุ้นส่วนจำกัด เอส.พี.ไอซ์","displayRegistration":"จ3-14-49/47อต","province":"อุตรดิตถ์","district":"เมืองอุตรดิตถ์","subdistrict":"ป่าเซ่า","industryType":"ทำน้ำแข็งซอง (กำลังการผลิตสูงสุด 1200 ซอง/วัน)","status":"ดำเนินกิจการ","lat":17.61471,"lon":100.12307},"20530100125444":{"id":"20530100125444","name":"ทรัพย์วารี","owner":"นางทวีวรรณ ม่วงรักษ์","displayRegistration":"จ3-3(4)-1/44อต","province":"อุตรดิตถ์","district":"เมืองอุตรดิตถ์","subdistrict":"หาดกรวด","industryType":"ดูดทรายใช้เรือทะเบียนเลขที่ 375300266","status":"หยุดชั่วคราว","lat":17.57043,"lon":100.13104},"10530000225361":{"id":"10530000225361","name":"ห้างหุ้นส่วนจำกัด ศิลาพิชัย","owner":"ห้างหุ้นส่วนจำกัด ศิลาพิชัย","displayRegistration":"3-3(1)-2/36อต","province":"อุตรดิตถ์","district":"เมืองอุตรดิตถ์","subdistrict":"ผาจุก","industryType":"โม่และย่อยหิน","status":"ดำเนินกิจการ","lat":17.60492,"lon":100.26561},"20530006425492":{"id":"20530006425492","name":"บริษัท เอส.พี.ออโต้เพ้นท์ เซอร์วิส จำกัด","owner":"บริษัท เอส.พี.ออโต้เพ้นท์ เซอร์วิส จำกัด","displayRegistration":"จ3-95(1)-64/49อต","province":"อุตรดิตถ์","district":"เมืองอุตรดิตถ์","subdistrict":"งิ้วงาม","industryType":"ซ่อม เคาะพ่นสีรถยนต์","status":"ดำเนินกิจการ","lat":17.67052,"lon":100.15236},"20530001825480":{"id":"20530001825480","name":"ห้างหุ้นส่วนจำกัด อุตรดิตถ์สตาร์ไอซ์","owner":"ห้างหุ้นส่วนจำกัด อุตรดิตถ์สตาร์ไอซ์","displayRegistration":"จ3-14-18/48อต","province":"อุตรดิตถ์","district":"เมืองอุตรดิตถ์","subdistrict":"ท่าอิฐ","industryType":"ผลิตน้ำแข็งซอง","status":"ดำเนินกิจการ","lat":17.63601,"lon":100.09805},"20530000125445":{"id":"20530000125445","name":"สหกรณ์การเกษตรเมืองอุตรดิตถ์ จำกัด","owner":"สหกรณ์การเกษตรเมืองอุตรดิตถ์ จำกัด","displayRegistration":"จ3-2(1)-1/44อต","province":"อุตรดิตถ์","district":"เมืองอุตรดิตถ์","subdistrict":"บ้านเกาะ","industryType":"อบเมล็ดพืช สีข้าว และเก็บรักษาข้าวเปลือกในไซโล กำลังการผลิต 40 เกวียน/วัน","status":"ดำเนินกิจการ","lat":17.58324,"lon":100.10505},"20530000325490":{"id":"20530000325490","name":"อุตรดิตถ์แสงตะวัน","owner":"ห้างหุ้นส่วนจำกัด ทรัพย์ห้าแสง","displayRegistration":"จ3-3(4)-3/49อต","province":"อุตรดิตถ์","district":"เมืองอุตรดิตถ์","subdistrict":"วังกะพี้","industryType":"ดูดทราย ทะเบียนเรือเลขที่ 4815 00037","status":"ดำเนินกิจการ","lat":17.5454,"lon":100.11467},"20530007825500":{"id":"20530007825500","name":"ห้างหุ้นส่วนจำกัด อุตรดิตถ์ทรัพย์ทวี","owner":"ห้างหุ้นส่วนจำกัด อุตรดิตถ์ทรัพย์ทวี","displayRegistration":"จ3-3(4)-78/50อต","province":"อุตรดิตถ์","district":"เมืองอุตรดิตถ์","subdistrict":"ป่าเซ่า","industryType":"ดูดทราย ใบอนุญาตใช้เรือเลขที่ 3853 00844","status":"ดำเนินกิจการ","lat":17.58305,"lon":100.12783},"20530001025511":{"id":"20530001025511","name":"-","owner":"นายกฤตเมธ ครุฑเมือง","displayRegistration":"จ3-3(4)-10/51อต","province":"อุตรดิตถ์","district":"เมืองอุตรดิตถ์","subdistrict":"วังกะพี้","industryType":"ดูดทราย ใบอนุญาตใช้เรือเลขที่ 3753 00321","status":"ดำเนินกิจการ","lat":17.53546,"lon":100.10387},"20530005625514":{"id":"20530005625514","name":"ม.บุญทำคอนกรีต","owner":"ห้างหุ้นส่วนจำกัด ม.บุญทำพานิช","displayRegistration":"จ3-58(1)-56/51อต","province":"อุตรดิตถ์","district":"พิชัย","subdistrict":"คอรุม","industryType":"ทำคอนกรีตผสมเสร็จ","status":"ดำเนินกิจการ","lat":17.28597,"lon":100.0704},"20530004825495":{"id":"20530004825495","name":"บริษัท ชอกมลรัตน์ จำกัด","owner":"บริษัท ชอกมลรัตน์ จำกัด","displayRegistration":"จ3-3(4)-48/49อต","province":"อุตรดิตถ์","district":"เมืองอุตรดิตถ์","subdistrict":"ท่าเสา","industryType":"ดูดทราย ทะเบียนเรือเลขที่ 385300852","status":"ดำเนินกิจการ","lat":17.65122,"lon":100.1318},"20530021225497":{"id":"20530021225497","name":"ณัฐชญาค้าไม้","owner":"นางลาวัลย์ ภาคภูมิ","displayRegistration":"จ3-37-212/49อต","province":"อุตรดิตถ์","district":"เมืองอุตรดิตถ์","subdistrict":"งิ้วงาม","industryType":"ทำเครื่องเรือน เครื่องตบแต่งหรือผลิตภัณฑ์จากไม้ โดยใช้ไม้ที่ทำจากสวนป่าหรือไม้ที่ปลูกขึ้นเองทุกชนิด และไม้ที่นำเข้าจากต่างประเทศเป็นวัตถุดิบ","status":"ดำเนินกิจการ","lat":17.67333,"lon":100.14754},"10530003025545":{"id":"10530003025545","name":"บริษัท โรงสีข้าว ต.ประเสริฐ อุตรดิตถ์ จำกัด","owner":"บริษัท โรงสีข้าว ต.ประเสริฐ อุตรดิตถ์ จำกัด","displayRegistration":"3-9(1)-30/54อต","province":"อุตรดิตถ์","district":"เมืองอุตรดิตถ์","subdistrict":"วังกะพี้","industryType":"สีข้าว สีข้าวนึ่ง กำลังสีสูงสุดของร้านสีข้าว 600 เกวียน/วัน และอบข้าวเปลือก","status":"ดำเนินกิจการ","lat":17.51528,"lon":100.08772},"20530200225557":{"id":"20530200225557","name":"ลูกชิ้น พ.ล.","owner":"สมชาย ทองเกลี้ยง","displayRegistration":"จ3-4(3)-2/55อต","province":"อุตรดิตถ์","district":"เมืองอุตรดิตถ์","subdistrict":"บ้านเกาะ","industryType":"ทำลูกชิ้น","status":"ดำเนินกิจการ","lat":17.5895840146242,"lon":100.11367928509},"20530001825548":{"id":"20530001825548","name":"โรงสีเพรชเจริญ","owner":"นายภณธน ยิ้มเพชร","displayRegistration":"จ3-9(1)-18/54อต","province":"อุตรดิตถ์","district":"เมืองอุตรดิตถ์","subdistrict":"วังกะพี้","industryType":"สีข้าว กำลังสีสูงสุด 60 เกรียน/วัน และอบเมล็ดข้าวเปลือก","status":"หยุดชั่วคราว","lat":17.54351,"lon":100.09724},"20530001325531":{"id":"20530001325531","name":"โรงกลึงสนุ่น","owner":"นายเสกสรร เรือนขำ","displayRegistration":"จ3-65-13/53อต","province":"อุตรดิตถ์","district":"เมืองอุตรดิตถ์","subdistrict":"งิ้วงาม","industryType":"ทำชิ้นส่วนอุปกรณ์เครื่องยนต์ กลึงและเชื่อมโลหะ","status":"ดำเนินกิจการ","lat":17.6700493179191,"lon":100.1409882961},"10530001625544":{"id":"10530001625544","name":"ห้างหุ้นส่วนจำกัด สตาร์พิชัย","owner":"ห้างหุ้นส่วนจำกัด สตาร์พิชัย","displayRegistration":"3-14-16/54อต","province":"อุตรดิตถ์","district":"พิชัย","subdistrict":"คอรุม","industryType":"ผลิตน้ำแข็งหลอด","status":"ดำเนินกิจการ","lat":17.29742,"lon":100.07427},"20530004925543":{"id":"20530004925543","name":"-","owner":"นายอุเทน สำราญจิตร","displayRegistration":"จ3-3(4)-49/54อต","province":"อุตรดิตถ์","district":"พิชัย","subdistrict":"ท่าสัก","industryType":"ดูดทราย","status":"ดำเนินกิจการ","lat":17.4022216147561,"lon":100.111149503307},"20530015225537":{"id":"20530015225537","name":"ห้างหุ้นส่วนจำกัด ทรัพย์ทรายทองคอนกรีต","owner":"นายธานินทร์ หอมเพียร","displayRegistration":"จ3-58(1)-152/53อต","province":"อุตรดิตถ์","district":"เมืองอุตรดิตถ์","subdistrict":"ป่าเซ่า","industryType":"ผลิตคอนกรีตผสมเสร็จ","status":"ดำเนินกิจการ","lat":17.5941614169217,"lon":100.127551861768},"20530000225559":{"id":"20530000225559","name":"บริษัท ดวงอุปถัมภ์ จำกัด","owner":"บริษัท ดวงอุปถัมภ์ จำกัด","displayRegistration":"จ3-2(1)-2/55อต","province":"อุตรดิตถ์","district":"ทองแสนขัน","subdistrict":"ผักขวง","industryType":"อบข้าวโพด","status":"ดำเนินกิจการ","lat":17.534965412568,"lon":100.404589660273},"20530000525529":{"id":"20530000525529","name":"ห้างหุ้นส่วนจำกัด ศรีโยยอดพันธุ์ข้าว","owner":"ห้างหุ้นส่วนจำกัด ศรีโยยอดพันธุ์ข้าว","displayRegistration":"จ3-2(9)-5/52อต","province":"อุตรดิตถ์","district":"เมืองอุตรดิตถ์","subdistrict":"วังกะพี้","industryType":"ผลิตเมล็ดพันธุ์ข้าว","status":"ดำเนินกิจการ","lat":17.52269,"lon":100.09835},"10530002425514":{"id":"10530002425514","name":"บริษัท สุนิสาจุฬารัตน์การโยธา จำกัด","owner":"บริษัท สุนิสาจุฬารัตน์การโยธา จำกัด","displayRegistration":"3-50(4)-24/51อต","province":"อุตรดิตถ์","district":"ทองแสนขัน","subdistrict":"ป่าคาย","industryType":"ผลิตแอสฟัลท์ติกคอนกรีต","status":"ดำเนินกิจการ","lat":17.53873,"lon":100.21346},"20530000925521":{"id":"20530000925521","name":"บริษัท เอกมั่งคั่ง อุตสาหกรรม จำกัด","owner":"บริษัท เอกมั่งคั่ง อุตสาหกรรม จำกัด","displayRegistration":"จ3-34(1)-9/52อต","province":"อุตรดิตถ์","district":"ตรอน","subdistrict":"วังแดง","industryType":"แปรรูปไม้ ทำไม้พาเลท ลังรองสินค้า และเครื่องเรือนจากไม้","status":"ดำเนินกิจการ","lat":17.5341,"lon":100.20498},"20530001925520":{"id":"20530001925520","name":"ท่าทายลาปเจริญ","owner":"นายพิลาป ทารัตน์","displayRegistration":"จ3-3(3)-19/52อต","province":"อุตรดิตถ์","district":"พิชัย","subdistrict":"บ้านดารา","industryType":"ดูดทราย และร่อนคัดขนาดกรวดหรือทราย ใบอนุญาตใช้เรือเลขที่ 365300769","status":"ดำเนินกิจการ","lat":17.3805322457238,"lon":100.099606211184},"10530004025528":{"id":"10530004025528","name":"บริษัท แพร่พญาก่อสร้าง จำกัด","owner":"บริษัท แพร่พญาก่อสร้าง จำกัด","displayRegistration":"3-50(4)-40/52อต","province":"อุตรดิตถ์","district":"ทองแสนขัน","subdistrict":"บ่อทอง","industryType":"ผสมแอสฟัลท์ติกคอนกรีต","status":"ดำเนินกิจการ","lat":17.4756659969604,"lon":100.329962973744},"20530101925529":{"id":"20530101925529","name":"จิรายุสการช่าง","owner":"นายชูชีพ นุชบาง","displayRegistration":"จ3-77(1)-19/52อต","province":"อุตรดิตถ์","district":"ตรอน","subdistrict":"น้ำอ่าง","industryType":"ประกอบรถไทยแลนด์ รวมพ่วง และรถดั๊มพ์","status":"ดำเนินกิจการ","lat":17.474385866306,"lon":100.2370032462},"20530006425567":{"id":"20530006425567","name":"-","owner":"นางวิจิตรา วอนสร้อย","displayRegistration":"จ3-3(4)-64/56อต","province":"อุตรดิตถ์","district":"เมืองอุตรดิตถ์","subdistrict":"ป่าเซ่า","industryType":"ดูดทราย","status":"ดำเนินกิจการ","lat":17.5813434924996,"lon":100.128140540022},"20530011925577":{"id":"20530011925577","name":"บริษัท อิมแพ็ค คอนกรีต จำกัด","owner":"บริษัท อิมแพ็ค คอนกรี จำกัด","displayRegistration":"จ3-58(1)-119/57อต","province":"อุตรดิตถ์","district":"เมืองอุตรดิตถ์","subdistrict":"หาดกรวด","industryType":"ทำผลิตภัณฑ์คอนกรีตและคอนกรีตผสมเสร็จ","status":"ดำเนินกิจการ","lat":17.5755711003154,"lon":100.147383275097},"20530013425576":{"id":"20530013425576","name":"NULL","owner":"นางสาวรัตนภรณ์ ศรีจิตรเพชร","displayRegistration":"จ3-3(2)-134/57อต","province":"อุตรดิตถ์","district":"ตรอน","subdistrict":"วังแดง","industryType":"ขุดดิน","status":"ดำเนินกิจการ","lat":17.512221,"lon":100.172768},"40530002625570":{"id":"40530002625570","name":"บริษัท พิชัยธัญชาติ จำกัด","owner":"บริษัท พิชัยธัญชาติ","displayRegistration":"3-88-26/57อต","province":"อุตรดิตถ์","district":"พิชัย","subdistrict":"ไร่อ้อย","industryType":"ผลิตพลังงานไฟฟ้าจากไอน้ำที่ใช้เชื้อเพลิงชีวมวล ขนาด 4.9 เมกะวัตต์","status":"ดำเนินกิจการ","lat":17.3487689273957,"lon":100.080963817973},"20530000425555":{"id":"20530000425555","name":"บริษัท เพชรส้มทอง จำกัด","owner":"บริษัท เพชรส้มทอง จำกัด","displayRegistration":"จ3-20(2)-4/55อต","province":"อุตรดิตถ์","district":"ทองแสนขัน","subdistrict":"บ่อทอง","industryType":"ผลิตและจำหน่ายน้ำส้ม 25%","status":"ดำเนินกิจการ","lat":17.46173,"lon":100.34724},"20530004125565":{"id":"20530004125565","name":"นีโน่ไอซ์ 2","owner":"ห้างหุ้นส่วนจำกัด นีโน่ไอซ์","displayRegistration":"จ3-14-41/56อต","province":"อุตรดิตถ์","district":"ลับแล","subdistrict":"ชัยจุมพล","industryType":"ทำน้ำแข็งซอง","status":"ดำเนินกิจการ","lat":17.6256799729665,"lon":100.068201162152},"20530005625555":{"id":"20530005625555","name":"นายอานันท์ เหล็กสิงห์","owner":"ห้างหุ้นส่วนจำกัด จุ้ยเจริญกิจ","displayRegistration":"จ3-2(5)-56/55อต","province":"อุตรดิตถ์","district":"พิชัย","subdistrict":"นาอิน","industryType":"เก็บรักษาพืชผลทางการเกษตรในโกดัง","status":"ดำเนินกิจการ","lat":17.2311000334422,"lon":100.2047681},"20530001425562":{"id":"20530001425562","name":"ธวัชชัยการช่าง","owner":"นายธวัชชัย ป้อมบู่","displayRegistration":"จ3-66-14/56อต","province":"อุตรดิตถ์","district":"ลับแล","subdistrict":"ทุ่งยั้ง","industryType":"ประกอบรถไทยแลนด์ และซ่อมอุปกรณ์การเกษตร","status":"ดำเนินกิจการ","lat":17.6008813554242,"lon":100.017865565792},"20530000625576":{"id":"20530000625576","name":"ห้างหุ้นส่วนจำกัด เฟรชลัควอเตอร์","owner":"ห้างหุ้นส่วนจำกัด เฟรชลัควอเตอร์","displayRegistration":"จ3-20(1)-6/57อต","province":"อุตรดิตถ์","district":"เมืองอุตรดิตถ์","subdistrict":"หาดกรวด","industryType":"ผลิตน้ำดื่ม","status":"ดำเนินกิจการ","lat":17.5472047004151,"lon":100.184086821356},"10530002225559":{"id":"10530002225559","name":"บริษัท จ.จักรวาล 42 จำกัด","owner":"บริษัท จ.จักรวาล 42 จำกัด","displayRegistration":"3-50(4)-22/55อต","province":"อุตรดิตถ์","district":"ทองแสนขัน","subdistrict":"ป่าคาย","industryType":"ผลิตยางแอสฟัลท์ติกคอนกรีต","status":"ดำเนินกิจการ","lat":17.5082824,"lon":100.2205963},"20530006025565":{"id":"20530006025565","name":"-","owner":"นายธงชัย โรจนพานิช","displayRegistration":"จ3-9(6)-60/56อต","province":"อุตรดิตถ์","district":"ทองแสนขัน","subdistrict":"บ่อทอง","industryType":"ทำมันแท่ง","status":"ดำเนินกิจการ","lat":17.4609971622666,"lon":100.3006393847},"20530002125542":{"id":"20530002125542","name":"ห้างหุ้นส่วนจำกัด นีโน่ไอซ์","owner":"ห้างหุ้นส่วนจำกัด นีโน่ไอซ์","displayRegistration":"จ3-14-21/54อต","province":"อุตรดิตถ์","district":"ลับแล","subdistrict":"ชัยจุมพล","industryType":"ผลิตน้ำแข็งหลอด และน้ำดื่ม","status":"ดำเนินกิจการ","lat":17.6256149738053,"lon":100.068379478916},"20530000425563":{"id":"20530000425563","name":"-","owner":"ห้างหุ้นส่วนจำกัด เค.พี.เอ็นจิเนียริ่ง 2015","displayRegistration":"จ3-64(12)-4/56อต","province":"อุตรดิตถ์","district":"ตรอน","subdistrict":"น้ำอ่าง","industryType":"ตัดพับหรือม้วนโลหะและกลึง เจาะ หรือเชื่อมโลหะทั่วไป","status":"ดำเนินกิจการ","lat":17.4346604149541,"lon":100.2309145983},"20530008725550":{"id":"20530008725550","name":"สหกรณ์การเกษตรเมืองตรอน จำกัด","owner":"สหกรณ์การเกษตรเมืองตรอน จำกัด","displayRegistration":"จ3-9(6)-87/55อต","province":"อุตรดิตถ์","district":"ตรอน","subdistrict":"วังแดง","industryType":"ทำมันเส้น","status":"หยุดชั่วคราว","lat":17.4937535535072,"lon":100.112975928056},"20530001425554":{"id":"20530001425554","name":"NULL","owner":"นายดอกรัก น้อยอินทร์","displayRegistration":"จ3-77(1)-14/55อต","province":"อุตรดิตถ์","district":"ทองแสนขัน","subdistrict":"บ่อทอง","industryType":"ประกอบรถยนต์สำหรับในการเกษตร","status":"ดำเนินกิจการ","lat":17.4633897630731,"lon":100.363434755597},"20530008625552":{"id":"20530008625552","name":"ลานมันวัชระ","owner":"บริษัท ดวงอุปถัมภ์ จำกัด","displayRegistration":"จ3-9(6)-86/55อต","province":"อุตรดิตถ์","district":"ทองแสนขัน","subdistrict":"ผักขวง","industryType":"ทำมันเส้น","status":"ดำเนินกิจการ","lat":17.5342584121251,"lon":100.4031186489},"20530009025554":{"id":"20530009025554","name":"สิทธิพรพืชผล","owner":"นายธนกฤต ย้ายตั้ง","displayRegistration":"จ3-9(6)-90/55อต","province":"อุตรดิตถ์","district":"ทองแสนขัน","subdistrict":"ป่าคาย","industryType":"ทำมันเส้น","status":"ดำเนินกิจการ","lat":17.5250830423267,"lon":100.217014111906},"20530100725565":{"id":"20530100725565","name":"ห้างหุ้นส่วนจำกัด กิจสินเลิศ","owner":"ห้างหุ้นส่วนจำกัด กิจสินเลิศ","displayRegistration":"จ3-50(4)-7/56อต","province":"อุตรดิตถ์","district":"ทองแสนขัน","subdistrict":"บ่อทอง","industryType":"ผลิตแอสฟัลท์ติกคอนกรีต","status":"ดำเนินกิจการ","lat":17.49635,"lon":100.343221},"20530004725554":{"id":"20530004725554","name":"ท่าทรายบุณรดา","owner":"นายชวัท ขำประดิษ","displayRegistration":"จ3-3(4)-47/55อต","province":"อุตรดิตถ์","district":"พิชัย","subdistrict":"ท่ามะเฟือง","industryType":"ดูดทราย","status":"ดำเนินกิจการ","lat":17.2238734149347,"lon":100.059372823423},"20530000125569":{"id":"20530000125569","name":"ห้างหุ้นส่วนจำกัด ปกรณ์อุตสาหกรรม","owner":"ห้างหุ้นส่วนจำกัด ปกรณ์อุตสาหกรรม","displayRegistration":"จ3-43(3)-1/56อต","province":"อุตรดิตถ์","district":"ทองแสนขัน","subdistrict":"บ่อทอง","industryType":"การเตรียมวัสดุอื่นเพื่อผสมทำปุ๋ย","status":"ดำเนินกิจการ","lat":17.4762910381347,"lon":100.330297602977},"10530005525559":{"id":"10530005525559","name":"บริษัท พิชัยธัญชาติ จำกัด","owner":"บริษัท พิชัยธัญชาติ จำกัด","displayRegistration":"3-9(1)-55/55อต","province":"อุตรดิตถ์","district":"พิชัย","subdistrict":"ไร่อ้อย","industryType":"สีข้าวและสีข้าวนึ่ง ขนาดกำลังการผลิต 1,000 ตัน/วัน","status":"ดำเนินกิจการ","lat":17.3475813494415,"lon":100.081669356171},"20530004025567":{"id":"20530004025567","name":"ท่าทรายนายประเมิน","owner":"นายประเมิน กุดเอี่ยม","displayRegistration":"จ3-3(4)-40/56อต","province":"อุตรดิตถ์","district":"เมืองอุตรดิตถ์","subdistrict":"วังกะพี้","industryType":"ดูดทราย","status":"ดำเนินกิจการ","lat":17.5543636790959,"lon":100.115426740834},"20530004825552":{"id":"20530004825552","name":"แสนขันพืชผล","owner":"นายเชิดศักดิ์ คณะใน","displayRegistration":"จ3-2(1)-48/55อต","province":"อุตรดิตถ์","district":"ทองแสนขัน","subdistrict":"บ่อทอง","industryType":"อบและเก็บรักษาเมล็ดพืช","status":"ดำเนินกิจการ","lat":17.4624780329252,"lon":100.3623946768},"20530000225567":{"id":"20530000225567","name":"สหกรณ์การเกษตรเมืองอุตรดิตถ์","owner":"สหกรณ์การเกษตรเมืองอุตรดิตถ์","displayRegistration":"จ3-9(1)-2/56อต","province":"อุตรดิตถ์","district":"เมืองอุตรดิตถ์","subdistrict":"บ้านเกาะ","industryType":"สีข้าว กำลังสีสูงสุดของร้านสีข้าว 200 เกวียน/วัน","status":"ดำเนินกิจการ","lat":17.5987,"lon":100.10468},"20530001925603":{"id":"20530001925603","name":"ท่าทรายชลิตดา","owner":"น.ส.มาศสุวัณณ์ พรหมอินทร์","displayRegistration":"จ3-3(4)-19/60อต","province":"อุตรดิตถ์","district":"เมืองอุตรดิตถ์","subdistrict":"คุ้งตะเภา","industryType":"ดูดทราย","status":"ดำเนินกิจการ","lat":17.6463237379404,"lon":100.12810152153},"20530003925577":{"id":"20530003925577","name":"บริษัท แอล.พี.พี.ซีวิล คอนสตรัคชั่น จำกัด","owner":"บริษัท แอล.พี.พี.ซีวิล แอสฟัลท์ จำกัด","displayRegistration":"จ3-50(4)-39/57อต","province":"อุตรดิตถ์","district":"ทองแสนขัน","subdistrict":"ป่าคาย","industryType":"ผลิตแอสฟัลต์ติกคอนกรีต","status":"ดำเนินกิจการ","lat":17.4934834049195,"lon":100.303274807009},"20530008125595":{"id":"20530008125595","name":"ห้างหุ้นส่วนจำกัด ชัยไพศาลทรัพย์","owner":"ห้างหุ้นส่วนจำกัด ชัยไพศาลทรัพย์","displayRegistration":"จ3-3(4)-81/59อต","province":"อุตรดิตถ์","district":"เมืองอุตรดิตถ์","subdistrict":"วังกะพี้","industryType":"ดูดทราย","status":"ดำเนินกิจการ","lat":17.5545514697034,"lon":100.117118026976},"20530000825606":{"id":"20530000825606","name":"ท่าทรายโชคนภา","owner":"นายพลวัฒน์ หอมเพียร","displayRegistration":"จ3-3(4)-8/60อต","province":"อุตรดิตถ์","district":"ตรอน","subdistrict":"วังแดง","industryType":"ดูดทรายใบอนุญาตใช้เรือเลขที่ 4815 00061","status":"ดำเนินกิจการ","lat":17.4733640327995,"lon":100.114122988391},"20530005025590":{"id":"20530005025590","name":"บริษัท ธนคอนสตรัคชั่น (1994) จำกัด","owner":"บริษัท ธนคอนสตรัคชั่น (1994) จำกัด","displayRegistration":"จ3-50(4)-50/59อต","province":"อุตรดิตถ์","district":"เมืองอุตรดิตถ์","subdistrict":"หาดกรวด","industryType":"ผลิตแอสฟัลท์ติกคอนกรีต","status":"ดำเนินกิจการ","lat":17.551184,"lon":100.193872},"10530004925602":{"id":"10530004925602","name":"ห้างหุ้นส่วนจำกัด สตาร์ภูดู่","owner":"ห้างหุ้นส่วนจำกัด สตาร์ภู่ดู","displayRegistration":"3-14-49/60อต","province":"อุตรดิตถ์","district":"บ้านโคก","subdistrict":"บ้านโคก","industryType":"ผลิตน้ำแข็งหลอดและน้ำแข็งซองเพื่อบริโภค","status":"ดำเนินกิจการ","lat":18.047951154834,"lon":101.1044599023},"20530013925609":{"id":"20530013925609","name":"บริษัท อาทิตย์คอนกรีต จำกัด","owner":"บริษัท อาทิตย์คอนกรีต จำกัด","displayRegistration":"จ3-58(1)-139/60อต","province":"อุตรดิตถ์","district":"ทองแสนขัน","subdistrict":"ป่าคาย","industryType":"ผลิตคอนกรีตผสมเสร็จ","status":"ดำเนินกิจการ","lat":17.508943,"lon":100.221465},"20530002225607":{"id":"20530002225607","name":"ห้างหุ้นส่วนจำกัด น้ำดื่มร่มโพธิ์ศรี","owner":"ห้างหุ้นส่วนจำกัด น้ำดื่มร่มโพธิ์ศรี","displayRegistration":"จ3-14-22/60อต","province":"อุตรดิตถ์","district":"เมืองอุตรดิตถ์","subdistrict":"งิ้วงาม","industryType":"ผลิตน้ำแข็งก้อนเล็ก","status":"ดำเนินกิจการ","lat":17.6728921367698,"lon":100.165158037947},"20530000125601":{"id":"20530000125601","name":"เทพกาพืชไร่","owner":"นายชาลี พาเหมาะ","displayRegistration":"จ3-2(2)-1/60อต","province":"อุตรดิตถ์","district":"น้ำปาด","subdistrict":"แสนตอ","industryType":"รับซื้อผลิตทางการเกษตร สีข้าวโพด","status":"ดำเนินกิจการ","lat":17.7207074098492,"lon":100.6583766767},"20530000525594":{"id":"20530000525594","name":"โรงอิฐ เอ็ม จัง","owner":"นายศุภกร เชื้อคำ","displayRegistration":"จ3-56-5/59อต","province":"อุตรดิตถ์","district":"เมืองอุตรดิตถ์","subdistrict":"ผาจุก","industryType":"ผลิตอิฐแดง อิฐบล็อค","status":"ดำเนินกิจการ","lat":17.6710495503312,"lon":100.225072537617},"20530000525602":{"id":"20530000525602","name":"ร้านชัยอารีย์การเกษตร","owner":"นางอารียา แก้วทอง","displayRegistration":"จ3-2(2)-5/60อต","province":"อุตรดิตถ์","district":"น้ำปาด","subdistrict":"แสนตอ","industryType":"สีข้าวโพด ทำมันเส้น","status":"ดำเนินกิจการ","lat":17.7188487075659,"lon":100.6545649156},"40530000325611":{"id":"40530000325611","name":"บริษัท อุตรดิตถ์ กรีน เพาเวอร์ จำกัด","owner":"บริษัท อุตรดิตถ์ กรีน เพาเวอร์ จำกัด","displayRegistration":"3-88(2)-3/61อต","province":"อุตรดิตถ์","district":"ตรอน","subdistrict":"วังแดง","industryType":"ผลิตและจำหน่ายกระแสไฟฟ้า (โรงไฟฟ้าพลังงานความร้อนจากเชื้อเพลิงชีวมวล) ขนาดกำลัง การผลิตไฟฟ้าติดตั้ง 9.500 กิโลวัตต์","status":"ดำเนินกิจการ","lat":17.492334,"lon":100.086691},"20530005125614":{"id":"20530005125614","name":"อภิสราค้าไม้","owner":"นางสาวอภิญาเรืองประเสริฐ","displayRegistration":"จ3-37-51/61อต","province":"อุตรดิตถ์","district":"เมืองอุตรดิตถ์","subdistrict":"บ้านเกาะ","industryType":"ทำเครื่องเรือนจากไม้","status":"ดำเนินกิจการ","lat":17.591906,"lon":100.093011},"20530001325598":{"id":"20530001325598","name":"ใบบริบาลกุล คอนกรีต","owner":"ห้างหุ้นส่วนจำกัด ใบบริบาลกุล แอนด์ ประภัสสร (ใบบริบาลกุล คอนกรีต)","displayRegistration":"จ3-58(1)-13/59อต","province":"อุตรดิตถ์","district":"ลับแล","subdistrict":"ไผ่ล้อม","industryType":"ผลิตคอนกรีตผสมเสร็จ และผลิตภัณฑ์คอนกรีตเช่น พื้นสำเร็จท่อระบายน้ำ เสาเข็ม","status":"ดำเนินกิจการ","lat":17.5390328944828,"lon":100.0429815627},"20530007325600":{"id":"20530007325600","name":"อุตรดิตถ์ไฟเบอร์","owner":"นายปรีชา สุวรรณสุข","displayRegistration":"จ3-95(1)-73/60อต","province":"อุตรดิตถ์","district":"ลับแล","subdistrict":"ชัยจุมพล","industryType":"ซ่อมรถยนต์","status":"ดำเนินกิจการ","lat":17.6130395081496,"lon":100.0649288149},"20530003625599":{"id":"20530003625599","name":"ห้างหุ้นส่วนจำกัด ทรัพย์ห้าแสง","owner":"ห้างหุ้นส่วนจำกัด ทรัพย์ห้าแสง","displayRegistration":"จ3-3(4)-36/59อต","province":"อุตรดิตถ์","district":"เมืองอุตรดิตถ์","subdistrict":"วังกะพี้","industryType":"ดูดทราย","status":"ดำเนินกิจการ","lat":17.5427333761751,"lon":100.114512634699},"20530001225582":{"id":"20530001225582","name":"บริษัท กว๋อติ่ง จำกัด","owner":"บริษัท กว๋อติ่ง จำกัด","displayRegistration":"จ3-10(3)-12/58อต","province":"อุตรดิตถ์","district":"ทองแสนขัน","subdistrict":"ป่าคาย","industryType":"ผลิตเม็ดสาคู","status":"ดำเนินกิจการ","lat":17.469881324375,"lon":100.26587256743},"20530001425588":{"id":"20530001425588","name":"บริษัท ปุ๋ยเมืองเจริญ จำกัด","owner":"บริษัท ปุ๋ยเมืองเจริญ จำกัด","displayRegistration":"จ3-43(1)-14/58อต","province":"อุตรดิตถ์","district":"เมืองอุตรดิตถ์","subdistrict":"วังกะพี้","industryType":"ผลิตปุ๋ยอินทรีย์ ปุ๋ยอินทรีย์เคมี และวัตถุดิบสำหรับผลิตปุ๋ย","status":"ดำเนินกิจการ","lat":17.5360213708635,"lon":100.095741203642},"20530007925599":{"id":"20530007925599","name":"-","owner":"นางสาวลักขณาภรณ์ ครุฑเมือง","displayRegistration":"จ3-3(4)-79/59อต","province":"อุตรดิตถ์","district":"เมืองอุตรดิตถ์","subdistrict":"วังกะพี้","industryType":"ดูดทราย","status":"ดำเนินกิจการ","lat":17.5433859377774,"lon":100.107184847958},"20530008025597":{"id":"20530008025597","name":"-","owner":"นางสาวสรัลนุช ครุฑเมือง","displayRegistration":"จ3-3(4)-80/59อต","province":"อุตรดิตถ์","district":"เมืองอุตรดิตถ์","subdistrict":"วังกะพี้","industryType":"ดูดทราย","status":"ดำเนินกิจการ","lat":17.5546632738694,"lon":100.114153103494},"20530001925595":{"id":"20530001925595","name":"สนั่นฟาร์ม","owner":"บริษัท สนั่นฟาร์ม จำกัด","displayRegistration":"จ3-15(1)-19/59อต","province":"อุตรดิตถ์","district":"เมืองอุตรดิตถ์","subdistrict":"หาดงิ้ว","industryType":"การผลิตอาหารสัตว์","status":"ดำเนินกิจการ","lat":17.6803482387521,"lon":100.335775695007},"20530002225581":{"id":"20530002225581","name":"โรงฆ่าสัตว์บ้านหนองหิน","owner":"บริษัท ทริปเปิ้ลอาร์ กรุ๊ป(2018) จำกัด","displayRegistration":"จ3-4(1)-22/58อต","province":"อุตรดิตถ์","district":"ทองแสนขัน","subdistrict":"น้ำพี้","industryType":"การฆ่าสัตว์ชำแหละและถนอมเนื้อสัตว์","status":"ดำเนินกิจการ","lat":17.57332,"lon":100.24129},"20530002525600":{"id":"20530002525600","name":"กัปตันพืชผล","owner":"นางวราพร พาพิมพ์","displayRegistration":"จ3-9(6)-25/60อต","province":"อุตรดิตถ์","district":"น้ำปาด","subdistrict":"บ้านฝาย","industryType":"ทำมันเส้น สีข้าวโพด","status":"ดำเนินกิจการ","lat":17.7838922191363,"lon":100.7146439856},"20530001425596":{"id":"20530001425596","name":"โรงแปรรูปเนื้อสัตว์ บี.เอ็ม.ฟูดส์แอนด์พอร์ค โพรดักส์ จำกัด","owner":"บริษัท บี.เอ็ม.ฟูดส์แอนด์พอร์ค โพรดักส์ จำกัด","displayRegistration":"จ3-4(1)-14/59อต","province":"อุตรดิตถ์","district":"เมืองอุตรดิตถ์","subdistrict":"งิ้วงาม","industryType":"ฆ่าสุกร ตััดแต่งชิ้นส่วนพร้อมบรรจุฯลฯ","status":"ดำเนินกิจการ","lat":17.6912777251536,"lon":100.16229200779},"20530008925556":{"id":"20530008925556","name":"สหกรณ์การเกษตรปฏิรูปที่ดินหนองกอก จำกัด","owner":"สหกรณ์การเกษตรปฏิรูปที่ดินหนองกอก จำกัด","displayRegistration":"จ3-9(6)-89/55อต","province":"อุตรดิตถ์","district":"ทองแสนขัน","subdistrict":"ป่าคาย","industryType":"ทำมันเส้น","status":"ดำเนินกิจการ","lat":17.5263763196982,"lon":100.228717487282},"20530200425587":{"id":"20530200425587","name":"บริษัท ดีไรซ์ กรุ๊ป จำกัด","owner":"บริษัท ดีไรซ์ กรุ๊ป จำกัด","displayRegistration":"จ3-2(9)-4/58อต","province":"อุตรดิตถ์","district":"พิชัย","subdistrict":"คอรุม","industryType":"การร่อน ล้าง คัด หรือแยกขนาดหรือคุณภาพของผลิตผลเกษตรกรรม","status":"ดำเนินกิจการ","lat":17.295525527183,"lon":100.0562351046},"20530102525609":{"id":"20530102525609","name":"ห้างหุ้นส่วนจำกัด สตาร์ท่าปลา","owner":"ห้างหุ้นส่วนจำกัด สตาร์ท่าปลา","displayRegistration":"จ3-14-25/60อต","province":"อุตรดิตถ์","district":"ท่าปลา","subdistrict":"ร่วมจิต","industryType":"ผลิตน้ำแข็งหลอดเพื่อบริโภค","status":"ดำเนินกิจการ","lat":17.6955231691722,"lon":100.2986828304},"10530104925601":{"id":"10530104925601","name":"บริษัท เจริญจินดา กรุ๊ป จำกัด","owner":"บริษัท เจริญจินดา กรุ๊ป จำกัด","displayRegistration":"3-105-49/60อต","province":"อุตรดิตถ์","district":"เมืองอุตรดิตถ์","subdistrict":"วังกะพี้","industryType":"คัดแยกวัสดุที่ไม่ใช้แล้วที่ไม่เป็นของเสียอันตราย","status":"ดำเนินกิจการ","lat":17.5308022372396,"lon":100.099338021956},"20530000525586":{"id":"20530000525586","name":"NULL","owner":"นางอำพร มาเที่ยง","displayRegistration":"จ3-53(9)-5/58อต","province":"อุตรดิตถ์","district":"พิชัย","subdistrict":"ในเมือง","industryType":"บดย่อยพลาสติก","status":"หยุดชั่วคราว","lat":17.2898495391458,"lon":100.0908708573},"10530001325590":{"id":"10530001325590","name":"บริษัท โรงน้ำแข็งอุตรดิตถ์ กิจวารี จำกัด","owner":"บริษัท โรงน้ำแข็งอุตรดิตถ์ กิจวารี จำกัด","displayRegistration":"3-14-13/59อต","province":"อุตรดิตถ์","district":"เมืองอุตรดิตถ์","subdistrict":"คุ้งตะเภา","industryType":"ผลิตน้ำแข็งก้อนเล็กและน้ำแข็งซอง","status":"ดำเนินกิจการ","lat":17.6344143803181,"lon":100.125118982074},"20530102225580":{"id":"20530102225580","name":"บริษัท บีเอ็ม ฟีดมิลล์ จำกัด","owner":"บริษัท บีเอ็ม ฟีดมิลล์ จำกัด","displayRegistration":"จ3-15(1)-22/58อต","province":"อุตรดิตถ์","district":"เมืองอุตรดิตถ์","subdistrict":"งิ้วงาม","industryType":"การผลิตอาหารสัตว์","status":"ดำเนินกิจการ","lat":17.6694732252485,"lon":100.1942019755},"20530000525610":{"id":"20530000525610","name":"บริษัท ใหญ่ก่อสร้าง คอนกรีต 2015 จำกัด","owner":"บริษัท ใหญ่ก่อสร้าง คอนกรีต 2015 จำกัด","displayRegistration":"จ3-58(1)-5/61อต","province":"อุตรดิตถ์","district":"บ้านโคก","subdistrict":"บ้านโคก","industryType":"ผลิตคอนกรีตผสมเสร็จ","status":"ดำเนินกิจการ","lat":18.0317080311658,"lon":101.087581621797},"20530000425597":{"id":"20530000425597","name":"ห้างหุ้นส่วนจำกัด บัลลังก์ ฟาร์ม","owner":"ห้างหุ้นส่วนจำกัด บัลลังก์ ฟาร์ม","displayRegistration":"จ3-15(1)-4/59อต","province":"อุตรดิตถ์","district":"เมืองอุตรดิตถ์","subdistrict":"ขุนฝาง","industryType":"ผลิตอาหารสัตว์","status":"ดำเนินกิจการ","lat":17.703724,"lon":100.198241},"20530004025583":{"id":"20530004025583","name":"บริษัท พี.เค.เอส. 37 ยูเนี่ยน คอนสตรัคชั่นส์ จำกัด","owner":"บริษัท พี.เค.เอส.37 ยูเนี่ยนคอนสตรัคชั่นส์ จำกัด","displayRegistration":"จ3-50(4)-40/58อต","province":"อุตรดิตถ์","district":"ทองแสนขัน","subdistrict":"ป่าคาย","industryType":"ผลิตแอสฟัสติกต์คอนกรีต","status":"ดำเนินกิจการ","lat":17.488904,"lon":100.307445},"10530000625610":{"id":"10530000625610","name":"โรงงานย่อยไม้มีสุข (วู๊ดชิป)","owner":"นายยอดยิ่ง มีสุข","displayRegistration":"3-34(4)-6/61อต","province":"อุตรดิตถ์","district":"เมืองอุตรดิตถ์","subdistrict":"ขุนฝาง","industryType":"ย่อยไม้หรือชิ้นไม้สับจากไม้ยางพารา หรือไม้ที่ปลูกขึ้นโดยเฉพาะ 13 ชนิด","status":"ดำเนินกิจการ","lat":17.691524,"lon":100.211541},"20530000725582":{"id":"20530000725582","name":"ห้างหุ้นส่วนจำกัด บิ๊กบอสพืชไร่","owner":"ห้างหุ้นส่วนจำกัด บิ๊กบอสพืชไร่","displayRegistration":"จ3-2(2)-7/58อต","province":"อุตรดิตถ์","district":"บ้านโคก","subdistrict":"ม่วงเจ็ดต้น","industryType":"สีเมล็ดข้าวโพด และทำมันเส้น","status":"ดำเนินกิจการ","lat":18.0851891210502,"lon":101.125669143},"20530000725483":{"id":"20530000725483","name":"บริษัท ฟาร์มทองคำ (2561) จำกัด","owner":"บริษัท ฟาร์มทองคำ (2561) จำกัด","displayRegistration":"จ3-2(1)-7/48อต","province":"อุตรดิตถ์","district":"พิชัย","subdistrict":"ท่าสัก","industryType":"อบเมล็ดพืชและเก็บรักษา","status":"ดำเนินกิจการ","lat":17.41577,"lon":100.10053},"20530100425588":{"id":"20530100425588","name":"ศรีคำการค้า","owner":"นายชะเรียม ศรีคำ","displayRegistration":"จ3-2(2)-4/58อต","province":"อุตรดิตถ์","district":"บ้านโคก","subdistrict":"ม่วงเจ็ดต้น","industryType":"สีเมล็ดข้าวโพด ลำเลียงและเก็บรักษา","status":"ดำเนินกิจการ","lat":18.0791371888518,"lon":101.1251999347},"20530017925597":{"id":"20530017925597","name":"เกลียวสัมพันธ์คอนกรีต","owner":"ห้างหุ้นส่วนจำกัด เกลียวสัมพันธ์คอนกรีต","displayRegistration":"จ3-58(1)-179/59อต","province":"อุตรดิตถ์","district":"เมืองอุตรดิตถ์","subdistrict":"บ้านด่าน","industryType":"ผลิตคอนกรีตผสมเสร็จ","status":"ดำเนินกิจการ","lat":17.6885930461805,"lon":100.2865708312},"20530018425589":{"id":"20530018425589","name":"นางสนิท เสนานารถ","owner":"นางสนิท เสนานารถ","displayRegistration":"จ3-37-184/58อต","province":"อุตรดิตถ์","district":"เมืองอุตรดิตถ์","subdistrict":"งิ้วงาม","industryType":"ทำเครื่องเรือนและเครื่องตบแต่งอาคารจากไม้","status":"ดำเนินกิจการ","lat":17.670436,"lon":100.198605},"20530006025573":{"id":"20530006025573","name":"เรณูพืชไร่","owner":"บริษัท เรณู แสงเดือนพืนไร่ จำกัด","displayRegistration":"จ3-2(1)-60/57อต","province":"อุตรดิตถ์","district":"ทองแสนขัน","subdistrict":"ป่าคาย","industryType":"อบพืชผลทางการเกษตร ลำเลียง และเก็บรักษา","status":"ดำเนินกิจการ","lat":17.482841683232,"lon":100.1130329044},"20530002625582":{"id":"20530002625582","name":"บริษัท ไก่ไข่ในสวน จำกัด","owner":"บริษัท ไก่ไข่ในสวน จำกัด","displayRegistration":"จ3-15(1)-26/58อต","province":"อุตรดิตถ์","district":"เมืองอุตรดิตถ์","subdistrict":"หาดกรวด","industryType":"การผลิตอาหารสัตว์","status":"ดำเนินกิจการ","lat":17.5657691879494,"lon":100.158408268581},"20530100725581":{"id":"20530100725581","name":"NULL","owner":"นายอุเทน สำราญจิตร","displayRegistration":"จ3-3(4)-7/58อต","province":"อุตรดิตถ์","district":"พิชัย","subdistrict":"ท่าสัก","industryType":"ดูดทราย","status":"ดำเนินกิจการ","lat":17.4036762,"lon":100.1084244},"20530000325581":{"id":"20530000325581","name":"บริษัท หงส์ทอง สแครป จำกัด","owner":"บริษัท หงส์ทอง สแครป จำกัด","displayRegistration":"จ3-64(11)-3/58อต","province":"อุตรดิตถ์","district":"เมืองอุตรดิตถ์","subdistrict":"วังกะพี้","industryType":"อัดเศษโลหะ อัดกระดาษ และบดย่อยเศษพลาสติก","status":"ดำเนินกิจการ","lat":17.5310835767841,"lon":100.099260237894},"20530000225583":{"id":"20530000225583","name":"คณะบุคคลคมกริชพืชไร่","owner":"นายชุมพล พรมฝาย","displayRegistration":"จ3-2(2)-2/58อต","province":"อุตรดิตถ์","district":"บ้านโคก","subdistrict":"ม่วงเจ็ดต้น","industryType":"สีเมล็ดข้าวโพด ลำเลียงและเก็บรักษา","status":"ดำเนินกิจการ","lat":18.0787618541802,"lon":101.125048216476},"20530003125582":{"id":"20530003125582","name":"ห้างหุ้นส่วนจำกัด อุตรดิตถ์แอสฟัลท์ (2015)","owner":"ห้างหุ้นส่วนจำกัด อุตรดิตถ์แอสฟัลท์ (2015)","displayRegistration":"จ3-50(4)-31/58อต","province":"อุตรดิตถ์","district":"ทองแสนขัน","subdistrict":"บ่อทอง","industryType":"ผลิตแอสฟัสติกต์คอนกรีต","status":"ดำเนินกิจการ","lat":17.4888759083448,"lon":100.3076358534},"10530000125405":{"id":"10530000125405","name":"โรงงานคอนกรีตผสมเสร็จ อุตรดิตถ์","owner":"บริษัท ผลิตภัณฑ์และวัตุก่อสร้าง จำกัด","displayRegistration":"3-58(1)-1/40อต","province":"อุตรดิตถ์","district":"เมืองอุตรดิตถ์","subdistrict":"หาดกรวด","industryType":"ผลิตคอนกรีตผสมเสร็จ","status":"ดำเนินกิจการ","lat":17.5709,"lon":100.15224},"40530002225587":{"id":"40530002225587","name":"บริษัท ไทยเอกลักษณ์เพาเวอร์ จำกัด","owner":"บริษัท ไทยเอกลักษณ์เพาเวอร์ จำกัด","displayRegistration":"3-88(2)-22/58อต","province":"อุตรดิตถ์","district":"เมืองอุตรดิตถ์","subdistrict":"คุ้งตะเภา","industryType":"นำชานอ้อยที่เป็นวัสดุเหลือใช้จากโรงงานน้ำตาลมาผลิตเป็นพลังงานทดแทน  ขนาด 50 MW","status":"ดำเนินกิจการ","lat":17.6585663767759,"lon":100.207070471072},"20530003525583":{"id":"20530003525583","name":"ฝนดาวพืชไร่","owner":"นายสุนทร ยอดรัก","displayRegistration":"จ3-2(1)-35/58อต","province":"อุตรดิตถ์","district":"บ้านโคก","subdistrict":"ม่วงเจ็ดต้น","industryType":"อบพืชหรือเมล็ดพืช กะเทาะเมล็ดหรือเปลือกเมล็ดพืชและลำเลียงเก็บรักษา","status":"ดำเนินกิจการ","lat":18.0822671264937,"lon":101.1265683595},"20530000125403":{"id":"20530000125403","name":"ห้างหุ้นส่วนจำกัด โรงสีโชคธนวัฒน์","owner":"บริษัท โรงสีโชคธนวัฒน์ จำกัด","displayRegistration":"จ3-2(1)-1/40อต","province":"อุตรดิตถ์","district":"ตรอน","subdistrict":"บ้านแก่ง","industryType":"อบเมล็ดข้าวเปลือก","status":"ดำเนินกิจการ","lat":17.44999,"lon":100.14139},"10530015825155":{"id":"10530015825155","name":"โรงสีคะวีรัตน์","owner":"ห้างหุ้นส่วนจำกัด โรงสีคะวีรัตน์","displayRegistration":"3-9(1)-158/15อต","province":"อุตรดิตถ์","district":"เมืองอุตรดิตถ์","subdistrict":"ท่าเสา","industryType":"สีข้าว (กำลังสีสูงสุดของร้านสีข้าว 50 เกวียน/วัน)","status":"หยุดชั่วคราว","lat":17.65184,"lon":100.1051},"10530009325477":{"id":"10530009325477","name":"บริษัท โรงสีข้าว ต.ประเสริฐ อุตรดิตถ์ จำกัด","owner":"บริษัท โรงสีข้าว ต.ประเสริฐ อุตรดิตถ์ จำกัด","displayRegistration":"3-9(1)-93/47อต","province":"อุตรดิตถ์","district":"เมืองอุตรดิตถ์","subdistrict":"วังกะพี้","industryType":"สีข้าว กำลังสีสูงสุดของร้านสีข้าว 400 เกวียน/วัน อบเมล็ดพืชและเก็บรักษา","status":"ดำเนินกิจการ","lat":17.51528,"lon":100.08772},"20530004325470":{"id":"20530004325470","name":"รุ่งนภาค้าไม้","owner":"นางรุ่งนภา ประสมวงศ์","displayRegistration":"จ3-36(1)-43/47อต","province":"อุตรดิตถ์","district":"เมืองอุตรดิตถ์","subdistrict":"งิ้วงาม","industryType":"ทำผลิตภัณฑ์จากไม้ เครื่องเรือนหรือเครื่องตบแต่งภายในอาคารจากไม้","status":"ดำเนินกิจการ","lat":17.67424,"lon":100.14727},"20530001025610":{"id":"20530001025610","name":"ห้างหุ้นส่วนจำกัด ธัญญามาศโลหะกิจแอนต์ซัพพลาย","owner":"นายจิรายุ เยาว์เต่า","displayRegistration":"จ3-68-10/61อต","province":"อุตรดิตถ์","district":"เมืองอุตรดิตถ์","subdistrict":"งิ้วงาม","industryType":"ผลิต ประกอบ ดัดแปลง หรือซ่อมแซมเครื่องจักรสำหรับอุตสาหกรรมกระดาษ เคมี อาหาร การปั่นท่อ การพิมพ์ การผลิตซีเมนต์ หรือผลิตภัณฑ์ดินเหนียว การก่อสร้าง การทำเหมืองแร่","status":"ดำเนินกิจการ","lat":17.673265,"lon":100.162581},"20530001225517":{"id":"20530001225517","name":"บริษัท ส.อรุณขนส่ง(ไทย) จำกัด","owner":"บริษัท ส.อรุณขนส่ง(ไทย) จำกัด","displayRegistration":"จ3-3(4)-12/51อต","province":"อุตรดิตถ์","district":"เมืองอุตรดิตถ์","subdistrict":"คุ้งตะเภา","industryType":"ดูดทราย ใบอนุญาตใช้เรือเลขที่ 275303378","status":"ดำเนินกิจการ","lat":17.65314,"lon":100.13677},"20530020025575":{"id":"20530020025575","name":"บริษัท กิตติชัยคอนกรีต จำกัด","owner":"บริษัท กิตติชัย คอนกรีต จำกัด","displayRegistration":"จ3-58(1)-200/57อต","province":"อุตรดิตถ์","district":"น้ำปาด","subdistrict":"แสนตอ","industryType":"ผลิตคอนกรีตผสมเสร็จ","status":"ดำเนินกิจการ","lat":17.718512060593,"lon":100.6561167927},"20530007225578":{"id":"20530007225578","name":"ห้างหุ้นส่วนจำกัด สุวารี วอเตอร์","owner":"ห้างหุ้นส่วนจำกัด สุวารี วอเตอร์","displayRegistration":"จ3-14-72/57อต","province":"อุตรดิตถ์","district":"น้ำปาด","subdistrict":"แสนตอ","industryType":"ผลิตน้ำแข็งหลอด","status":"ดำเนินกิจการ","lat":17.723015,"lon":100.666683},"20530001725607":{"id":"20530001725607","name":"-","owner":"นายปัญญวุธ ครุฑเมือง","displayRegistration":"จ3-3(4)-17/60อต","province":"อุตรดิตถ์","district":"เมืองอุตรดิตถ์","subdistrict":"วังกะพี้","industryType":"ดูดทราย","status":"ดำเนินกิจการ","lat":17.5430700929009,"lon":100.103318625358},"20530008925614":{"id":"20530008925614","name":"บริษัท ชอกมลรัตน์ จำกัด","owner":"บริษัท ชอกมลรัตน์ จำกัด","displayRegistration":"จ3-3(4)-89/61อต","province":"อุตรดิตถ์","district":"เมืองอุตรดิตถ์","subdistrict":"ท่าเสา","industryType":"ดูดทราย","status":"ดำเนินกิจการ","lat":17.6481605972313,"lon":100.129412610623},"20530084025628":{"id":"20530084025628","name":"เกศนำชัย","owner":"นายไพฑูรย์ นาคะเกศ","displayRegistration":"จ3-9(1)-6/62อต","province":"อุตรดิตถ์","district":"เมืองอุตรดิตถ์","subdistrict":"ผาจุก","industryType":"สีข้าว กำลังสีสูงสุดของร้านสีข้าว 20 เกวียน/วัน","status":"ดำเนินกิจการ","lat":17.6373898943123,"lon":100.229894326228},"20530007625637":{"id":"20530007625637","name":"ส.เจริญฟาร์ม 2","owner":"นายเฉลิมชัย สุทธิกุล","displayRegistration":"จ3-2(5)-1/63อต","province":"อุตรดิตถ์","district":"บ้านโคก","subdistrict":"นาขุม","industryType":"สีข้าวโพดและเก็บรักษาลำเลียงหรือผลิตผลจากพืชในโกดัง","status":"ดำเนินกิจการ","lat":17.934095,"lon":101.005559},"60530286325637":{"id":"60530286325637","name":"สหกรณ์การเกษตรเมืองลับแล จำกัด","owner":"สหกรณ์การเกษตรเมืองลับแล จำกัด","displayRegistration":"อ2-2(9)-3/63อต","province":"อุตรดิตถ์","district":"ลับแล","subdistrict":"ทุ่งยั้ง","industryType":"ร่อน แยกขนาด และคุณภาพของข้าวเปลือก","status":"ดำเนินกิจการ","lat":17.5968876172513,"lon":100.01235495867},"20530287925632":{"id":"20530287925632","name":"ห้างหุ้นส่วนจำกัด อุตรดิตถ์แอสฟัลท์ (2015)","owner":"ห้างหุ้นส่วนจำกัด อุตรดิตถ์แอสฟัลท์ (2015)","displayRegistration":"จ2-58(1)-77/63อต","province":"อุตรดิตถ์","district":"ทองแสนขัน","subdistrict":"บ่อทอง","industryType":"ผลิตคอนกรีตผสมเสร็จ","status":"ดำเนินกิจการ","lat":17.4888692897694,"lon":100.307886665387},"60530288025631":{"id":"60530288025631","name":"บริษัท เค.ซี.เมททอลชีท จำกัด","owner":"บริษัท เค.ซีเมททอลชีท จำกัด","displayRegistration":"อ2-63(2)-56/63อต","province":"อุตรดิตถ์","district":"เมืองอุตรดิตถ์","subdistrict":"หาดกรวด","industryType":"ทำหลังคา บานเกร็ด ฝาผนังจากเหล็กแผ่น","status":"ดำเนินกิจการ","lat":17.5482023531118,"lon":100.185637168555},"60530288125639":{"id":"60530288125639","name":"บริษัท บี.เค.เม็ททอลชีท (พิชัย) จำกัด","owner":"บริษัท บี.เค.เม็ททอลชีท (พิชัย) จำกัด","displayRegistration":"อ2-63(2)-57/63อต","province":"อุตรดิตถ์","district":"พิชัย","subdistrict":"ในเมือง","industryType":"ทำผลิตภัณฑ์โลหะสำหรับใช้ในการก่อสร้าง เช่น แผ่นหลังคา เหล็กรีดลอน","status":"ดำเนินกิจการ","lat":17.3118140158803,"lon":100.052907331322},"60530288325635":{"id":"60530288325635","name":"บริษัท บีที.บลูไทเกอร์ จำกัด","owner":"บริษัท บีที.บลูไทเกอร์ จำกัด","displayRegistration":"อ2-20(1)-4/63อต","province":"อุตรดิตถ์","district":"พิชัย","subdistrict":"ท่าสัก","industryType":"น้ำดื่มบรรจุ","status":"ดำเนินกิจการ","lat":17.4088528965166,"lon":100.097850323538},"20530288925631":{"id":"20530288925631","name":"นายอุดมเวช บุญธรรมมา","owner":"นายอุดมเวช บุญธรรมมา","displayRegistration":"จ2-63(2)-58/63อต","province":"อุตรดิตถ์","district":"พิชัย","subdistrict":"คอรุม","industryType":"ทำแผ่นมุงหลังคาเหล็กเมทัลชีตและทำแผ่นพื้นคอนกรีต","status":"ดำเนินกิจการ","lat":17.289080193277,"lon":100.0702968834},"20530151325638":{"id":"20530151325638","name":"ห้างหุ้นส่วนจำกัด อุตรดิตถ์เมืองเจริญ","owner":"ห้างหุ้นส่วนจำกัด อุตรดิตถ์เมืองเจริญ","displayRegistration":"จ3-3(4)-28/63อต","province":"อุตรดิตถ์","district":"เมืองอุตรดิตถ์","subdistrict":"วังกะพี้","industryType":"ดูดทรายแม่น้ำ ขุด ลอก ร่อนทราย","status":"ดำเนินกิจการ","lat":17.551082830589,"lon":100.110638116683},"20530133925620":{"id":"20530133925620","name":"NULL","owner":"นางสาวอลิสา ศรกำเนิด","displayRegistration":"จ3-3(4)-25/62อต","province":"อุตรดิตถ์","district":"พิชัย","subdistrict":"บ้านดารา","industryType":"ดูดทราย","status":"ดำเนินกิจการ","lat":17.3826146,"lon":100.0980673},"20530258925629":{"id":"20530258925629","name":"ประสิทธิฟาร์ม","owner":"นายประสิทธิ์ ศรีสว่าง","displayRegistration":"จ3-15(1)-16/62อต","province":"อุตรดิตถ์","district":"เมืองอุตรดิตถ์","subdistrict":"หาดงิ้ว","industryType":"ทำอาหารผสมสำหรับเลี้ยงสัตว์","status":"ดำเนินกิจการ","lat":17.6715279087583,"lon":100.3234952759},"20530165525637":{"id":"20530165525637","name":"บริษัท ช่างพินิจ เอ็นจิเนี่ยริ่ง (2539) จำกัด","owner":"บริษัท ช่างพินิจ เอ็นจิเนี่ยริ่ง (2539) จำกัด","displayRegistration":"จ3-50(4)-72/63อต","province":"อุตรดิตถ์","district":"ทองแสนขัน","subdistrict":"บ่อทอง","industryType":"ผลิตแอสฟัลติกคอนกรีต","status":"ดำเนินกิจการ","lat":17.4845334183845,"lon":100.311866288766},"20530005825627":{"id":"20530005825627","name":"บริษัท วี เค เค คอร์ ปอเรชั่น จำกัด","owner":"บริษัท วี เค เค คอร์ ปอเรชั่น จำกัด","displayRegistration":"จ3-50(4)-1/62อต","province":"อุตรดิตถ์","district":"ทองแสนขัน","subdistrict":"บ่อทอง","industryType":"ผลิตและจำหน่ายแอสฟัลต์ติคคอนกรีต","status":"ดำเนินกิจการ","lat":17.4599275786807,"lon":100.298036832944},"20530003825496":{"id":"20530003825496","name":"ห้างหุ้นส่วนจำกัด อุตรดิตถ์กิตติกวิน","owner":"ห้างหุ้นส่วนจำกัด อุตรดิตถ์กิตติกวิน","displayRegistration":"จ3-3(4)-38/49อต","province":"อุตรดิตถ์","district":"เมืองอุตรดิตถ์","subdistrict":"บ้านเกาะ","industryType":"ดูดทราย ทะเบียนเรือเลขที่ 4553 00417","status":"ดำเนินกิจการ","lat":17.5987,"lon":100.10468},"20530005725611":{"id":"20530005725611","name":"ห้างหุ้นส่วนจำกัด อุตรดิตถ์เมืองเจริญ","owner":"ห้างหุ้นส่วนจำกัด อุตรดิตถ์เมืองเจริญ","displayRegistration":"จ3-3(4)-57/61อต","province":"อุตรดิตถ์","district":"เมืองอุตรดิตถ์","subdistrict":"วังกะพี้","industryType":"ดูดทราย","status":"ดำเนินกิจการ","lat":17.5429472146906,"lon":100.10327885653},"20530319425627":{"id":"20530319425627","name":"บริษัท เจริญสิทธิ์ก่อสร้าง จำกัด","owner":"บริษัท เจริญสิทธิ์ก่อสร้าง จำกัด","displayRegistration":"จ3-50(4)-54/62อต","province":"อุตรดิตถ์","district":"ทองแสนขัน","subdistrict":"บ่อทอง","industryType":"ผลิตแอสฟัลท์ติกคอนกรีต","status":"ดำเนินกิจการ","lat":17.4857218323817,"lon":100.312255961653},"20530192125625":{"id":"20530192125625","name":"ส.เพิ่มผล","owner":"นางสาวสุวิษา จำรัส","displayRegistration":"จ3-2(5)-9/62อต","province":"อุตรดิตถ์","district":"ทองแสนขัน","subdistrict":"ผักขวง","industryType":"เก็บรักษาลำเลียงเมล็ดพืชทุกชนิดในโกดัง เช่น เมล็ดข้าวโพด","status":"ดำเนินกิจการ","lat":17.4860520327543,"lon":100.385848939718},"60530285925635":{"id":"60530285925635","name":"ห้างหุ้นส่วนจำกัด ทรัพย์ห้าแสง","owner":"ห้างหุ้นส่วนจำกัด ทรัพย์ห้าแสง","displayRegistration":"อ2-58(1)-74/63อต","province":"อุตรดิตถ์","district":"เมืองอุตรดิตถ์","subdistrict":"ผาจุก","industryType":"ผลิตคอนกรีตผสมเสร็จ","status":"ดำเนินกิจการ","lat":17.682345406286,"lon":100.249363039721},"10530245225648":{"id":"10530245225648","name":"บริษัท วารีเทพ อุตรดิตถ์ จำกัด","owner":"บริษัท วารีเทพ อุตรดิตถ์ จำกัด","displayRegistration":"3-14-21/64อต","province":"อุตรดิตถ์","district":"เมืองอุตรดิตถ์","subdistrict":"บ้านเกาะ","industryType":"ผลิตน้ำแข็งหลอด","status":"ดำเนินกิจการ","lat":17.5801522165571,"lon":100.099966496198},"10530010725616":{"id":"10530010725616","name":"บริษัท เบญจวรรณ 2456 จำกัด","owner":"บริษัท เบญจวรรณ 2456 จำกัด","displayRegistration":"3-34(1)-107/61อต","province":"อุตรดิตถ์","district":"เมืองอุตรดิตถ์","subdistrict":"ขุนฝาง","industryType":"แปรรูปไม้ (โรงเลื่อย) เพื่อผลิตไม้แปรรูปหรือชิ้นไม้สับจากไม้ยางพารา หรือไม้ที่ปลูกขึ้นโดยเฉพาะ 13 ชนิด","status":"ดำเนินกิจการ","lat":17.706874,"lon":100.196035},"20530124625627":{"id":"20530124625627","name":"สิทธิพรค้าวัสดุก่อสร้าง","owner":"นางสาวสุธิญาพร ย้ายตั้ง","displayRegistration":"จ3-58(1)-70/62อต","province":"อุตรดิตถ์","district":"ตรอน","subdistrict":"บ้านแก่ง","industryType":"ผลิตคอนกรีตผสมเสร็จ","status":"ดำเนินกิจการ","lat":17.4527109653587,"lon":100.1449871108},"20530207625627":{"id":"20530207625627","name":"สหกรณ์การเกษตรเมืองตรอน จำกัด","owner":"สหกรณ์การเกษตรเมืองตรอน จำกัด","displayRegistration":"จ3-2(1)-18/62อต","province":"อุตรดิตถ์","district":"ทองแสนขัน","subdistrict":"ป่าคาย","industryType":"อบเมล็ดพืชทุกชนิด","status":"ดำเนินกิจการ","lat":17.493535734882,"lon":100.112781793076},"20530005325610":{"id":"20530005325610","name":"สหกรณ์การเกษตรเมืองลับแล จำกัด","owner":"สหกรณ์การเกษตรเมืองลับแล จำกัด","displayRegistration":"จ3-2(1)-53/61อต","province":"อุตรดิตถ์","district":"ลับแล","subdistrict":"ทุ่งยั้ง","industryType":"อบลดความชื้นข้าวเปลือก","status":"ดำเนินกิจการ","lat":17.5972481116884,"lon":100.012682188162},"10530007425600":{"id":"10530007425600","name":"บริษัท วานิชรวมเศรษฐ์ 1999 จำกัด","owner":"บริษัท วานิชรวมเศรษฐ์ 1999 จำกัด","displayRegistration":"3-105-74/60อต","province":"อุตรดิตถ์","district":"เมืองอุตรดิตถ์","subdistrict":"คุ้งตะเภา","industryType":"คัดแยกวัสดุที่ไม่ใช้แล้วที่ไม่เป็นของเสียอันตราย","status":"ดำเนินกิจการ","lat":17.626721551645,"lon":100.12709053282},"60530286025633":{"id":"60530286025633","name":"มณวิภา เม็ททัลชีท","owner":"นางเพ็ชรรุ่ง แดงจีน","displayRegistration":"อ2-63(2)-55/63อต","province":"อุตรดิตถ์","district":"เมืองอุตรดิตถ์","subdistrict":"งิ้วงาม","industryType":"ทำแผ่นมุงหลังคาเม็ททัลชีท","status":"ดำเนินกิจการ","lat":17.6692871214482,"lon":100.2024709321},"20530032125637":{"id":"20530032125637","name":"บริษัท เอกทวีทรัพย์ คอนสตัคชั่น จำกัด","owner":"บริษัท เอกทวีทรัพย์ คอนสตัคชั่น จำกัด","displayRegistration":"จ3-50(4)-11/63อต","province":"อุตรดิตถ์","district":"เมืองอุตรดิตถ์","subdistrict":"ผาจุก","industryType":"ผลิตแอสฟัลติกคอนกรีต","status":"ดำเนินกิจการ","lat":17.6780130535484,"lon":100.249118607549},"60530286225639":{"id":"60530286225639","name":"นายสนั่น ดีบุกดำ","owner":"นายชัยรัตน์ ดีบุกดำ","displayRegistration":"อ2-64(13)-33/63อต","province":"อุตรดิตถ์","district":"ตรอน","subdistrict":"บ้านแก่ง","industryType":"กลึง เชื่อมโลหะ ได้ 1,000 ชิ้น/ปี","status":"ดำเนินกิจการ","lat":17.4429400059451,"lon":100.139352231878},"20530082325624":{"id":"20530082325624","name":"บริษัท พีแอล ฟาร์ม กรุ๊ป จำกัด","owner":"บริษัท พีแอล ฟาร์ม กร๊ป จำกัด","displayRegistration":"จ3-15(1)-4/62อต","province":"อุตรดิตถ์","district":"ตรอน","subdistrict":"บ้านแก่ง","industryType":"ทำอาหารผสมหรืออาหารสำเร็จรูปเลี้ยงสัตว์","status":"ดำเนินกิจการ","lat":17.4568498862758,"lon":100.150382197692},"20530001925611":{"id":"20530001925611","name":"สมคิดเกษตรฟาร์ม","owner":"นายฉัตรชัย เอี่ยมสกุล","displayRegistration":"จ3-15(1)-19/61อต","province":"อุตรดิตถ์","district":"เมืองอุตรดิตถ์","subdistrict":"ป่าเซ่า","industryType":"ผลิตอาหารสัตว์","status":"ดำเนินกิจการ","lat":17.5949556358964,"lon":100.127967311025},"20530239025622":{"id":"20530239025622","name":"ธนฟาร์ม","owner":"นายวีระยุทธ แสงรัศมี","displayRegistration":"จ3-15(1)-12/62อต","province":"อุตรดิตถ์","district":"ตรอน","subdistrict":"บ้านแก่ง","industryType":"ผลิตอาหารสัตว์","status":"ดำเนินกิจการ","lat":17.4217437444826,"lon":100.1351769476},"20530203025632":{"id":"20530203025632","name":"-","owner":"บริษัท อุดมศักดิ์ เชียงใหม่ จำกัด","displayRegistration":"จ3-50(4)-94/63อต","province":"อุตรดิตถ์","district":"ทองแสนขัน","subdistrict":"ป่าคาย","industryType":"ผลิตแอสฟัลติกคอนกรีต","status":"ดำเนินกิจการ","lat":17.4853601711537,"lon":100.311984236388},"20530285525632":{"id":"20530285525632","name":"นายสมบูรณ์ เขียนวงศ์","owner":"ห้างหุ้นส่วนจำกัด บุญทวีเมทัลชีืท","displayRegistration":"จ2-63(2)-54/63อต","province":"อุตรดิตถ์","district":"พิชัย","subdistrict":"พญาแมน","industryType":"ทำแผ่นมุงหลังคาเม็ททัลชีท","status":"ดำเนินกิจการ","lat":17.1922961237192,"lon":100.0581616606},"20530286625639":{"id":"20530286625639","name":"ห้างหุ้นส่วนจำกัด เจ เอ แพ้นท์ 2","owner":"ห้างหุ้นส่วนจำกัด เจ เอ แพ้นท์ 2","displayRegistration":"จ2-58(1)-75/63อต","province":"อุตรดิตถ์","district":"พิชัย","subdistrict":"คอรุม","industryType":"ทำคอนกรีตผสมเสร็จ","status":"ดำเนินกิจการ","lat":17.304897741449,"lon":100.059030932796},"20530000425530":{"id":"20530000425530","name":"การประปาส่วนภูมิภาค สาขาอุตรดิตถ์ หน่วยบริการปากฝาง","owner":"การประปาส่วนภูมิภาค","displayRegistration":"จ3-90-4/53อต","province":"อุตรดิตถ์","district":"เมืองอุตรดิตถ์","subdistrict":"ผาจุก","industryType":"ผลิตน้ำประปา เพื่อบริโภคและอุปโภค","status":"ดำเนินกิจการ","lat":17.6558231638962,"lon":100.221633418561},"10530000225130":{"id":"10530000225130","name":"สหกลการ","owner":"นายนิติพันธ์ มั่นจีระ","displayRegistration":"3-65-2/13อต","province":"อุตรดิตถ์","district":"เมืองอุตรดิตถ์","subdistrict":"ท่าอิฐ","industryType":"ซ่อมเครื่องยนต์","status":"ดำเนินกิจการ","lat":17.6135,"lon":100.08971},"20530000125528":{"id":"20530000125528","name":"บริษัท โรงสีข้าว ต.ประเสริฐอุตรดิตถ์ จำกัด","owner":"บริษัท โรงสีข้าว ต.ประเสริฐอุตรดิตถ์ จำกัด","displayRegistration":"จ3-2(1)-1/52อต","province":"อุตรดิตถ์","district":"เมืองอุตรดิตถ์","subdistrict":"วังกะพี้","industryType":"อบเมล็ดข้าว","status":"ดำเนินกิจการ","lat":17.51528,"lon":100.08772},"20530053625630":{"id":"20530053625630","name":"โรงสีสหกรณ์การเกษตรเมืองอุตรดิตถ์","owner":"สหกรณ์การเกษตรเมืองอุตรดิตถ์ จำกัด","displayRegistration":"จ3-2(5)-4/63อต","province":"อุตรดิตถ์","district":"เมืองอุตรดิตถ์","subdistrict":"บ้านเกาะ","industryType":"เก็บรักษา เมล็ดพืช","status":"ดำเนินกิจการ","lat":17.58303791202,"lon":100.105159439064},"20530002625616":{"id":"20530002625616","name":"ส.เจริญผล","owner":"นางจารวี เจริญอึ้ง","displayRegistration":"จ3-8(1)-26/61อต","province":"อุตรดิตถ์","district":"เมืองอุตรดิตถ์","subdistrict":"งิ้วงาม","industryType":"แปรรูป เมล็ดมะม่วงหิมพานต์","status":"ดำเนินกิจการ","lat":17.6702851614607,"lon":100.149803588484},"20530004525541":{"id":"20530004525541","name":"บัณฑิตค้าไม้","owner":"นายประเดิมศักดิ์ ปิตุภูมิสวัสดิ์","displayRegistration":"จ3-37-45/54อต","province":"อุตรดิตถ์","district":"ฟากท่า","subdistrict":"สองคอน","industryType":"ทำเครื่องเรือน และเครื่องตกแต่งภายในอาคาร จากไม้","status":"ดำเนินกิจการ","lat":17.9494012347859,"lon":100.8549599432},"20530010225540":{"id":"20530010225540","name":"กลุ่มศิลปหัตถกรรมผลิตภัณฑ์ไม้บ้านปากดง","owner":"นายสังเวียน จาทะ","displayRegistration":"จ3-37-102/54อต","province":"อุตรดิตถ์","district":"ท่าปลา","subdistrict":"จริม","industryType":"ทำเครื่องเรือน และเครื่องตกแต่งภายในจากไม้ ศาลา และบ้านสำเร็จรูป","status":"หยุดชั่วคราว","lat":17.8232588369073,"lon":100.35698444414},"20530006525606":{"id":"20530006525606","name":"อุตรดิตถ์พลาสติก","owner":"บริษัท อุตรดิตถ์พลาสติก จำกัด","displayRegistration":"จ3-53(4)-65/60อต","province":"อุตรดิตถ์","district":"เมืองอุตรดิตถ์","subdistrict":"วังกะพี้","industryType":"การทำภาชนะบรรจุ เช่น ถุงหรือกระดาษ","status":"ดำเนินกิจการ","lat":17.5201267207158,"lon":100.100146916908},"20530024425607":{"id":"20530024425607","name":"ห้างหุ้นส่วนจำกัด หลักเมืองคอนกรีต","owner":"ห้างหุ้นส่วนจำกัด หลักเมืองคอนกรีต","displayRegistration":"จ3-58(1)-244/60อต","province":"อุตรดิตถ์","district":"เมืองอุตรดิตถ์","subdistrict":"ผาจุก","industryType":"ผลิตคอนกรีตผสมเสร็จ","status":"ดำเนินกิจการ","lat":17.6789741178152,"lon":100.224698218543},"20530200725564":{"id":"20530200725564","name":"บริษัท โรเธนเบิร์ก จำกัด","owner":"บริษัท โรเธนเบิร์ก เท็ค จำกัด","displayRegistration":"จ3-61-7/56อต","province":"อุตรดิตถ์","district":"เมืองอุตรดิตถ์","subdistrict":"ป่าเซ่า","industryType":"ผลิตเครื่องมือเครื่องใช้ที่ทำด้วยเหล็ก","status":"ดำเนินกิจการ","lat":17.5875357526815,"lon":100.168742697418}}