{"10200000125389":{"id":"10200000125389","name":"บริษัท เคอรี่ สยามซีพอร์ต จำกัด","owner":"บริษัท เคอรี่ สยามซีพอร์ต จำกัด","displayRegistration":"3-2(5)-1/38ชบ","province":"ชลบุรี","district":"ศรีราชา","subdistrict":"ทุ่งสุขลา","industryType":"เก็บรักษาและลำเลียงผลิตผลจากพืช เช่น กากน้ำตาล ได้ปีละ 200,000 ตัน และน้ำตาลทราย ได้ปีละ 500,000 ตัน ท่าเรือคอนเทนเนอร์","status":"ดำเนินกิจการ","lat":13.11617,"lon":100.978},"20200000125387":{"id":"20200000125387","name":"บริษัท ฉวีวรรณ อินเตอร์เนชั่นแนล ฟู๊ดส์ จำกัด","owner":"บริษัท ฉวีวรรณ อินเตอร์เนชั่นแนล ฟู๊ดส์ จำกัด","displayRegistration":"จ3-4(3)-1/38ชบ","province":"ชลบุรี","district":"ศรีราชา","subdistrict":"หนองขาม","industryType":"การทำผลิตภัณฑ์อาหารจากเนื้อสัตว์ เช่น ไก่แช่แข็ง","status":"ดำเนินกิจการ","lat":13.1300534980814,"lon":100.986757278442},"20200100625385":{"id":"20200100625385","name":"บริษัท บายพาสชลบุรี ฮอนด้า ออโตโมบิล จำกัด","owner":"บริษัท บายพาสชลบุรี ฮอนด้า ออโตโมบิล จำกัด","displayRegistration":"จ3-95(1)-6/38ชบ","province":"ชลบุรี","district":"เมืองชลบุรี","subdistrict":"บ้านสวน","industryType":"ซ่อมรถยนต์","status":"ดำเนินกิจการ","lat":13.37317,"lon":101.01917},"20200000225385":{"id":"20200000225385","name":"บริษัท พัทยา ธาราทิพย์ จำกัด","owner":"บริษัท พัทยา ธาราทิพย์ จำกัด","displayRegistration":"จ3-14-2/38ชบ","province":"ชลบุรี","district":"บางละมุง","subdistrict":"หนองปรือ","industryType":"ทำน้ำแข็งก้อนเล็กและน้ำดื่ม","status":"ดำเนินกิจการ","lat":12.93967,"lon":100.91667},"10200000225411":{"id":"10200000225411","name":"ห้างหุ้นส่วนจำกัด โรงน้ำแข็งสัตหีบ","owner":"ห้างหุ้นส่วนจำกัด โรงน้ำแข็งสัตหีบ","displayRegistration":"3-14-2/41ชบ","province":"ชลบุรี","district":"สัตหีบ","subdistrict":"นาจอมเทียน","industryType":"ทำน้ำแข็งซอง","status":"ดำเนินกิจการ","lat":12.79167,"lon":100.92633},"20200000325383":{"id":"20200000325383","name":"บริษัท ซี เอ็ม เอช (ประเทศไทย) จำกัด","owner":"บริษัท ซี เอ็ม เอช (ประเทศไทย) จำกัด","displayRegistration":"จ3-53(4)-3/38ชบ","province":"ชลบุรี","district":"บางละมุง","subdistrict":"หนองปรือ","industryType":"ผลิตถังน้ำพลาสติกและถังบำบัดน้ำเสีย","status":"ดำเนินกิจการ","lat":12.93739,"lon":100.95251},"20200400125359":{"id":"20200400125359","name":"บริษัท เทคนิคไฮดรอลิค จำกัด","owner":"บริษัท เทคนิคไฮดรอลิค จำกัด","displayRegistration":"จ3-64(13)-1/35ชบ","province":"ชลบุรี","district":"เมืองชลบุรี","subdistrict":"หนองไม้แดง","industryType":"ซ่อมไฮดรอลิคและกลึง-เชื่อมโหละ","status":"ดำเนินกิจการ","lat":13.395,"lon":101.00967},"00200000225355":{"id":"00200000225355","name":"บริษัท โกศล-อัมพา จำกัด","owner":"บริษัท โกศล-อัมพา จำกัด","displayRegistration":"ศ3-13(2)-2/35ชบ","province":"ชลบุรี","district":"เมืองชลบุรี","subdistrict":"นาป่า","industryType":"ทำซอสพริก","status":"ดำเนินกิจการ","lat":13.371767,"lon":101.035874},"20200300225382":{"id":"20200300225382","name":"บริษัท ที เบลโก้ จำกัด","owner":"บริษัท ที เบลโก้ จำกัด","displayRegistration":"จ3-64(1)-2/38ชบ","province":"ชลบุรี","district":"เมืองชลบุรี","subdistrict":"เหมือง","industryType":"ผลิตแท้งค์น้ำ แท้งค์น้ำมัน","status":"ดำเนินกิจการ","lat":13.283,"lon":100.96383},"00200400125361":{"id":"00200400125361","name":"บริษัท แพนอินดัสเตรียลปาร์ค จำกัด","owner":"บริษัท แพนอินดัสเตรียลปาร์ค จำกัด","displayRegistration":"ศ3-37-1/36ชบ","province":"ชลบุรี","district":"พนัสนิคม","subdistrict":"นาวังหิน","industryType":"แปรรูปไม้ ไส-ซอยไม้ ทำปาก์เกต โมเสก ไม้หน้าโต๊ะ ไม้พืน ชิ้น ส่วนเครื่องเรือนเครื่องใช้ เครื่องเรือน เครื่องใช้","status":"ดำเนินกิจการ","lat":13.5679,"lon":101.22168},"20200100225384":{"id":"20200100225384","name":"บริษัท เอส.เคเอส.ค้ากระดาษ จำกัด","owner":"บริษัท เอส.เคเอส.ค้ากระดาษ จำกัด","displayRegistration":"จ3-40(1)-2/38ชบ","province":"ชลบุรี","district":"เมืองชลบุรี","subdistrict":"เหมือง","industryType":"อัดเศษกระดาษ","status":"ดำเนินกิจการ","lat":13.27307,"lon":100.9653},"20200900125388":{"id":"20200900125388","name":"บริษัท นิคมไฮโดรลิค จำกัด","owner":"บริษัท นิคมไฮโดรลิค จำกัด","displayRegistration":"จ3-67(5)-1/38ชบ","province":"ชลบุรี","district":"บ้านบึง","subdistrict":"หนองซ้ำซาก","industryType":"ทำเครื่องอัดโลหะแบบไฮดรอลิค","status":"ดำเนินกิจการ","lat":13.33584,"lon":101.06649},"10200000225395":{"id":"10200000225395","name":"บริษัท เกษมพลาสติก อินดัสทรีส์ จำกัด","owner":"บริษัท เกษมพลาสติก อินดัสทรีส์ จำกัด","displayRegistration":"3-53(1)-2/39ชบ","province":"ชลบุรี","district":"พนัสนิคม","subdistrict":"นาวังหิน","industryType":"ทำเครื่องมือ เครื่องใช้ เครื่องเรือน เครื่องประดับจากพลาสติก","status":"ดำเนินกิจการ","lat":13.43395,"lon":101.27528},"20200000525388":{"id":"20200000525388","name":"บริษัท ประสิทธิ์ผลแมชชีนเนอรี่ จำกัด","owner":"บริษัท ประสิทธิ์ผลแมชชีนเนอรี่ จำกัด","displayRegistration":"จ3-64(13)-5/38ชบ","province":"ชลบุรี","district":"ศรีราชา","subdistrict":"ทุ่งสุขลา","industryType":"กลึง เจาะ คว้าน กัด ไส เจียร หรือเชื่อมโลหะทั่วไป และประกอบโครงสร้างหลังคาเหล็ก","status":"ดำเนินกิจการ","lat":13.11167,"lon":100.91667},"20201200125383":{"id":"20201200125383","name":"บริษัท ศิรกร จำกัด","owner":"บริษัท ศิรกร จำกัด","displayRegistration":"จ2-58(1)-1/38ชบ","province":"ชลบุรี","district":"หนองใหญ่","subdistrict":"ห้างสูง","industryType":"หล่อคอนกรีตอัดแรงและคอนกรีตสำเร็จรูป","status":"ดำเนินกิจการ","lat":13.25904,"lon":101.31798},"20200800125397":{"id":"20200800125397","name":"บริษัท ฮิไรเซมิสึ (ประเทศไทย) จำกัด","owner":"บริษัท ฮิไรเซมิสึ (ประเทศไทย) จำกัด","displayRegistration":"จ3-53(5)-1/39ชบ","province":"ชลบุรี","district":"ศรีราชา","subdistrict":"หนองขาม","industryType":"ผลิตชิ้นส่วนผลิตภัณฑ์พลาสติกหรือเคลือบพลาสติก","status":"ดำเนินกิจการ","lat":13.09367,"lon":100.9615},"20200100125386":{"id":"20200100125386","name":"บริษัท โรงสาคูไมตรีเจริญ จำกัด","owner":"บริษัท โรงสาคูไมตรีเจริญ จำกัด","displayRegistration":"จ3-10(3)-1/38ชบ","province":"ชลบุรี","district":"เมืองชลบุรี","subdistrict":"เหมือง","industryType":"ผลิตเม็ดสาคู","status":"ดำเนินกิจการ","lat":13.25849,"lon":100.9347},"20201400125399":{"id":"20201400125399","name":"ทะเลทอง","owner":"นายเปี่ยมศักดิ์ นิคมชัยประเสริฐ","displayRegistration":"จ3-65-1/39ชบ","province":"ชลบุรี","district":"พนัสนิคม","subdistrict":"พนัสนิคม","industryType":"ประกอบเครื่องยนต์ดีเซล รวมถึงส่วนประกอบและอุปกรณ์ของเครื่องยนต์ดีเซลชนิดลูกสูบเดียว","status":"ดำเนินกิจการ","lat":13.445164,"lon":101.176996},"20200300125392":{"id":"20200300125392","name":"-","owner":"นายไพบูลย์ ยงชัยหิรัญ","displayRegistration":"จ3-36(1)-1/39ชบ","province":"ชลบุรี","district":"บ้านบึง","subdistrict":"คลองกิ่ว","industryType":"ทำพื้นไม้รองรับสินค้า,ด้ามเครื่องมือจากไม้ยางพารา","status":"ดำเนินกิจการ","lat":13.25106,"lon":101.15833},"20200200125393":{"id":"20200200125393","name":"เสรีการช่าง","owner":"นายสมัคร พิมพ์แดง","displayRegistration":"จ3-34(2)-1/39ชบ","province":"ชลบุรี","district":"บ่อทอง","subdistrict":"บ่อกวางทอง","industryType":"ทำวงกบ บานประตู หน้าต่าง จากไม้แปรรูป","status":"ดำเนินกิจการ","lat":13.31555,"lon":101.31279},"20200600225397":{"id":"20200600225397","name":"บริษัท โชคสมบูรณ์อิควิปเมนท์ จำกัด","owner":"บริษัท โชคสมบูรณ์อิควิปเมนท์ จำกัด","displayRegistration":"จ3-77(1)-2/39ชบ","province":"ชลบุรี","district":"พนัสนิคม","subdistrict":"บ้านช้าง","industryType":"ต่อตัวถังรถบรรทุก เช่น รถขยะ รถน้ำ รถดับเพลิง ฯลฯ และทำกระบอกไฮโดรลิคทุกชนิด","status":"ดำเนินกิจการ","lat":13.45441,"lon":101.19689},"10200100125396":{"id":"10200100125396","name":"บริษัท มินิกริป (ประเทศไทย) จำกัด","owner":"บริษัท มินิกริป (ประเทศไทย) จำกัด","displayRegistration":"3-53(4)-1/39ชบ","province":"ชลบุรี","district":"พนัสนิคม","subdistrict":"หนองเหียง","industryType":"ทำผลิตภัณฑ์พลาสติก เช่น ถุงพลาสติก","status":"ดำเนินกิจการ","lat":13.48319,"lon":101.24453},"00200000225389":{"id":"00200000225389","name":"โรงงานเส้นหมี่พนัสทิพย์","owner":"นางนิตยา ฤทธิเลิศ","displayRegistration":"ศ3-10(3)-2/38ชบ","province":"ชลบุรี","district":"พนัสนิคม","subdistrict":"หมอนนาง","industryType":"ทำเส้นหมี่","status":"ดำเนินกิจการ","lat":13.32858,"lon":101.26017},"10200300125394":{"id":"10200300125394","name":"บริษัท มีดทอง จำกัด","owner":"บริษัท มีดทอง จำกัด","displayRegistration":"3-61-1/39ชบ","province":"ชลบุรี","district":"บ่อทอง","subdistrict":"บ่อกวางทอง","industryType":"ผลิตเครื่องใช้ที่ทำด้วยเหล็กหรือเหล็กกล้า เช่น มีดสแตนเลส","status":"ดำเนินกิจการ","lat":13.31241,"lon":101.31038},"10200000125397":{"id":"10200000125397","name":"บริษัท ไทยลู้บเบส จำกัด(มหาชน)","owner":"บริษัท ไทยลู้บเบส จำกัด (มหาชน)","displayRegistration":"3-49-1/39ชบ","province":"ชลบุรี","district":"ศรีราชา","subdistrict":"ทุ่งสุขลา","industryType":"กลั่นน้ำมันหล่อลื่นพื้นฐานได้ 300 ล้านลิตร/ปี","status":"ดำเนินกิจการ","lat":13.1195,"lon":100.90733},"10200200125395":{"id":"10200200125395","name":"บริษัท พี แอนด์ เอฟ โพลีเมอร์ จำกัด","owner":"บริษัท พี แอนด์ เอฟ โพลีเมอร์ จำกัด","displayRegistration":"3-53(5)-1/39ชบ","province":"ชลบุรี","district":"เมืองชลบุรี","subdistrict":"หนองรี","industryType":"ทำผลิตภัณฑ์พลาสติก เช่น ท่อน้ำ เส้นแนว เส้นผัง จมูกบันได  แผ่นกั้นน้ำ ได้ปีละ 750 ตัน","status":"ดำเนินกิจการ","lat":13.33559,"lon":101.03499},"00200000325395":{"id":"00200000325395","name":"บริษัท โอเซกิ แอนด์ โรสวูด จำกัด","owner":"บริษัท โอเซกิ แอนด์ โรสวูด จำกัด","displayRegistration":"ศ3-37-3/39ชบ","province":"ชลบุรี","district":"พนัสนิคม","subdistrict":"บ้านช้าง","industryType":"ทำเครื่องเรือนหรือเครื่องตกแต่งภายในอาคารและขาตั้งโคมกระดาษ จากไม้ยางพาราแปรรูป \\","status":"ดำเนินกิจการ","lat":13.45243,"lon":101.18885},"20201100125392":{"id":"20201100125392","name":"บริษัท แทย์ พรีซิชั่น อินดัสตรี้ส์ จำกัด","owner":"บริษัท แทย์ พรีซิชั่น อินดัสตรี้ส์ จำกัด","displayRegistration":"จ3-64(8)-1/39ชบ","province":"ชลบุรี","district":"บ้านบึง","subdistrict":"บ้านบึง","industryType":"หลอม หล่อ และทำผลิตภัณฑ์จากสแตนเลส เช่น ท่อ ข้อต่อ ข้องอ","status":"ดำเนินกิจการ","lat":13.33233,"lon":101.12317},"00200200125389":{"id":"00200200125389","name":"บริษัท รอยัล มาสเตอร์ จำกัด","owner":"บริษัท รอยัล มาสเตอร์ จำกัด","displayRegistration":"ศ3-37-1/38ชบ","province":"ชลบุรี","district":"บ้านบึง","subdistrict":"มาบไผ่","industryType":"ผลิตเฟอร์นิเจอร์จากไม้ยางพารา","status":"ดำเนินกิจการ","lat":13.34941,"lon":101.08027},"10200100225394":{"id":"10200100225394","name":"บริษัท คิงไว จำกัด","owner":"บริษัท คิงไว จำกัด","displayRegistration":"3-53(5)-2/39ชบ","province":"ชลบุรี","district":"พานทอง","subdistrict":"มาบโป่ง","industryType":"ทำผลิตภัณฑ์จากพลาสติก เช่น ท่อ คิ้ว และเฟอร์นิเจอร์ พี.วี.ซี. ได้ปีละ 1,085 ตัน","status":"ดำเนินกิจการ","lat":13.41972,"lon":101.10409},"20200000225393":{"id":"20200000225393","name":"บริษัท สกลชัยทรานสแพ็ค จำกัด","owner":"บริษัท สกลชัยทรานสแพ็ค จำกัด","displayRegistration":"จ3-36(1)-2/39ชบ","province":"ชลบุรี","district":"ศรีราชา","subdistrict":"หนองขาม","industryType":"ทำผลิตภัณฑ์จากไม้แปรรูป เช่น ลังไม้, แผ่นรองสินค้า","status":"ดำเนินกิจการ","lat":13.14733,"lon":100.977326},"20200300225390":{"id":"20200300225390","name":"บริษัท พานทอง 2558 จำกัด","owner":"บริษัท พานทอง 2558 จำกัด","displayRegistration":"จ3-53(4)-2/39ชบ","province":"ชลบุรี","district":"พานทอง","subdistrict":"บ้านเก่า","industryType":"ทำผลิตภัณฑ์พลาสติกต่าง ๆ เช่น ขวดพลาสติก และเครื่องใช้พลาสติก","status":"ดำเนินกิจการ","lat":13.46033,"lon":101.055},"20200500125390":{"id":"20200500125390","name":"บริษัท สตาร์-บอนด์ (ไทยแลนด์) จำกัด","owner":"บริษัท สตาร์-บอนด์(ไทยแลนด์) จำกัด","displayRegistration":"จ3-48(3)-1/39ชบ","province":"ชลบุรี","district":"เมืองชลบุรี","subdistrict":"นาป่า","industryType":"ผลิตกาวสำหรับใช้ในอุตสาหกรรม","status":"ดำเนินกิจการ","lat":13.38533,"lon":101.0385},"20200000525396":{"id":"20200000525396","name":"คอนกรีตผสมเสร็จสัตหีบ","owner":"บริษัท บี.เอ.ซี คอนกรีต จำกัด","displayRegistration":"จ3-58(1)-5/39ชบ","province":"ชลบุรี","district":"สัตหีบ","subdistrict":"บางเสร่","industryType":"ผลิตคอนกรีตผสมเสร็จ","status":"ดำเนินกิจการ","lat":12.76017,"lon":100.90367},"10200700125390":{"id":"10200700125390","name":"บริษัท จิ้วฮวด จำกัด","owner":"บริษัท จิ้วฮวด จำกัด","displayRegistration":"3-101-1/39ชบ","province":"ชลบุรี","district":"เมืองชลบุรี","subdistrict":"แสนสุข","industryType":"ปรับคุณภาพน้ำเสียรวม","status":"ดำเนินกิจการ","lat":13.310747,"lon":100.908069},"00200000125399":{"id":"00200000125399","name":"บริษัท ควิซีน โซลูชั่น เอเซีย จำกัด","owner":"บริษัท ควิซีน โซลูชั่น เอเซีย จำกัด","displayRegistration":"ศ3-4(5)-1/39ชบ","province":"ชลบุรี","district":"บ้านบึง","subdistrict":"คลองกิ่ว","industryType":"ทำผลิตภัณฑ์เนื้อสัตว์สำเร็จรูปบรรจุในภาชนะปิดสนิท","status":"ดำเนินกิจการ","lat":13.239,"lon":101.14817},"20200200225391":{"id":"20200200225391","name":"สมปองอัดดอกยาง","owner":"บริษัท สมปอง รับเบอร์ รีเทรดดิ้ง จำกัด","displayRegistration":"จ3-51-2/39ชบ","province":"ชลบุรี","district":"เมืองชลบุรี","subdistrict":"ห้วยกะปิ","industryType":"อัดดอกยาง","status":"ดำเนินกิจการ","lat":13.32118,"lon":100.97079},"00200100125398":{"id":"00200100125398","name":"บริษัท น้ำแข็งศรีราชา จำกัด","owner":"บริษัท น้ำแข็งศรีราชา จำกัด","displayRegistration":"ศ3-14-1/39ชบ","province":"ชลบุรี","district":"ศรีราชา","subdistrict":"บ่อวิน","industryType":"ทำน้ำแข็งซอง","status":"ดำเนินกิจการ","lat":13.01017,"lon":101.0665},"00200200125397":{"id":"00200200125397","name":"บริษัท พนัสโภคภัณฑ์ จำกัด","owner":"บริษัท พนัสโภคภัณฑ์ จำกัด","displayRegistration":"ศ3-15(1)-1/39ชบ","province":"ชลบุรี","district":"พนัสนิคม","subdistrict":"หมอนนาง","industryType":"ผลิตอาหารสัตว์","status":"ดำเนินกิจการ","lat":13.40782,"lon":101.20987},"20200000125403":{"id":"20200000125403","name":"บริษัท ศรีราชา แพคกิ้งวู้ด จำกัด","owner":"บริษัท ศรีราชา แพคกิ้งวู้ด จำกัด","displayRegistration":"จ3-36(1)-1/40ชบ","province":"ชลบุรี","district":"ศรีราชา","subdistrict":"สุรศักดิ์","industryType":"ต่อลังไม้เก่าและประกอบกล่องกระดาษ","status":"ดำเนินกิจการ","lat":13.15296,"lon":100.94238},"10200900125406":{"id":"10200900125406","name":"บริษัท เจ้น ฟา อินดัสเทรียล จำกัด","owner":"บริษัท เจ้น ฟา อินดัสเทรียล จำกัด","displayRegistration":"3-60-1/40ชบ","province":"ชลบุรี","district":"บ้านบึง","subdistrict":"หนองซ้ำซาก","industryType":"ผลิตผลิตภัณฑ์โลหะรวมทั้งชิ้นส่วนโลหะสำหรับยานยนต์ อิเลคทรอนิกส์ และการผลิตเครื่องจักรรืออุปกรณ์สำหรับงานอุตสาหกรรม","status":"ดำเนินกิจการ","lat":13.34716,"lon":101.06499},"20200500225398":{"id":"20200500225398","name":"บริษัท สยามโกลบอลเอ็นจิเนียริ่ง จำกัด","owner":"บริษัท สยามโกลบอลเอ็นจิเนียริ่ง จำกัด","displayRegistration":"จ3-64(14)-2/39ชบ","province":"ชลบุรี","district":"ศรีราชา","subdistrict":"บ่อวิน","industryType":"ทำผลิตภัณฑ์โลหะ เช่น แผ่นกั้นคอนกรีตขยายตัว และผลิตส่วนประกอบพัดลมอุตสาหกรรมที่ทำจากโลหะ","status":"ดำเนินกิจการ","lat":13.03683,"lon":101.13483},"10200700125408":{"id":"10200700125408","name":"บริษัท เอส.ที.(ไทยแลนด์) จำกัด","owner":"บริษัท เอส.ที.(ไทยแลนด์) จำกัด","displayRegistration":"3-52(4)-1/40ชบ","province":"ชลบุรี","district":"ศรีราชา","subdistrict":"หนองขาม","industryType":"ผลิตถุงมือยางและผลิตถุงมือ พีวีซี, บรรจุถุงมือ","status":"ดำเนินกิจการ","lat":13.09233,"lon":100.96017},"20200400125409":{"id":"20200400125409","name":"บริษัท แอร์โรว์ ซินดิเคท จำกัด(มหาชน)","owner":"บริษัท แอร์โรว์ ซินดิเคท จำกัด (มหาชน)","displayRegistration":"จ3-63(2)-1/40ชบ","province":"ชลบุรี","district":"พานทอง","subdistrict":"พานทอง","industryType":"ทำส่วนประกอบสำหรับใช้ในการก่อสร้างอาคาร เช่น ท่อร้อยสายไฟฟ้า ท่อระบายอากาศ ท่อลำเลียง ท่อส่งความเย็น ฯลฯ","status":"ดำเนินกิจการ","lat":13.45733,"lon":101.082},"20200200225409":{"id":"20200200225409","name":"NULL","owner":"นายทวีชัย ภุชงควาริน","displayRegistration":"จ3-64(13)-2/40ชบ","province":"ชลบุรี","district":"บ้านบึง","subdistrict":"บ้านบึง","industryType":"กลึงแลซ่อมอุปกรณ์รถยนต์","status":"ดำเนินกิจการ","lat":13.30857,"lon":101.12868},"10200000125405":{"id":"10200000125405","name":"บริษัท พนัสโพลทรี่ กรุ๊ป จำกัด","owner":"บริษัท พนัสโพลทรี่ กรุ๊ป จำกัด","displayRegistration":"3-4(1)-1/40ชบ","province":"ชลบุรี","district":"พนัสนิคม","subdistrict":"หมอนนาง","industryType":"ฆ่า และชำแหละสัตว์ เช่น ไก้ ได้ปีละ 14,580.00 กิโลกรัม","status":"ดำเนินกิจการ","lat":13.40194,"lon":101.21099},"10200300225400":{"id":"10200300225400","name":"บริษัท สหเซวา จำกัด","owner":"บริษัท สหเซวา จำกัด","displayRegistration":"3-53(1)-2/40ชบ","province":"ชลบุรี","district":"ศรีราชา","subdistrict":"หนองขาม","industryType":"ผลิตชิ้นส่วน ส่วนประกอบเครื่องใช้ไฟฟ้า เครื่องอิเลกทรอนิกส์จากพลาสติก","status":"ดำเนินกิจการ","lat":13.08867,"lon":100.95833},"20200500125408":{"id":"20200500125408","name":"บริษัท นิฮอน เซ็ทสุบิ (ประเทศไทย) จำกัด","owner":"บริษัท นิฮอน เซ็ทสุบิ(ประเทศไทย) จำกัด","displayRegistration":"จ3-71-1/40ชบ","province":"ชลบุรี","district":"เมืองชลบุรี","subdistrict":"คลองตำหรุ","industryType":"ผลิตเครื่องสายพานลำเลียง","status":"ดำเนินกิจการ","lat":13.443,"lon":101.00683},"10200300125402":{"id":"10200300125402","name":"บริษัท มิตสึคูระ ไทย จำกัด","owner":"บริษัท มิตสึคูระ ไทย จำกัด","displayRegistration":"3-37-1/40ชบ","province":"ชลบุรี","district":"พนัสนิคม","subdistrict":"บ้านช้าง","industryType":"ผลิตเครื่องเรือนจากไม้ เข่นตู้เสื้อผ้า","status":"ดำเนินกิจการ","lat":13.45182,"lon":101.19348},"10201400125409":{"id":"10201400125409","name":"บริษัท ซิตี้ สตีล จำกัด (มหาชน)","owner":"บริษัท ซิตี้ สตีล จำกัด (มหาชน)","displayRegistration":"3-64(12)-1/40ชบ","province":"ชลบุรี","district":"เมืองชลบุรี","subdistrict":"หนองไม้แดง","industryType":"ตัดและพับโลหะหรือม้วนโลหะ","status":"ดำเนินกิจการ","lat":13.409031,"lon":100.999966},"20200000525404":{"id":"20200000525404","name":"บ้านบึงการช่าง","owner":"นายคมสันต์ เชาว์วัฒน์พงษ์","displayRegistration":"จ3-95(1)-5/40ชบ","province":"ชลบุรี","district":"บ้านบึง","subdistrict":"บ้านบึง","industryType":"ซ่อมรถยนต์","status":"ดำเนินกิจการ","lat":13.30247,"lon":101.11224},"10200200125403":{"id":"10200200125403","name":"บริษัท จิ้วฮวด จำกัด","owner":"บริษัท จิ้วฮวด จำกัด","displayRegistration":"3-13(4)-1/40ชบ","province":"ชลบุรี","district":"เมืองชลบุรี","subdistrict":"แสนสุข","industryType":"ผลิตน้ำส้มสายชูกลั่น","status":"ดำเนินกิจการ","lat":13.311431,"lon":100.907836},"20200000925398":{"id":"20200000925398","name":"บริษัท เอส.พี.ที.คอนกรีต จำกัด","owner":"บริษัท เอส.พี.ที.คอนกรีต จำกัด","displayRegistration":"จ3-58(1)-9/39ชบ","province":"ชลบุรี","district":"พานทอง","subdistrict":"มาบโป่ง","industryType":"ผลิตเสาเข็มคอนกรีตอัดแรง","status":"ดำเนินกิจการ","lat":13.43141,"lon":101.12824},"10200600125409":{"id":"10200600125409","name":"บริษัท เอ็น.ดี.รับเบอร์ จำกัด (มหาชน)","owner":"บริษัท เอ็น.ดี.รับเบอร์ จำกัด (มหาชน)","displayRegistration":"3-51-1/40ชบ","province":"ชลบุรี","district":"บ้านบึง","subdistrict":"หนองอิรุณ","industryType":"ผลิตยางใน-ยางนอกรถจักรยานยนต์","status":"ดำเนินกิจการ","lat":13.3355,"lon":101.19167},"20200000625402":{"id":"20200000625402","name":"บริษัท บางแสนมหานคร จำกัด","owner":"บริษัท บางแสนมหานคร จำกัด","displayRegistration":"จ3-58(1)-6/40ชบ","province":"ชลบุรี","district":"ศรีราชา","subdistrict":"ทุ่งสุขลา","industryType":"ผลิตคอนกรีตผสมเสร็จ","status":"ดำเนินกิจการ","lat":13.08211,"lon":100.923},"10200000125413":{"id":"10200000125413","name":"ห้างหุ้นส่วนจำกัด คณิศร","owner":"ห้างหุ้นส่วนจำกัด คณิศร","displayRegistration":"3-14-1/41ชบ","province":"ชลบุรี","district":"เมืองชลบุรี","subdistrict":"แสนสุข","industryType":"ทำน้ำแข็งก้อนเล็ก และน้ำดื่ม","status":"ดำเนินกิจการ","lat":13.27939,"lon":100.93542},"20201000125419":{"id":"20201000125419","name":"บริษัท พนัส แอสเซมบลีย์ จำกัด","owner":"บริษัท พนัส แอสเซมบลีย์ จำกัด","displayRegistration":"จ3-63(2)-1/41ชบ","province":"ชลบุรี","district":"พนัสนิคม","subdistrict":"กุฎโง้ง","industryType":"ผลิตที่อาศัยสำเร็จรูป","status":"ดำเนินกิจการ","lat":13.44522,"lon":101.15374},"10201100125410":{"id":"10201100125410","name":"บริษัท ศรีไทยโมลด์ส จำกัด","owner":"บริษัท ศรีไทยโมลด์ส จำกัด","displayRegistration":"3-67(7)-1/41ชบ","province":"ชลบุรี","district":"บ้านบึง","subdistrict":"หนองซ้ำซาก","industryType":"ทำแม่พิมพ์ฉีดพลาสติก และโลหะ","status":"ดำเนินกิจการ","lat":13.33964,"lon":101.06147},"20201600125413":{"id":"20201600125413","name":"บริษัท อู่ ส.ทวีชัย จำกัด","owner":"บริษัท อู่ ส.ทวีชัย จำกัด","displayRegistration":"จ3-77(1)-1/41ชบ","province":"ชลบุรี","district":"เมืองชลบุรี","subdistrict":"บ้านสวน","industryType":"ซ่อมช่วงล่างรถสิบล้อ เคาะพ่นสี","status":"ดำเนินกิจการ","lat":13.35517,"lon":101.00717},"20201400125415":{"id":"20201400125415","name":"บริษัท เฮอร์คิวลิส เครน จำกัด","owner":"บริษัท เฮอร์คิวลิส เครน จำกัด","displayRegistration":"จ3-70-1/41ชบ","province":"ชลบุรี","district":"เมืองชลบุรี","subdistrict":"หนองรี","industryType":"ผลิต ซ่อมเครื่องยก รถยก และเครื่องจักรกล","status":"ดำเนินกิจการ","lat":13.32444,"lon":101.05662},"10200400125393":{"id":"10200400125393","name":"บริษัท ที.เอส.เค.เอนจิเนียริ่ง จำกัด","owner":"บริษัท ที.เอส.เค.เอนจิเนียริ่ง จำกัด","displayRegistration":"3-67(8)-1/39ชบ","province":"ชลบุรี","district":"เมืองชลบุรี","subdistrict":"หนองรี","industryType":"ผลิต,ประกอบเครื่องจักรและอุปกรณ์สำหรับงานอุตสาหกรรม","status":"ดำเนินกิจการ","lat":13.32083,"lon":101.01983},"20200800125413":{"id":"20200800125413","name":"บริษัท ผลิตภัณฑ์คอนกรีตชลบุรี จำกัด (มหาชน)","owner":"บริษัท ผลิตภัณฑ์คอนกรีตชลบุรี จำกัด (มหาชน)","displayRegistration":"จ3-57(3)-1/41ชบ","province":"ชลบุรี","district":"บ้านบึง","subdistrict":"หนองไผ่แก้ว","industryType":"ผลิตคอนกรีตผสมเสร็จ","status":"ดำเนินกิจการ","lat":13.24833,"lon":101.24517},"20200400225415":{"id":"20200400225415","name":"ห้างหุ้นส่วนจำกัด ส.มณีการช่าง บายพาสชลบรี","owner":"ห้างหุ้นส่วนจำกัด ส.มณีการช่าง บายพาสชลบรี","displayRegistration":"จ3-95(1)-2/41ชบ","province":"ชลบุรี","district":"เมืองชลบุรี","subdistrict":"นาป่า","industryType":"ซ่อมรถยนต์ เช่น ดัดคัชซี ซ่อมกะบะและซ่อมดั๊ม","status":"ดำเนินกิจการ","lat":13.37783,"lon":101.02733},"10200000125421":{"id":"10200000125421","name":"บริษัท โกลเด้นไทม์เอ็นเตอร์ไพร์ส จำกัด","owner":"บริษัท โกลเด้นไทม์เอ็นเตอร์ไพร์ส จำกัด","displayRegistration":"3-7(1)-1/42ชบ","province":"ชลบุรี","district":"หนองใหญ่","subdistrict":"หนองเสือช้าง","industryType":"สกัดน้ำมันมะพร้าว ปาล์ม งา","status":"ดำเนินกิจการ","lat":13.15275,"lon":101.32712},"10200200125429":{"id":"10200200125429","name":"บริษัท ไทยลู้บเบล็นดิ้ง จำกัด","owner":"บริษัท ไทยลู้บเบล็นดิ้ง จำกัด","displayRegistration":"3-50(4)-1/42ชบ","province":"ชลบุรี","district":"ศรีราชา","subdistrict":"ทุ่งสุขลา","industryType":"ผสมและบรรจุน้ำมันหล่อลื่นชนิดต่าง ๆ","status":"ดำเนินกิจการ","lat":13.11308,"lon":100.9153},"20200300225416":{"id":"20200300225416","name":"บริษัท ไทยวัฒน์วิศวการทาง จำกัด","owner":"บริษัท ไทยวัฒน์วิศวการทาง จำกัด","displayRegistration":"จ3-58(1)-2/41ชบ","province":"ชลบุรี","district":"ศรีราชา","subdistrict":"บึง","industryType":"ทำผลิตภัณฑ์คอนกรีต","status":"ดำเนินกิจการ","lat":13.08328,"lon":100.99152},"20200300125400":{"id":"20200300125400","name":"บริษัท ซินิเมจ แมคแคนิคอล จำกัด","owner":"บริษัท ซินิเมจ แมคแคนิคอล จำกัด","displayRegistration":"จ3-63(1)-1/40ชบ","province":"ชลบุรี","district":"บ้านบึง","subdistrict":"คลองกิ่ว","industryType":"ชิ้นส่วนอุปกรณ์สำหรับใช้ในการก่อสร้างจากโลหะ","status":"ดำเนินกิจการ","lat":13.172471,"lon":101.165904},"10200600125417":{"id":"10200600125417","name":"บริษัท โตโย ไซกัน (ประเทศไทย) จำกัด","owner":"บริษัท โตโย ไซกัน (ประเทศไทย) จำกัด","displayRegistration":"3-53(4)-1/41ชบ","province":"ชลบุรี","district":"ศรีราชา","subdistrict":"หนองขาม","industryType":"ผลิตผลิตภัณฑ์พลาสติกและเคลือบพลาสติก","status":"ดำเนินกิจการ","lat":13.10183,"lon":100.95736},"10200000325401":{"id":"10200000325401","name":"บริษัท เอเซียรับเบอร์ลาเท็กซ์ (1988) จำกัด","owner":"บริษัท เอเซียรับเบอร์ลาเท็กซ์ (1988) จำกัด","displayRegistration":"3-52(4)-3/40ชบ","province":"ชลบุรี","district":"เมืองชลบุรี","subdistrict":"หนองไม้แดง","industryType":"ยางพพื้นรองเท้าชั้นใน","status":"ดำเนินกิจการ","lat":13.40644,"lon":101.00017},"20200500125424":{"id":"20200500125424","name":"บริษัท ไฮ พอยท์ ดีไซน์ อินดัสทรี้ จำกัด","owner":"บริษัท ไฮ พอยท์ ดีไซน์ อินดัสทรี้ จำกัด","displayRegistration":"จ3-22(2)-1/42ชบ","province":"ชลบุรี","district":"พานทอง","subdistrict":"พานทอง","industryType":"ผลิตและทอผ้าเพื่อใช้สำหรับทำเทปม่าน และสายรวบม่าน ผ้าม่าน ผ้าบุ ผ้าไหม","status":"ดำเนินกิจการ","lat":13.44967,"lon":101.083},"20200200125427":{"id":"20200200125427","name":"เซี่ยมเล้ง","owner":"นายเซี่ยมเล้ง วรศิลป์ชัย","displayRegistration":"จ3-9(3)-1/42ชบ","province":"ชลบุรี","district":"พนัสนิคม","subdistrict":"กุฎโง้ง","industryType":"บดเมล็ดข้าวโพด","status":"ดำเนินกิจการ","lat":13.447634,"lon":101.169363},"20200100325416":{"id":"20200100325416","name":"บริษัท ไทยออยล์ ทูล แมชีนเนอรี่ เซอร์วิสเซส จำกัด","owner":"บริษัท ไทยออยล์ ทูล แมชีนเนอรี่ เซอร์วิสเซส จำกัด","displayRegistration":"จ3-64(13)-3/41ชบ","province":"ชลบุรี","district":"สัตหีบ","subdistrict":"พลูตาหลวง","industryType":"กลึง เจาะ คว้าน กัด ไส และเชื่อมโลหะ","status":"ดำเนินกิจการ","lat":12.72733,"lon":100.97783},"20201000125427":{"id":"20201000125427","name":"บริษัท จีเอส อีเลคทรอนิคส์ เมทัล จำกัด","owner":"บริษัท จีเอส อีเลคทรอนิคส์ เมทัล จำกัด","displayRegistration":"จ3-60-1/42ชบ","province":"ชลบุรี","district":"บ้านบึง","subdistrict":"หนองอิรุณ","industryType":"หลอมหล่อโลหะผสมเพื่อใช้ในการบัดกรี (Solder)  ดีบุกและทองแดง หลอมเศษโลหะผสมเพื่อใช้ในการบัดกรี เศษดีบุกและเศษทองแดง ที่เป็นของเสียหรือวัสดุที่ไม่ใช้แล้วจากโ","status":"ดำเนินกิจการ","lat":13.31421,"lon":101.2109},"10200900125414":{"id":"10200900125414","name":"บริษัท ปตท. น้ำมันและการค้าปลีก จำกัด (มหาชน)","owner":"บริษัท ปตท. น้ำมันและการค้าปลีก จำกัด (มหาชน)","displayRegistration":"3-64(1)-1/41ชบ","province":"ชลบุรี","district":"บางละมุง","subdistrict":"บางละมุง","industryType":"ผลิตถังบรรจุก๊าซปิโตรเลียมเหลว","status":"ดำเนินกิจการ","lat":13.02667,"lon":100.93117},"20200800125421":{"id":"20200800125421","name":"บริษัท สุรชัยฟาร์ม จำกัด","owner":"บริษัท สุรชัยฟาร์ม จำกัด","displayRegistration":"จ3-43(1)-1/42ชบ","province":"ชลบุรี","district":"บ้านบึง","subdistrict":"บ้านบึง","industryType":"ผลิตปุ๋ยมุลไก่อัดเม็ดโดยไม่ใช้กระบวนการทางเคมี","status":"ดำเนินกิจการ","lat":13.326497,"lon":101.129133},"20200000525420":{"id":"20200000525420","name":"บริษัท สยามเคียววะ เซซาคูโซ จำกัด","owner":"บริษัท สยามเคียววะ เซซาคูโซ จำกัด","displayRegistration":"จ3-36(1)-5/42ชบ","province":"ชลบุรี","district":"บ้านบึง","subdistrict":"คลองกิ่ว","industryType":"ทำลังไม้ กล่องไม้ เฟอร์นิเจอร์และฐานรองรับสินค้า","status":"ดำเนินกิจการ","lat":13.22217,"lon":101.15217},"20201500125422":{"id":"20201500125422","name":"บริษัท เอ็ม.ซี.ซี.อินดัสเทรียล นิว 1999 จำกัด","owner":"บริษัท เอ็ม.ซี.ซี.อินดัสเทรียล นิว 1999 จำกัด","displayRegistration":"จ3-77(2)-1/42ชบ","province":"ชลบุรี","district":"บ้านบึง","subdistrict":"บ้านบึง","industryType":"ผลิตกันชน และอุปกรณ์ตกแต่งรถยนต์","status":"ดำเนินกิจการ","lat":13.33075,"lon":101.12185},"10200400125419":{"id":"10200400125419","name":"บริษัท เทอร์มาเฟลกซ์ อินซูเลชั่น เอเซีย จำกัด","owner":"บริษัท เทอร์มาเฟลกซ์ อินซูเลชั่น เอเซีย จำกัด","displayRegistration":"3-48(11)-1/41ชบ","province":"ชลบุรี","district":"บางละมุง","subdistrict":"หนองปรือ","industryType":"ผลิตฉนวนกันความร้อนและความเย็นชนิดโพลีเอธิลีน","status":"ดำเนินกิจการ","lat":12.96232,"lon":100.92509},"10200000225429":{"id":"10200000225429","name":"บริษัท สุขสมบูรณ์ น้ำมันปาล์ม จำกัด","owner":"บริษัท สุขสมบูรณ์ น้ำมันปาล์ม จำกัด","displayRegistration":"3-7(1)-2/42ชบ","province":"ชลบุรี","district":"หนองใหญ่","subdistrict":"ห้างสูง","industryType":"สกัดน้ำมันปาล์ม","status":"ดำเนินกิจการ","lat":13.1586,"lon":101.33626},"10201000125411":{"id":"10201000125411","name":"-","owner":"นายเฮง ทองแท่งไทย","displayRegistration":"3-64(8)-1/41ชบ","province":"ชลบุรี","district":"เมืองชลบุรี","subdistrict":"ห้วยกะปิ","industryType":"ผลิตวาล์วก๊อกน้ำและอุปกรณ์ตกแต่งบ้านทำด้วยเหล็กทองเหลือง","status":"ดำเนินกิจการ","lat":13.32081,"lon":100.96217},"10201200125401":{"id":"10201200125401","name":"บริษัท สยามแคนส์ อินดัสทริ จำกัด","owner":"บริษัท สยามแคนส์ อินดัสทริ จำกัด","displayRegistration":"3-64(1)-1/40ชบ","province":"ชลบุรี","district":"บ่อทอง","subdistrict":"ธาตุทอง","industryType":"ผลิตภาชนะบรรจุจากโลหะ","status":"ดำเนินกิจการ","lat":13.30356,"lon":101.34965},"10200100125420":{"id":"10200100125420","name":"บรีษัท เอสโซ่ (ประเทศไทย) จำกัด (มหาชน)","owner":"บริษัท เอสโซ่ (ประเทศไทย) จำกัด (มหาชน)","displayRegistration":"3-42(1)-1/42ชบ","province":"ชลบุรี","district":"ศรีราชา","subdistrict":"ทุ่งสุขลา","industryType":"ผลิตสารทำละลาย","status":"ดำเนินกิจการ","lat":13.096048,"lon":100.891176},"20200100725409":{"id":"20200100725409","name":"อู่นิวัฒน์การช่าง","owner":"บริษัท นิวัฒน์ ออโต้คาร์ จำกัด","displayRegistration":"จ3-95(1)-7/40ชบ","province":"ชลบุรี","district":"เมืองชลบุรี","subdistrict":"แสนสุข","industryType":"ซ่อม-พ่นสีรถยนต์","status":"ดำเนินกิจการ","lat":13.27482,"lon":100.9353},"20201000125435":{"id":"20201000125435","name":"บริษัท เค.ซี.แอล.ผลิตภัณฑ์คอนกรีต จำกัด","owner":"บริษัท เค.ซี.แอล ผลิตภัณฑ์คอนกรีต จำกัด","displayRegistration":"จ3-58(1)-1/43ชบ","province":"ชลบุรี","district":"ศรีราชา","subdistrict":"สุรศักดิ์","industryType":"ทำผลิตภัณฑ์คอนกรีต เช่น ท่อระบายน้ำ พื้นสำเร็จรูป","status":"ดำเนินกิจการ","lat":13.15617,"lon":100.98886},"00200000125373":{"id":"00200000125373","name":"บริษัท ไทยโทโยกลูโคส จำกัด","owner":"บริษัท ไทยโทโยกลูโคส จำกัด","displayRegistration":"ศ3-9(2)-1/37ชบ","province":"ชลบุรี","district":"บ้านบึง","subdistrict":"หนองอิรุณ","industryType":"ผลิตแป้งข้าวจ้าว และแป้งปรุงแต่ง ผลิตผลไม้แช่อิ่มอบแห้ง","status":"ดำเนินกิจการ","lat":13.30783,"lon":101.27083},"10200600125433":{"id":"10200600125433","name":"บริษัท หวั่น หลิน (ประเทศไทย) จำกัด","owner":"บริษัท หวั่น หลิน (ประเทศไทย) จำกัด","displayRegistration":"3-64(8)-1/43ชบ","province":"ชลบุรี","district":"บ้านบึง","subdistrict":"บ้านบึง","industryType":"ผลิตชิ้นส่วนโลหะประกอบท่อเครื่องสุขภัณฑ์และเครื่องจักร","status":"ดำเนินกิจการ","lat":13.33983,"lon":101.12167},"20200500125416":{"id":"20200500125416","name":"บริษัท บอส รับเบอร์ จำกัด","owner":"บริษัท บอส รับเบอร์ จำกัด","displayRegistration":"จ3-51-1/41ชบ","province":"ชลบุรี","district":"เมืองชลบุรี","subdistrict":"ห้วยกะปิ","industryType":"อัดดอกยาง","status":"ดำเนินกิจการ","lat":13.32118,"lon":100.97088},"00200300125362":{"id":"00200300125362","name":"บริษัท ปาร์ติเกิ้ล แพลนเนอร์ จำกัด","owner":"บริษัท ปาร์ติเกิ้ล แพลนเนอร์ จำกัด","displayRegistration":"ศ3-34(3)-1/36ชบ","province":"ชลบุรี","district":"บ้านบึง","subdistrict":"หนองอิรุณ","industryType":"ผลิตแผ่นปาร์ติเกิ้ล","status":"ดำเนินกิจการ","lat":13.28096,"lon":101.19648},"20200100525411":{"id":"20200100525411","name":"อู่พิทักษ์ชัย","owner":"บริษัท อู่พิทักษ์ชัย จำกัด","displayRegistration":"จ3-95(1)-5/41ชบ","province":"ชลบุรี","district":"เมืองชลบุรี","subdistrict":"หนองข้างคอก","industryType":"ซ่อมส่วนประกอบรถยนต์บรรทุก","status":"ดำเนินกิจการ","lat":13.32667,"lon":101.004},"10200500125418":{"id":"10200500125418","name":"บริษัท บี.โอ.อุตสาหกรรม จำกัด","owner":"บริษัท บี.โอ.อุตสาหกรรม จำกัด","displayRegistration":"3-53(1)-1/41ชบ","province":"ชลบุรี","district":"ศรีราชา","subdistrict":"บ่อวิน","industryType":"ผลิดแปลงทำความสะอาดและเส้นใยพลาสติก","status":"ดำเนินกิจการ","lat":13.0125,"lon":101.06867},"10200400125435":{"id":"10200400125435","name":"บริษัท แสงรุ่ง กรุ๊ป จำกัด","owner":"บริษัท แสงรุ่ง กรุ๊ป จำกัด","displayRegistration":"3-53(1)-1/43ชบ","province":"ชลบุรี","district":"บ้านบึง","subdistrict":"คลองกิ่ว","industryType":"ผลิตเครื่องใช้พลาสติก เช่น ถังน้ำ กระติกใส่น้ำ แกลลอน ตะกร้า","status":"ดำเนินกิจการ","lat":13.19583,"lon":101.158},"20200400325439":{"id":"20200400325439","name":"บริษัท ศรีราชา การาจ จำกัด","owner":"บริษัท ศรีราชา การาจ จำกัด","displayRegistration":"จ3-95(1)-3/43ชบ","province":"ชลบุรี","district":"ศรีราชา","subdistrict":"ทุ่งสุขลา","industryType":"ซ่อมรถยนต์","status":"ดำเนินกิจการ","lat":13.1263333333333,"lon":100.917333333333},"10200400225409":{"id":"10200400225409","name":"บริษัท บีทีดี ออโต้พาร์ท (ประเทศไทย) จำกัด","owner":"บริษัท บีทีดี ออโต้พาร์ท (ประเทศไทย) จำกัด","displayRegistration":"3-62-2/40ชบ","province":"ชลบุรี","district":"พานทอง","subdistrict":"มาบโป่ง","industryType":"ทำบานพับ กลอนประตู มือจับ และเครื่องใช้สุขภัณฑ์","status":"ดำเนินกิจการ","lat":13.43654,"lon":101.10872},"20200300125434":{"id":"20200300125434","name":"บริษัท ไทย โยอิ จำกัด","owner":"บริษัท ไทย โยอิ จำกัด","displayRegistration":"จ3-36(1)-1/43ชบ","province":"ชลบุรี","district":"บางละมุง","subdistrict":"หนองปลาไหล","industryType":"ทำสิ่งรองรับสิ่งของ (แพลเลต)","status":"ดำเนินกิจการ","lat":12.9855,"lon":100.94883},"10200200125437":{"id":"10200200125437","name":"บริษัท ไทยโพลีเอสเตอร์ จำกัด","owner":"บริษัท ไทยโพลีเอสเตอร์ จำกัด","displayRegistration":"3-44-1/43ชบ","province":"ชลบุรี","district":"บ้านบึง","subdistrict":"หนองไผ่แก้ว","industryType":"ผลิตเส้นใยสังเคราะห์","status":"ดำเนินกิจการ","lat":13.2075,"lon":101.2175},"10200400125443":{"id":"10200400125443","name":"บริษัท ฟู่ซุ่น สติ๊กเกอร์ จำกัด","owner":"บริษัท ฟู่ซุ่น สติ๊กเกอร์ จำกัด","displayRegistration":"3-40(1)-1/44ชบ","province":"ชลบุรี","district":"เมืองชลบุรี","subdistrict":"ดอนหัวฬ่อ","industryType":"เคลือบกาวกระดาษและทำสติ๊กเกอร์","status":"ดำเนินกิจการ","lat":13.44831,"lon":101.02791},"10200100125446":{"id":"10200100125446","name":"โรงน้ำแข็งวรกิจ","owner":"บริษัท วรกิจ มนตรี จำกัด","displayRegistration":"3-14-1/44ชบ","province":"ชลบุรี","district":"ศรีราชา","subdistrict":"บึง","industryType":"ผลิตน้ำแข็งซอง รวม 4,000 ซอง/วัน","status":"ดำเนินกิจการ","lat":13.08015,"lon":101.00349},"10200300125436":{"id":"10200300125436","name":"บริษัท ไทยอีสเทิร์น อินโนเวชั่น จำกัด","owner":"บริษัท ไทยอีสเทิร์น อินโนเวชั่น จำกัด","displayRegistration":"3-52(2)-1/43ชบ","province":"ชลบุรี","district":"หนองใหญ่","subdistrict":"เขาซก","industryType":"ผลิตยางแท่ง","status":"ดำเนินกิจการ","lat":13.08148,"lon":101.39578},"10200000525430":{"id":"10200000525430","name":"บริษัท ยูไนเต็ด ครีเอชั่น แพ็คเกจจิ้ง โซลูชั่น (ประเทศไทย) จำกัด","owner":"บริษัท ยูไนเต็ด ครีเอชั่น แพ็คเกจจิ้ง โซลูชั่น (ประเทศไทย) จำกัด","displayRegistration":"3-39-5/43ชบ","province":"ชลบุรี","district":"บ้านบึง","subdistrict":"บ้านบึง","industryType":"ผลิตกระดาษ","status":"ดำเนินกิจการ","lat":13.33867,"lon":101.11913},"10200400125401":{"id":"10200400125401","name":"บริษัท กลุ่มสยามบรรจุภัณฑ์ จำกัด","owner":"บริษัท กลุ่มสยามบรรจุภัณฑ์ จำกัด","displayRegistration":"3-39-1/40ชบ","province":"ชลบุรี","district":"ศรีราชา","subdistrict":"สุรศักดิ์","industryType":"ผลิตแผ่นกระดาษและกล่องกระดาษลูกฟูก","status":"ดำเนินกิจการ","lat":13.15383,"lon":100.97683},"10200300125444":{"id":"10200300125444","name":"บริษัท แคชชวล โฮม (ไทยแลนด์) จำกัด","owner":"บริษัท แคชชวล โฮม (ไทยแลนด์) จำกัด","displayRegistration":"3-37-1/44ชบ","province":"ชลบุรี","district":"บ้านบึง","subdistrict":"หนองบอนแดง","industryType":"ผลิตเฟอร์นิเจอร์และชิ้นส่วนเฟอร์นิเจอร์จากไม้","status":"ดำเนินกิจการ","lat":13.36117,"lon":101.1965},"20201200125425":{"id":"20201200125425","name":"บริษัท ซีนิธ เมทอล อินดัสทรี จำกัด","owner":"บริษัท ซีนิธ เมทอล อินดัสทรี จำกัด","displayRegistration":"จ3-63(2)-1/42ชบ","province":"ชลบุรี","district":"บางละมุง","subdistrict":"บางละมุง","industryType":"ประกอบผลิตภัณฑ์โลหะสำหรับการก่อสร้างและติดตั้ง เช่น TUBULAR DOOR LOCK MORTISE DOOK LOCK ZINC DOOR ACCESSORIES,BRASS DOOR ACCESSORIES","status":"ดำเนินกิจการ","lat":13.015232,"lon":100.933124},"20200100125436":{"id":"20200100125436","name":"ห้างหุ้นส่วนจำกัด มารีนเฟรชเชอร์","owner":"ห้างหุ้นส่วนจำกัด มารีนเฟรชเชอร์","displayRegistration":"จ3-14-1/43ชบ","province":"ชลบุรี","district":"บางละมุง","subdistrict":"หนองปรือ","industryType":"ทำน้ำแข็งก้อนเล็กและน้ำดื่ม","status":"ดำเนินกิจการ","lat":12.93166,"lon":100.90727},"20201500125414":{"id":"20201500125414","name":"บริษัท ไทย คอมโพสิท จำกัด","owner":"บริษัท ไทย คอมโพสิท จำกัด","displayRegistration":"จ3-74(4)-1/41ชบ","province":"ชลบุรี","district":"บ้านบึง","subdistrict":"หนองชาก","industryType":"ผลิตท่อร้อยสายไฟฟ้าจากไฟเบอร์กลาส","status":"ดำเนินกิจการ","lat":13.3145,"lon":101.19167},"20201100125426":{"id":"20201100125426","name":"บริษัท ลัคกี้เวิลด์กรุ๊ป จำกัด","owner":"บริษัท ลัคกี้เวิลด์กรุ๊ป จำกัด","displayRegistration":"จ3-62-1/42ชบ","province":"ชลบุรี","district":"พานทอง","subdistrict":"หนองหงษ์","industryType":"ผลิตเฟอร์นิเจอร์ เช่น โต๊ะ ตู้ ชั้นวาง จากโลหะ และงานกลึงจากโลหะ","status":"ดำเนินกิจการ","lat":13.38417,"lon":101.12017},"10200000125447":{"id":"10200000125447","name":"บริษัท ควอลิตี้เพลเลท จำกัด","owner":"บริษัท ควอลิตี้เพลเลท จำกัด","displayRegistration":"3-9(4)-1/44ชบ","province":"ชลบุรี","district":"พนัสนิคม","subdistrict":"หนองเหียง","industryType":"ทำมันสำปะหลังอัดเม็ด","status":"ดำเนินกิจการ","lat":13.49651,"lon":101.2639},"20200600125449":{"id":"20200600125449","name":"บริษัท เฟอร์นิเจอร์ เฟอร์ทิล กรีน อินดัสเทรียล จำกัด","owner":"บริษัท เฟอร์นิเจอร์ เฟอร์ทิล กรีน อินดัสเทรียล จำกัด","displayRegistration":"จ3-37-1/44ชบ","province":"ชลบุรี","district":"เมืองชลบุรี","subdistrict":"หนองรี","industryType":"ผลิตเฟอร์นิเจอร์ ชิ้นส่วนที่ผลิตและประกอบเป็นเฟอร์นิเจอร์สำเร็จรูปจากไม้","status":"ดำเนินกิจการ","lat":13.34503,"lon":101.04963},"20201000125443":{"id":"20201000125443","name":"บริษัท สุรชัยฟาร์ม จำกัด","owner":"บริษัท สุรชัยฟาร์ม จำกัด","displayRegistration":"จ3-43(1)-1/44ชบ","province":"ชลบุรี","district":"บ้านบึง","subdistrict":"บ้านบึง","industryType":"ผสมปุ๋ยเคมี-อินทรีย์","status":"ดำเนินกิจการ","lat":13.326,"lon":101.12917},"20201600125421":{"id":"20201600125421","name":"บริษัท โฮมเตห์ ลักเกจ อินดัสเตรียลไทย จำกัด","owner":"บริษัท โฮมเตห์ ลักเกจ อินดัสเตรียลไทย จำกัด","displayRegistration":"จ3-86-1/42ชบ","province":"ชลบุรี","district":"ศรีราชา","subdistrict":"หนองขาม","industryType":"ทำกระเป๋ากีฬาและกระเป๋าเดินทาง","status":"ดำเนินกิจการ","lat":13.13934,"lon":100.97558},"20200800125447":{"id":"20200800125447","name":"บริษัท พัทยา เปเปอร์มิลล์ จำกัด","owner":"บริษัท พัทยาเปเปอร์มิลล์ จำกัด","displayRegistration":"จ3-40(1)-1/44ชบ","province":"ชลบุรี","district":"บางละมุง","subdistrict":"ตะเคียนเตี้ย","industryType":"คัดแยก อัด กระดาษ พลาสติก เหล็ก วัสดุฯ","status":"ดำเนินกิจการ","lat":13.02782,"lon":100.96665},"20200100225434":{"id":"20200100225434","name":"บริษัท น้ำปลาพิไชย จำกัด","owner":"บริษัท น้ำปลาพิไชย จำกัด","displayRegistration":"จ3-13(2)-2/43ชบ","province":"ชลบุรี","district":"ศรีราชา","subdistrict":"หนองขาม","industryType":"ทำน้ำปลา","status":"ดำเนินกิจการ","lat":13.12596,"lon":101.01388},"20200600125431":{"id":"20200600125431","name":"บริษัท ท๊อปเฟล็กซ์ รับเบอร์ อินดัสทรี่ จำกัด","owner":"บริษัท ท๊อปเฟล็กซ์ รับเบอร์ อินดัสทรี่ จำกัด","displayRegistration":"จ3-52(4)-1/43ชบ","province":"ชลบุรี","district":"บ้านบึง","subdistrict":"หนองซ้ำซาก","industryType":"ผลิตท่อยาง และข้อต่อยาง","status":"ดำเนินกิจการ","lat":13.334,"lon":101.07967},"20200100325432":{"id":"20200100325432","name":"ดีศรีการค้า-ช่างหนุ่มการช่าง","owner":"นางพัชนีรัตน์ ดีศรี","displayRegistration":"จ3-34(2)-3/43ชบ","province":"ชลบุรี","district":"พนัสนิคม","subdistrict":"ท่าข้าม","industryType":"ทำวงกบ ประตู หน้าต่าง กลึงไม้ เครื่องเรือนเครื่องใช้ในครัวเรือนชั้นวางสินค้า","status":"ดำเนินกิจการ","lat":13.55472,"lon":101.14039},"20200200225433":{"id":"20200200225433","name":"บริษัท กรุงเทพถาดไข่ จำกัด","owner":"บริษัท กรุงเทพถาดไข่ จำกัด","displayRegistration":"จ3-39-2/43ชบ","province":"ชลบุรี","district":"พนัสนิคม","subdistrict":"หนองปรือ","industryType":"ผลิตภาชนะบรรจุไข่จากกระดาษ","status":"ดำเนินกิจการ","lat":13.505884,"lon":101.260491},"20200500225430":{"id":"20200500225430","name":"บริษัท ได-คัต ดี.ซี.ดับบลิว จำกัด","owner":"บริษัท ได-คัต ดี.ซี.ดับบลิว จำกัด","displayRegistration":"จ3-84(3)-2/43ชบ","province":"ชลบุรี","district":"บางละมุง","subdistrict":"หนองปรือ","industryType":"ผลิตเพชรเจียระไน การเจียระไนหรือการตัดเพชรพลอย","status":"ดำเนินกิจการ","lat":12.90833,"lon":100.90391},"20200900125438":{"id":"20200900125438","name":"บริษัท ยามาฮ่า อาร์ท ไชน่า (ประเทศไทย) จำกัด","owner":"บริษัท ยามาฮ่า อาร์ท ไชน่า (ประเทศไทย) จำกัด","displayRegistration":"จ3-55-1/43ชบ","province":"ชลบุรี","district":"พนัสนิคม","subdistrict":"หนองเหียง","industryType":"เครื่องปั้นดินเผา เช่น ตุ๊กตา","status":"ดำเนินกิจการ","lat":13.47469,"lon":101.306},"10201300125400":{"id":"10201300125400","name":"บริษัท ฮีดากาโยโก เอ็นเตอร์ไพรส์ จำกัด","owner":"บริษัท ฮีดากา โยโก เอ็นเตอร์ไพรส์ จำกัด","displayRegistration":"3-64(11)-1/40ชบ","province":"ชลบุรี","district":"ศรีราชา","subdistrict":"บ่อวิน","industryType":"อัดเศษเหล็กเป็นเศษเหล็กอัดก้อน คัดแยกวัสดุที่ไม่ใช้แล้วและนำผลิตภัณฑ์อุตสาหกรรมที่ไม่ใช้แล้วหรือของเสียมาผลิตใหม่ และตัด พับ และม้วนโลหะ","status":"ดำเนินกิจการ","lat":13.036853,"lon":101.134598},"10200000225445":{"id":"10200000225445","name":"บริษัท บ้านบึงน้ำแข็งซอง จำกัด","owner":"บริษัท บ้านบึงน้ำแข็งซอง จำกัด","displayRegistration":"3-14-2/44ชบ","province":"ชลบุรี","district":"บ้านบึง","subdistrict":"บ้านบึง","industryType":"ทำน้ำแข็งซอง","status":"ดำเนินกิจการ","lat":13.288222,"lon":101.125915},"10200200125445":{"id":"10200200125445","name":"บริษัท สหเซเรน จำกัด","owner":"บริษัท สหเซเรน จำกัด","displayRegistration":"3-27(6)-1/44ชบ","province":"ชลบุรี","district":"ศรีราชา","subdistrict":"หนองขาม","industryType":"ผลิตและจำหน่ายผ้าหุ้มเบาะรถยนต์และผ้าหุ้มเฟอร์นิเจอร์","status":"ดำเนินกิจการ","lat":13.08717,"lon":100.957},"10200000425466":{"id":"10200000425466","name":"บริษัท เอ็ม.ซี.เจนเนอรัล เซอร์วิส จำกัด","owner":"บริษัท เอ็ม.ซี.เจนเนอรัล เซอร์วิส จำกัด","displayRegistration":"3-106-4/46ชบ","province":"ชลบุรี","district":"หนองใหญ่","subdistrict":"คลองพลู","industryType":"ซ่อมและล้างแท้งค์บรรจุน้ำมันและแท้งค์บรรจุอื่น ๆ","status":"ดำเนินกิจการ","lat":13.10527,"lon":101.48024},"10200700125440":{"id":"10200700125440","name":"บริษัท ไทยเซชิน อี.เอ็น.เอฟ. จำกัด","owner":"บริษัท ไทยเซชิน อี.เอ็น.เอฟ. จำกัด","displayRegistration":"3-72-1/44ชบ","province":"ชลบุรี","district":"ศรีราชา","subdistrict":"เขาคันทรง","industryType":"ผลิตชิ้นส่วนอุปกรณ์เครื่องใช้ไฟฟ้า อิเล็คทรอนิคส์ และทำโฟมเพื่อเป็นฉนวนสำหรับตู้เย็นและภาชนะรองรับ","status":"ดำเนินกิจการ","lat":13.10517,"lon":101.11917},"20200800125439":{"id":"20200800125439","name":"บริษัท ซิงหวอไท่ จำกัด","owner":"บริษัท ซิงหวอไท่ จำกัด","displayRegistration":"จ3-53(9)-1/43ชบ","province":"ชลบุรี","district":"บางละมุง","subdistrict":"หนองปลาไหล","industryType":"ผลิตเม็ดพลาสติกและผลิตภัณฑ์พลาสติก เช่น จาน บรรจุภัณฑ์ ฯลฯ","status":"ดำเนินกิจการ","lat":12.98013,"lon":100.94874},"20202300125448":{"id":"20202300125448","name":"บริษัท แอล.เจ.อาร์.อินดัสตรี จำกัด","owner":"บริษัท แอล.เจ.อาร์อินดัสตรี จำกัด","displayRegistration":"จ3-74(3)-1/44ชบ","province":"ชลบุรี","district":"เมืองชลบุรี","subdistrict":"ห้วยกะปิ","industryType":"ผลิตอุปกรณ์ไฟฟ้า เช่น โคมไฟฟ้า นีออน ตู้สวิทซ์บอร์ด","status":"ดำเนินกิจการ","lat":13.29767,"lon":100.96567},"20200000125445":{"id":"20200000125445","name":"บริษัท ลัคกี้ สวอน จำกัด","owner":"บริษัท ลัคกี้ สวอน จำกัด","displayRegistration":"จ3-8(1)-1/44ชบ","province":"ชลบุรี","district":"บ้านบึง","subdistrict":"หนองอิรุณ","industryType":"ทำอาหารและเครื่องดื่มจากผลไม้ เช่น สับประรด บรรจุในภาชนะที่ปิดผนึกอากาศเข้าไม่ได้","status":"ดำเนินกิจการ","lat":13.31183,"lon":101.25137},"10200000725469":{"id":"10200000725469","name":"บริษัท เอ.พี.รีไซเคิล อินดัสเตรียล จำกัด","owner":"บริษัท เอ.พี.รีไซเคิลอินดัสเตรียล จำกัด","displayRegistration":"3-105-7/46ชบ","province":"ชลบุรี","district":"บ้านบึง","subdistrict":"คลองกิ่ว","industryType":"อัดกระดาษ อัดเศษโลหะ อัดพลาสติก","status":"ดำเนินกิจการ","lat":13.22144,"lon":101.15297},"20200000425423":{"id":"20200000425423","name":"บริษัท พรเทพอินเตอร์กรุ๊ป จำกัด","owner":"บริษัท พรเทพอินเตอร์กรุ๊ป จำกัด","displayRegistration":"จ3-36(1)-4/42ชบ","province":"ชลบุรี","district":"ศรีราชา","subdistrict":"บึง","industryType":"ทำแพลเลตจากไม้ ลังไม้ และกล่องไม้ โดยใช้ไม้ยางพาราแปรรูป ไม้มะม่วงบ้านแปรรูป ไม้ทุเรียนแปรรูปและไม้แปรรูปจากต่างประเทศ","status":"ดำเนินกิจการ","lat":13.06367,"lon":100.99617},"20200200225441":{"id":"20200200225441","name":"NULL","owner":"นางสาวนิรมล ทวีวัฒนานนท์","displayRegistration":"จ3-34(2)-2/44ชบ","province":"ชลบุรี","district":"เกาะจันทร์","subdistrict":"ท่าบุญมี","industryType":"ทำวงกบ ประตู หน้าต่างจากไม้แปรรูป","status":"ดำเนินกิจการ","lat":13.37458,"lon":101.28218},"10200800125407":{"id":"10200800125407","name":"บริษัท เอสซีจี แลนด์สเคป จำกัด","owner":"บริษัท เอสซีจี แลนด์สเคป จำกัด","displayRegistration":"3-58(1)-1/40ชบ","province":"ชลบุรี","district":"ศรีราชา","subdistrict":"สุรศักดิ์","industryType":"ผลิต ผลิตภัณฑ์คอนกรีตบล็อคประสานปูพื้น","status":"ดำเนินกิจการ","lat":13.15592,"lon":100.98847},"20200300225440":{"id":"20200300225440","name":"บริษัท ไทยโมลด์เมคเกอร์ จำกัด","owner":"บริษัท ไทยโมลด์เมคเกอร์ จำกัด","displayRegistration":"จ3-41(2)-2/44ชบ","province":"ชลบุรี","district":"เมืองชลบุรี","subdistrict":"บ้านสวน","industryType":"ทำแม่พิมพ์โลหะ","status":"ดำเนินกิจการ","lat":13.37083,"lon":101.01867},"20201500125448":{"id":"20201500125448","name":"บริษัท ตะวันออก พริ้นติ้ง โปรแพ็คกิ้ง จำกัด","owner":"บริษัท ตะวันออก พริ้นติ้ง โปรแพ็คกิ้ง จำกัด","displayRegistration":"จ3-53(4)-1/44ชบ","province":"ชลบุรี","district":"บ้านบึง","subdistrict":"หนองชาก","industryType":"ผลิตถุพลาสติก และพิมพ์ถุงพลาสติก","status":"ดำเนินกิจการ","lat":13.32026,"lon":101.18125},"20200000325441":{"id":"20200000325441","name":"บริษัท ทองคำบรรจง จำกัด","owner":"บริษัท ทองคำบรรจง จำกัด","displayRegistration":"จ3-36(1)-3/44ชบ","province":"ชลบุรี","district":"เกาะจันทร์","subdistrict":"ท่าบุญมี","industryType":"ทำแผ่นรองสินค้าจากไม้ (พาเลท) ลังไม้","status":"ดำเนินกิจการ","lat":13.38611,"lon":101.30558},"20200700225446":{"id":"20200700225446","name":"บริษัท นวกาญจน์โลหะชลบุรี จำกัด","owner":"บริษัท นวกาญจน์โลหะชลบุรี จำกัด","displayRegistration":"จ3-68-2/44ชบ","province":"ชลบุรี","district":"เมืองชลบุรี","subdistrict":"หนองไม้แดง","industryType":"ผลิตอุปกรณ์เครื่องจักรสำหรับใช้ในการอุตสาหกรรม เช่น อุตสาหกรรมกระดาษ เคมี อาหาร เหมืองแร่ อาหารสัตว์ ไฮโดรลิก ก่อสร้าง","status":"ดำเนินกิจการ","lat":13.41084,"lon":100.98943},"72110000325431":{"id":"72110000325431","name":"บริษัท ไทย เอ็นโอเค จำกัด","owner":"บริษัท ไทย เอ็นโอเค จำกัด","displayRegistration":"น.52(4)-3/2543-ญอน.","province":"ชลบุรี","district":"เมืองชลบุรี","subdistrict":"ดอนหัวฬ่อ","industryType":"ผลิตชิ้นส่วนยางสังเคราะห์และพลาสติก และผลิตชิ้นส่วนหรืออุปกรณ์ของเครื่องยนต์ เครื่องจักรยานยนต์ เครื่องใช้ไฟฟ้า และผลิตชิ้นส่วนโลหะปั้มขึ้นรูป","status":"ดำเนินกิจการ","lat":13.441948998878,"lon":101.042031896471},"20201800125445":{"id":"20201800125445","name":"อรุณชัยการช่าง","owner":"นายศิริชัย ยิ้มตระการ","displayRegistration":"จ3-60-1/44ชบ","province":"ชลบุรี","district":"พนัสนิคม","subdistrict":"หน้าพระธาตุ","industryType":"หล่อพระพุทธรูป","status":"ดำเนินกิจการ","lat":13.45795,"lon":101.16164},"10200600125458":{"id":"10200600125458","name":"บริษัท คิงส์ แพ็ค อินดัสเตรียล จำกัด","owner":"บริษัท คิงส์ แพ็ค อินดัสเตรียล จำกัด","displayRegistration":"3-53(4)-1/45ชบ","province":"ชลบุรี","district":"เมืองชลบุรี","subdistrict":"หนองไม้แดง","industryType":"ผลิตถุงพลาสติกและแผ่นพลาสติก","status":"ดำเนินกิจการ","lat":13.40929,"lon":101.00267},"20200400125441":{"id":"20200400125441","name":"ห้างหุ้นส่วนจำกัด ศิริลักษณ์รับเบอร์","owner":"ห้างหุ้นส่วนจำกัด ศิริลักษณ์รับเบอร์","displayRegistration":"จ3-33-1/44ชบ","province":"ชลบุรี","district":"ศรีราชา","subdistrict":"สุรศักดิ์","industryType":"ผลิตรองเท้าและชิ้นส่วนรองเท้า","status":"ดำเนินกิจการ","lat":13.12796,"lon":100.93015},"20200000825440":{"id":"20200000825440","name":"โรงงานคอนกรีตผสมเสร็จบ้านบึง","owner":"บริษัท หนองใหญ่คอนกรีต จำกัด","displayRegistration":"จ3-58(1)-8/44ชบ","province":"ชลบุรี","district":"บ้านบึง","subdistrict":"หนองชาก","industryType":"คอนกรีตผสมเสร็จ","status":"ดำเนินกิจการ","lat":13.301,"lon":101.1465},"20200100125444":{"id":"20200100125444","name":"เจริญกิจ","owner":"นายวิวัฒน์ วุฒิเจริญกิจ","displayRegistration":"จ3-14-1/44ชบ","province":"ชลบุรี","district":"ศรีราชา","subdistrict":"บางพระ","industryType":"ทำน้ำแข็งก้อนเล็ก","status":"ดำเนินกิจการ","lat":13.21133,"lon":101.02547},"82110800125617":{"id":"82110800125617","name":"บริษัท ออโต้ เม็ททอล จำกัด","owner":"บริษัท ออโต้ เม็ททอล จำกัด","displayRegistration":"น.64(12)-1/2561-นอน.","province":"ชลบุรี","district":"เมืองชลบุรี","subdistrict":"ดอนหัวฬ่อ","industryType":"ผลิตท่อสเตนเลส","status":"ดำเนินกิจการ","lat":13.452471763145,"lon":101.071675215308},"10200200225443":{"id":"10200200225443","name":"บริษัท เซิ่งไท่ บราซแวร์ (ประเทศไทย) จำกัด","owner":"บริษัท เซิ่งไท่ บราซแวร์(ประเทศไทย) จำกัด","displayRegistration":"3-64(8)-2/44ชบ","province":"ชลบุรี","district":"เกาะจันทร์","subdistrict":"ท่าบุญมี","industryType":"ผลิตผลิตภัณฑ์จากโลหะทองเหลือง สำหรับใช้ในการต่อท่อและประกอบเครื่องสุขภัณฑ์","status":"ดำเนินกิจการ","lat":13.38455,"lon":101.30422},"10200100225444":{"id":"10200100225444","name":"บริษัท เดคคา เอ็มเอฟจี (ประเทศไทย) จำกัด","owner":"บริษัท เดคคา เอ็มเอฟจี (ประเทศไทย) จำกัด","displayRegistration":"3-37-2/44ชบ","province":"ชลบุรี","district":"เกาะจันทร์","subdistrict":"ท่าบุญมี","industryType":"ทำเครื่องเรือนจากไม้ยางพารา","status":"ดำเนินกิจการ","lat":13.366065,"lon":101.273883},"20200100325440":{"id":"20200100325440","name":"บริษัท กรุงเทพคอนกรีต(1989) จำกัด","owner":"บริษัท กรุงเทพคอนกรีต(1989) จำกัด","displayRegistration":"จ3-50(4)-3/44ชบ","province":"ชลบุรี","district":"ศรีราชา","subdistrict":"บึง","industryType":"ผลิตแอสฟัลท์ติคคอนกรีต","status":"ดำเนินกิจการ","lat":13.082726,"lon":100.989336},"20200000125353":{"id":"20200000125353","name":"-","owner":"นายวินิจ ชาญรัตน์อัสวกุล","displayRegistration":"จ3-15(2)-1/35ชบ","province":"ชลบุรี","district":"พนัสนิคม","subdistrict":"นามะตูม","industryType":"บดข้าวโพด","status":"ดำเนินกิจการ","lat":13.42444,"lon":101.18434},"72370000125559":{"id":"72370000125559","name":"บริษัท กรีน เมทัลส์ (ประเทศไทย) จำกัด","owner":"บริษัท กรีน เมทัลส์ (ประเทศไทย) จำกัด","displayRegistration":"น.105-1/2555-ญปค.","province":"ชลบุรี","district":"ศรีราชา","subdistrict":"บ่อวิน","industryType":"1.คัดแยกและรีไซเคิลโลหะโดยการตัด บด ย่อยเศษโลหะให้เป็นชิ้นเล็กๆ 2.ซื้อมาขายไป ขนส่งเศษโลหะและวัสดุที่ไม่ใช้แล้วที่ไม่เป็นอันตรายทุกประเภท 3.ถอดแยกรถยนต์ต้นแบบหรือรถยนต์ทดลองผลิตจากโรงงานผู้ผลิตรถยนต์ รถยนต์ที่ใช้แล้วหรือรถยนต์หมดสภาพ ถอดแยกรถยก (Fork Lift ) และถอดแยกชิ้นส่วนถุงลมนิรภัยรถยนต์  4.คลังสินค้าเพื่อจัดเก็บวัสดุที่ไม่ใช้แล้วทุกประเภท 5.รวบรวม เก็บแผ่นวงจร PCB (Printed Circuit Board) หรือ PWB (Printed circuit wiring board) เพื่อส่งขายต่างประเทศ 6.ถอดแยกชิ้นส่วนอิเล็กทรอนิกส์รถยนต์ที่ไม่ใช้แล้ว ได้แก่ ABS Actuator, ECU (Engine Control Unit) และ Airbag computer เท่านั้น 7.ถอดแยกชิ้นส่วน Desktop Computers (คอมพิวเตอร์ตั้งโต๊ะ), Notebook Computers (คอมพิวเตอร์โน๊ตบุ๊ค) และ Liquid Crystal Display (LCD) Monitor & Keyboard (หน้าจอและคีย์บอร์ดคอมพิวเตอร์) ที่ไม่ใช้แล้ว","status":"ดำเนินกิจการ","lat":13.1186550743658,"lon":101.053370659097},"82110200125563":{"id":"82110200125563","name":"บริษัท ไดกิ อลูมิเนียม อินดัสทรี (ประเทศไทย) จำกัด","owner":"บริษัท ไดกิ อลูมิเนียม อินดัสทรี (ประเทศไทย) จำกัด","displayRegistration":"น.105-1/2556-นอน.","province":"ชลบุรี","district":"พานทอง","subdistrict":"บ้านเก่า","industryType":"คัดแยกโลหะที่ใช้แล้ว และไม่เป็นของเสียอันตราย","status":"ดำเนินกิจการ","lat":13.4431180069058,"lon":101.021221711599},"20200000225450":{"id":"20200000225450","name":"บริษัท ที.ที.อาร์.รับเบอร์ จำกัด","owner":"บริษัท ที.ที.อาร์.รับเบอร์ จำกัด","displayRegistration":"จ3-52(2)-2/45ชบ","province":"ชลบุรี","district":"เมืองชลบุรี","subdistrict":"ห้วยกะปิ","industryType":"ผลิตยางแผ่น","status":"ดำเนินกิจการ","lat":13.32127,"lon":100.97075},"10201000125452":{"id":"10201000125452","name":"บริษัท รักษาสิ่งแวดล้อมและรีไซเคิล จำกัด","owner":"บริษัท รักษาสิ่งแวดล้อมและรีไซเคิล จำกัด","displayRegistration":"3-105-1/45ชบ","province":"ชลบุรี","district":"บ้านบึง","subdistrict":"คลองกิ่ว","industryType":"คัดแยกเฉพาะสิ่งปฏิกูล หรือวัสดุที่ไม่ใช้แล้วจากอุตสาหกรรมที่ไม่เป็นของเสียอันตราย","status":"ดำเนินกิจการ","lat":13.20538,"lon":101.20653},"10200300125451":{"id":"10200300125451","name":"บริษัท เจริญโภคภัณฑ์อาหาร จำกัด (มหาชน)","owner":"บริษัท เจริญโภคภัณฑ์อาหาร จำกัด (มหาชน)","displayRegistration":"3-15(1)-1/45ชบ","province":"ชลบุรี","district":"บ้านบึง","subdistrict":"หนองอิรุณ","industryType":"ผลิตอาหารสัตว์, ผลิตอาหารเสริมสำหรับสัตว์น้ำ","status":"ดำเนินกิจการ","lat":13.26,"lon":101.199},"20201200125458":{"id":"20201200125458","name":"บริษัท พี.เอส.พี.อุตสาหกรรมโลหะกิจ จำกัด","owner":"บริษัท พี.เอส.พี.อุตสาหกรรมโลหะกิจ จำกัด","displayRegistration":"จ3-61-1/45ชบ","province":"ชลบุรี","district":"พนัสนิคม","subdistrict":"หนองเหียง","industryType":"ผลิต ตบแต่ง ดัดแปลง หรือซ่อมแซมเครื่องมือ หรือเครื่องใช้ที่ทำด้วยเหล็ก เช่น อะไหล่เครื่องจักรต่างๆ","status":"ดำเนินกิจการ","lat":13.496,"lon":101.21138},"20200100325457":{"id":"20200100325457","name":"บริษัท วิน วิน พลาสเทค จำกัด","owner":"บริษัท วิน วิน พลาสเทค จำกัด","displayRegistration":"จ3-53(1)-3/45ชบ","province":"ชลบุรี","district":"เมืองชลบุรี","subdistrict":"บ้านสวน","industryType":"ผลิตชิ้นส่วนพลาสติกทั่วไป","status":"ดำเนินกิจการ","lat":13.36867,"lon":101.01717},"20202300125455":{"id":"20202300125455","name":"บริษัท วรรณา แมนูแฟคทอรี่ไทย จำกัด","owner":"บริษัท วรรณา แมนูแฟคทอรี่ไทย จำกัด","displayRegistration":"จ3-73-1/45ชบ","province":"ชลบุรี","district":"เมืองชลบุรี","subdistrict":"หนองไม้แดง","industryType":"ผลิตชิ้นส่วนอุปกรณ์เครื่องใช้ไฟฟ้าและอุปกรณ์อิเล็คทรอนิคส์","status":"ดำเนินกิจการ","lat":13.39105,"lon":101.01259},"20200200125443":{"id":"20200200125443","name":"บริษัท ฟีน่า สปินนิ่ง จำกัด","owner":"บริษัท ฟีน่า สปินนิ่ง จำกัด","displayRegistration":"จ3-22(2)-1/44ชบ","province":"ชลบุรี","district":"พานทอง","subdistrict":"หนองหงษ์","industryType":"ทอผ้า","status":"ดำเนินกิจการ","lat":13.37676,"lon":101.10718},"20202400125454":{"id":"20202400125454","name":"บริษัท เอสอาร์ ฟริคชั่น เทค จำกัด","owner":"บริษัท เอสอาร์ ฟริคชั่น เทค จำกัด","displayRegistration":"จ3-78(2)-1/45ชบ","province":"ชลบุรี","district":"บ้านบึง","subdistrict":"หนองอิรุณ","industryType":"ทำชิ้นส่วนหรืออุปกรณ์ของรถยนต์หรือจักรยานยนต์ เช่น แผ่นคลัทช์ ฯลฯ","status":"ดำเนินกิจการ","lat":13.27708,"lon":101.20099},"20201900125451":{"id":"20201900125451","name":"บริษัท ธัญญากลกิจ จำกัด","owner":"บริษัท ธัญญากลกิจ จำกัด","displayRegistration":"จ3-66-1/45ชบ","province":"ชลบุรี","district":"เมืองชลบุรี","subdistrict":"หนองข้างคอก","industryType":"ผลิต รับจ้างประกอบเครื่องอบเมล็ดพืชและเครื่องจักรแปรรูปการเกษตรต่าง ๆ","status":"ดำเนินกิจการ","lat":13.31893,"lon":101.00324},"82060700125508":{"id":"82060700125508","name":"บริษัท แอโร่เวิร์ค คอมโพสิต (เอเชีย) จำกัด","owner":"บริษัท แอโร่เวิร์ค คอมโพสิต (เอเชีย) จำกัด","displayRegistration":"น.79(2)-1/2550-นนฉ.","province":"ชลบุรี","district":"ศรีราชา","subdistrict":"ทุ่งสุขลา","industryType":"ผลิตชิ้นส่วนอุปกรณ์เครื่องใช้บนเครื่องบิน","status":"ดำเนินกิจการ","lat":13.086853246369,"lon":100.900496911594},"82300100125561":{"id":"82300100125561","name":"บริษัท อูเอดะ พลาสติก (ประเทศไทย) จำกัด","owner":"บริษัท อูเอดะ พลาสติก (ประเทศไทย) จำกัด","displayRegistration":"น.53(5)-1/2556-นหบ.","province":"ชลบุรี","district":"ศรีราชา","subdistrict":"เขาคันทรง","industryType":"ผลิตชิ้นส่วนพลาสติก แม่พิมพ์ และอุปกรณ์จับยึดชิ้นงาน (Jig), เคลือบผิวพลาสติกและทำเครื่องหมายด้วยแสงเลเซอร์บนชิ้นส่วนพลาสติก","status":"ดำเนินกิจการ","lat":13.1221853866699,"lon":101.172985864716},"82110700125568":{"id":"82110700125568","name":"บริษัท ไทย ยาชิมะ จำกัด","owner":"บริษัท ไทย ยาชิมะ จำกัด","displayRegistration":"น.53(5)-1/2556-นอน.","province":"ชลบุรี","district":"พานทอง","subdistrict":"บ้านเก่า","industryType":"ผลิตชิ้นส่วนพลาสติกและผลิตภัณฑ์พลาสติก","status":"ดำเนินกิจการ","lat":13.518917676804,"lon":101.064249563694},"20201800125452":{"id":"20201800125452","name":"บริษัท อาร์เค โฮลดิ้ง (ประเทศไทย) จำกัด","owner":"บริษัท อาร์เค โฮลดิ้ง (ประเทศไทย) จำกัด","displayRegistration":"จ3-64(13)-1/45ชบ","province":"ชลบุรี","district":"ศรีราชา","subdistrict":"บ่อวิน","industryType":"กลึง เชื่อมโลหะทั่วไป","status":"ดำเนินกิจการ","lat":13.04267,"lon":101.09733},"20200600225447":{"id":"20200600225447","name":"ห้างหุ้นส่วนจำกัด ไกรบูรพา","owner":"ห้างหุ้นส่วนจำกัด ไกรบูรพา","displayRegistration":"จ3-64(11)-2/44ชบ","province":"ชลบุรี","district":"เมืองชลบุรี","subdistrict":"แสนสุข","industryType":"คัด แยก อัดเศษโลหะ กระดาษ พลาสติก และอื่น ๆ","status":"ดำเนินกิจการ","lat":13.27513,"lon":100.9313},"20200100225459":{"id":"20200100225459","name":"บริษัท ผลิตภัณฑ์หมีเหรียญทองพลาสติก จำกัด","owner":"บริษัท ผลิตภัณฑ์หมีเหรียญทองพลาสติก จำกัด","displayRegistration":"จ3-53(4)-2/45ชบ","province":"ชลบุรี","district":"เมืองชลบุรี","subdistrict":"นาป่า","industryType":"ทำถุงพลาสติก","status":"ดำเนินกิจการ","lat":13.393,"lon":101.019},"20200001125444":{"id":"20200001125444","name":"บริษัท พัทยา เปเปอร์มิลล์ จำกัด","owner":"บริษัท พัทยา เปเปอร์มิลล์ จำกัด","displayRegistration":"จ3-40(1)-11/44ชบ","province":"ชลบุรี","district":"บางละมุง","subdistrict":"นาเกลือ","industryType":"ซ่อมแซมแปรสภาพภาชนะบรรจุ เช่น ถังโลหะ พลาสติก กระดาษ","status":"ดำเนินกิจการ","lat":12.96298,"lon":100.90916},"20202000125441":{"id":"20202000125441","name":"บริษัท ตะวันออกสตีล จำกัด","owner":"บริษัท ตะวันออกสตีล จำกัด","displayRegistration":"จ3-64(11)-1/44ชบ","province":"ชลบุรี","district":"เมืองชลบุรี","subdistrict":"แสนสุข","industryType":"คัดแยกสิ่งปฏิกูลหรือวัสดุที่ไม่ใช้แล้วที่ไม่เป็นของเสียอันตราย เฉพาะกระดาษ พลาสติก ไม้ และโลหะต่าง ๆ","status":"ดำเนินกิจการ","lat":13.26617,"lon":100.93383},"10200200225401":{"id":"10200200225401","name":"บริษัท ลาวีนีล (ประเทศไทย) จำกัด","owner":"บริษัท ลาวีนีล (ประเทศไทย) จำกัด","displayRegistration":"3-52(4)-2/40ชบ","province":"ชลบุรี","district":"บ้านบึง","subdistrict":"หนองอิรุณ","industryType":"ผลิตถุงมือ และผลิตภัณฑ์อื่น ๆ ที่ทำจากยางพารา","status":"ดำเนินกิจการ","lat":13.34525,"lon":101.20132},"20200000325458":{"id":"20200000325458","name":"บริษัท เนื่องจำนงค์ ริชวู๊ด จำกัด","owner":"บริษัท เนื่องจำนงค์ ริชวู๊ด จำกัด","displayRegistration":"จ3-37-3/45ชบ","province":"ชลบุรี","district":"บ้านบึง","subdistrict":"หนองอิรุณ","industryType":"ผลิตเครื่องครัวจากไม้ยางพาราแปรรูป","status":"ดำเนินกิจการ","lat":13.27228,"lon":101.21575},"72450001125632":{"id":"72450001125632","name":"บริษัท หยินไล อิเล็คทริค (ประเทศไทย) จำกัด","owner":"บริษัท หยินไล อิเล็คทริค (ประเทศไทย) จำกัด","displayRegistration":"น.74(3)-11/2563-ญหส.","province":"ชลบุรี","district":"ศรีราชา","subdistrict":"เขาคันทรง","industryType":"ผลิตข้อต่อท่อร้อยสายไฟฟ้าและอุปกรณ์เดินสายไฟฟ้า","status":"ดำเนินกิจการ","lat":13.1338654474176,"lon":101.153885010932},"82110100325487":{"id":"82110100325487","name":"บริษัท ซัมมิท ชูโกกุ เซอิร่า จำกัด","owner":"บริษัท ซัมมิท ชูโกกุ เซอิร่า จำกัด","displayRegistration":"น.64(2)-3/2548-นอน.","province":"ชลบุรี","district":"พานทอง","subdistrict":"บ้านเก่า","industryType":"ผลิตชิ้นส่วน ขึ้นรูปด้วยโลหะ เช่น น็อต สกรู","status":"ดำเนินกิจการ","lat":13.4563044406425,"lon":101.062007215907},"72110100325463":{"id":"72110100325463","name":"บริษัท โตโยต้า โบโชคุ สยาม เมทัล จำกัด","owner":"บริษัท โตโยต้า โบโชคุ สยาม เมทัล จำกัด","displayRegistration":"น.77(2)-3/2546-ญอน.","province":"ชลบุรี","district":"พานทอง","subdistrict":"บ้านเก่า","industryType":"ผลิตชิ้นส่วนอุปกรณ์เบาะนั่งสำหรับรถยนต์, ฝาครอบกระบอกสูบเครื่องยนต์, ผลิตกระแสไฟฟ้าบนหลังคาโรงงานจากพลังงานแสงอาทิตย์ 1,871.36 กิโลวัตต์ เพื่อใช้ในโรงงาน","status":"ดำเนินกิจการ","lat":13.4528388865423,"lon":101.052431596253},"72060000225414":{"id":"72060000225414","name":"บริษัท มัลติแบกซ์ จำกัด (มหาชน)","owner":"บริษัท มัลติแบกซ์ จำกัด (มหาชน)","displayRegistration":"น.53(4)-2/2541-ญนฉ.","province":"ชลบุรี","district":"ศรีราชา","subdistrict":"ทุ่งสุขลา","industryType":"ผลิตถุงพลาสติก ผลิตและหรือประกอบเครื่องจักรเพื่อผลิตภัณฑ์พลาสติก และซื้อมาขายไปเครื่องจักร และเม็ดพลาสติก,ผลิตไฟฟ้าจากแผงโซลาร์เซลล์","status":"ดำเนินกิจการ","lat":13.0908870494577,"lon":100.908515680964},"10200500125467":{"id":"10200500125467","name":"บริษัท ไทยซัมซุง อิเลคโทรนิคส์ จำกัด","owner":"บริษัท ไทยซัมซุง อิเลคโทรนิคส์ จำกัด","displayRegistration":"3-71-1/46ชบ","province":"ชลบุรี","district":"ศรีราชา","subdistrict":"บึง","industryType":"ผลิตเตาอบไมโครเวฟ","status":"ดำเนินกิจการ","lat":13.09617,"lon":100.96733},"20201100125459":{"id":"20201100125459","name":"ห้างหุ้นส่วนจำกัด ไพศาลคอนกรีต","owner":"ห้างหุ้นส่วนจำกัด ไพศาลคอนกรีต","displayRegistration":"จ3-58(1)-1/45ชบ","province":"ชลบุรี","district":"หนองใหญ่","subdistrict":"เขาซก","industryType":"ทำผลิตภัณคอนกรีดอัดแรง เช่น ท่อ เสาเข็ม","status":"ดำเนินกิจการ","lat":13.05808,"lon":101.42553},"20200700225453":{"id":"20200700225453","name":"บริษัท ไทย เฟาน์เทิน ออฟ ไลฟ์ จำกัด","owner":"บริษัท ไทย เฟาน์เทิน ออฟ ไลฟ์ จำกัด","displayRegistration":"จ3-70-2/45ชบ","province":"ชลบุรี","district":"ศรีราชา","subdistrict":"บึง","industryType":"ผลิตชิ้นส่วนเครื่องใช้ไฟฟ้า","status":"ดำเนินกิจการ","lat":13.08617,"lon":101.023},"10200500125459":{"id":"10200500125459","name":"โรงงานผลิตยางแท่ง สหกรณ์กองทุนสวนยางบ้านเขาซก จำกัด","owner":"สหกรณ์กองทุนสวนยางบ้านเขาซก จำกัด","displayRegistration":"3-52(3)-1/45ชบ","province":"ชลบุรี","district":"หนองใหญ่","subdistrict":"คลองพลู","industryType":"ผลิตยางแท่ง","status":"ดำเนินกิจการ","lat":13.112904,"lon":101.427334},"10201000125403":{"id":"10201000125403","name":"บริษัท 3114 เอ็นจิเนียริ่ง จำกัด","owner":"บริษัท 3114 เอ็นจิเนียริ่ง จำกัด","displayRegistration":"3-61-1/40ชบ","province":"ชลบุรี","district":"บ้านบึง","subdistrict":"หนองชาก","industryType":"ผลิต ตบแต่ง ดัดแปลง หรือซ่อมแซมเครื่องจักรที่ทำด้วยเหล็ก หรือเหล็กกล้า เช่น เครื่องพับเหล็ก และรวมถึงส่วนประกอบหรืออุปกรณ์เครื่องจักร","status":"ดำเนินกิจการ","lat":13.31217,"lon":101.1865},"20200000525446":{"id":"20200000525446","name":"พี.พี.วิศวกรรม","owner":"นางสาวนราพิชญ์ พินทะสินธุ์","displayRegistration":"จ3-64(13)-5/44ชบ","province":"ชลบุรี","district":"ศรีราชา","subdistrict":"ทุ่งสุขลา","industryType":"ทำชิ้นส่วนอุปกรณ์เครื่องจักร","status":"ดำเนินกิจการ","lat":13.10433,"lon":100.9405},"10200000225460":{"id":"10200000225460","name":"บริษัท เพียวริตี้ พลาสติก จำกัด","owner":"บริษัท เพียวริตี้ พลาสติก จำกัด","displayRegistration":"3-53(1)-2/46ชบ","province":"ชลบุรี","district":"ศรีราชา","subdistrict":"บึง","industryType":"ทำผลิตภัณฑ์พลาสติกประเภทเครื่องมือ เครื่องใช้ เครื่องเรือน เครื่องใช้ไฟฟ้า","status":"ดำเนินกิจการ","lat":13.096,"lon":101.00733},"20200900225451":{"id":"20200900225451","name":"บริษัท มูเร็กซ์ อินดัสเทรียล แก๊ส จำกัด","owner":"บริษัท มูเร็กซ์ อินดัสเทรียล แก๊ส จำกัด","displayRegistration":"จ3-91(2)-2/45ชบ","province":"ชลบุรี","district":"เมืองชลบุรี","subdistrict":"หนองรี","industryType":"แบ่งบรรจุก๊าซ","status":"ดำเนินกิจการ","lat":13.3645,"lon":101.01783},"10200900125455":{"id":"10200900125455","name":"บริษัท ซียูอีแอล จำกัด","owner":"บริษัท ซียูอีแอล จำกัด","displayRegistration":"3-68-1/45ชบ","province":"ชลบุรี","district":"ศรีราชา","subdistrict":"ทุ่งสุขลา","industryType":"ทำโครงสร้างโลหะที่ใช้ในการก่อสร้างหรืออุปกรณ์สำหรับงานอุตสาหกรรมแท่นขุดเจาะน้ำมันและก๊าซ","status":"ดำเนินกิจการ","lat":13.0776666666667,"lon":100.889333333333},"20200100425455":{"id":"20200100425455","name":"บริษัท เอ็กซ์เพอร์ทีส จำกัด","owner":"บริษัท เอ็กซ์เพอร์ทีส จำกัด","displayRegistration":"จ3-70-4/45ชบ","province":"ชลบุรี","district":"เมืองชลบุรี","subdistrict":"หนองรี","industryType":"ทำกะบะและหัวเก๋ง สำหรับรถบรรทุก","status":"ดำเนินกิจการ","lat":13.35743,"lon":101.01663},"20201300125457":{"id":"20201300125457","name":"บริษัท แคสท๊อป เมทริค จำกัด","owner":"บริษัท แคสท๊อป เมทริค จำกัด","displayRegistration":"จ3-62-1/45ชบ","province":"ชลบุรี","district":"บ้านบึง","subdistrict":"หนองบอนแดง","industryType":"ผลิตเครื่องเรือน เครื่องครัว เครื่องเคหะภัณฑ์จากโลหะ และข้อต่อท่อ วาล์วเปิด-ปิดน้ำ","status":"ดำเนินกิจการ","lat":13.3725,"lon":101.15417},"20202000125458":{"id":"20202000125458","name":"บริษัท โมลด์ส ฟุรุตานิ (ไทยแลนด์) จำกัด","owner":"บริษัท โมลด์ส ฟุรุตานิ (ไทยแลนด์) จำกัด","displayRegistration":"จ3-67(7)-1/45ชบ","province":"ชลบุรี","district":"ศรีราชา","subdistrict":"หนองขาม","industryType":"ผลิตแม่พิมพ์โลหะและอุปกรณ์จับยึด","status":"ดำเนินกิจการ","lat":13.096,"lon":100.95767},"20201700125453":{"id":"20201700125453","name":"บริษัท เอ็น.เอส.แอล.แมชชีนนิ่ง จำกัด","owner":"บริษัท เอ็น.เอส.แอล. แมชชีนนิ่ง จำกัด","displayRegistration":"จ3-64(12)-1/45ชบ","province":"ชลบุรี","district":"พานทอง","subdistrict":"พานทอง","industryType":"ทำผลิตภัณฑ์โลหะ ชิ้นส่วนอุปกรณ์เครื่องจักร เช่น เครื่องรีด ตัด พับ","status":"ดำเนินกิจการ","lat":13.454,"lon":101.0875},"20202200125456":{"id":"20202200125456","name":"บริษัท ซัมวา อินดัสเตรียล (ประเทศไทย) จำกัด","owner":"บริษัท ซัมวา อินดัสเตรียล (ประเทศไทย) จำกัด","displayRegistration":"จ3-72-1/45ชบ","province":"ชลบุรี","district":"พานทอง","subdistrict":"มาบโป่ง","industryType":"ผลิตชิ้นส่วนหรืออุปกรณ์ที่ใช้กับผลิตภัณฑ์อีเล็คทรอนิกส์(ทำอุปกรณ์ติดตั้งตัวนำที่ใช้กับสายไฟฟ้า,ฟลอดหรือเครื่องประกอบสำหรับสายไฟฟ้า)","status":"ดำเนินกิจการ","lat":13.4345,"lon":101.10894},"20202100125440":{"id":"20202100125440","name":"บริษัท ชลบุรี ศรีเจริญโลหะ จำกัด","owner":"บริษัท ชลบุรี ศรีเจริญโลหะ จำกัด","displayRegistration":"จ3-64(12)-1/44ชบ","province":"ชลบุรี","district":"เมืองชลบุรี","subdistrict":"หนองไม้แดง","industryType":"การตัด พับ ม้วนโลหะ และขึ้นรูปโลหะ","status":"ดำเนินกิจการ","lat":13.4095,"lon":101.00033},"72110900125469":{"id":"72110900125469","name":"บริษัท ไทยเว็ททรอนอิเลคทรอนิคส์ จำกัด","owner":"บริษัท ไทยเว็ททรอนอิเลคทรอนิคส์ จำกัด","displayRegistration":"น.72-1/2546-ญอน.","province":"ชลบุรี","district":"เมืองชลบุรี","subdistrict":"ดอนหัวฬ่อ","industryType":"ผลิตเครื่องบังคับการเปิดปิดประตูรถยนต์ระยะไกล เครื่องสัญญาณกันรถชนและเครื่องสัญญาณกันขโมยรถยนต์","status":"ดำเนินกิจการ","lat":13.4494449596189,"lon":101.044224767417},"82111800125565":{"id":"82111800125565","name":"บริษัท ไทย โตโย อิเลคทริค จำกัด","owner":"บริษัท ไทย โตโย อิเลคทริค จำกัด","displayRegistration":"น.72-1/2556-นอน.","province":"ชลบุรี","district":"พานทอง","subdistrict":"พานทอง","industryType":"ผลิตอุปกรณ์เซ็นเซอร์ทุกชนิด แผงควบคุมทุกชนิดรวมทั้งอุปกรณ์ ชิ้นส่วนประกอบ และอะไหล่ ของสินค้าดังกล่าว","status":"ดำเนินกิจการ","lat":13.4561892161672,"lon":101.075106671359},"82110018125623":{"id":"82110018125623","name":"บริษัท แอพต้าร์ (ประเทศไทย) จำกัด","owner":"บริษัท แอพต้าร์ (ประเทศไทย) จำกัด","displayRegistration":"น.53(1)-181/2562-นอน.","province":"ชลบุรี","district":"เมืองชลบุรี","subdistrict":"หนองไม้แดง","industryType":"ผลิตชิ้นส่วนปั้ม และหัวฉีดพลาสติก หัวฉีดเครื่องกลต่างๆ ฝาปิดแบบปั้ม และฝาปิดพลาสติก(Flip top closure) รวมทั้งอะไหล่ ส่วนประกอบและอุปกรณ์ของสินค้าดังกล่าว","status":"ดำเนินกิจการ","lat":13.4315622752424,"lon":101.021327025373},"82110800125476":{"id":"82110800125476","name":"บริษัท โคเรียว (ประเทศไทย) จำกัด","owner":"บริษัท โคเรียว (ประเทศไทย) จำกัด","displayRegistration":"น.53(5)-1/2547-นอน.","province":"ชลบุรี","district":"เมืองชลบุรี","subdistrict":"ดอนหัวฬ่อ","industryType":"ผลิตผลิตภัณฑ์พลาสติก","status":"ดำเนินกิจการ","lat":13.424912118671,"lon":101.033038386545},"20200400125458":{"id":"20200400125458","name":"บ่อทองค้าไม้","owner":"นางเพชรรุ่ง กาญจนางกูรพันธุ์","displayRegistration":"จ3-34(2)-1/45ชบ","province":"ชลบุรี","district":"บ่อทอง","subdistrict":"บ่อทอง","industryType":"ทำวงกบประตูหน้าต่างจากไม้","status":"ดำเนินกิจการ","lat":13.28468,"lon":101.41806},"20200500125440":{"id":"20200500125440","name":"โพธิ์ไพบูลย์ค้าไม้","owner":"นายจิตรพิชัย สีหาพล","displayRegistration":"จ3-34(1)-1/44ชบ","province":"ชลบุรี","district":"พนัสนิคม","subdistrict":"นาเริก","industryType":"ไส ซอย และทำวงกบประตูหน้าต่างไม้","status":"ดำเนินกิจการ","lat":13.39175,"lon":101.26983},"20200800225452":{"id":"20200800225452","name":"บริษัท ชลบุรี กำไรโลหะกิจ จำกัด","owner":"บริษัท ชลบุรี กำไรโลหะกิจ จำกัด","displayRegistration":"จ3-77(2)-2/45ชบ","province":"ชลบุรี","district":"เมืองชลบุรี","subdistrict":"หนองไม้แดง","industryType":"ทำกระบะสแตนเลสสำหรับรถยนต์","status":"ดำเนินกิจการ","lat":13.4041666666667,"lon":101.003},"20200700125455":{"id":"20200700125455","name":"บริษัท วีแอล เน็ตเวอร์ค 1996 จำกัด","owner":"บริษัท วีแอล เน็ตเวอร์ค 1996 จำกัด","displayRegistration":"จ3-50(4)-1/45ชบ","province":"ชลบุรี","district":"บางละมุง","subdistrict":"หนองปลาไหล","industryType":"ผลิตแอสฟัสท์ติคคอนกรีต","status":"ดำเนินกิจการ","lat":12.978567,"lon":100.985864},"82110000425577":{"id":"82110000425577","name":"บริษัท ซัมมิทเมทัลเพลท จำกัด","owner":"บริษัท ซัมมิทเมทัลเพลท จำกัด","displayRegistration":"น.64(13)-4/2557-นอน.","province":"ชลบุรี","district":"พานทอง","subdistrict":"บ้านเก่า","industryType":"ผลิตชิ้นส่วนโลหะ (METAL PLATE)","status":"ดำเนินกิจการ","lat":13.4579502011862,"lon":101.042294078061},"72110100525419":{"id":"72110100525419","name":"บริษัท เอ็กซ์อะลอย เอเชีย (ประเทศไทย) จำกัด","owner":"บริษัท เอ็กซ์อะลอย เอเชีย (ประเทศไทย) จำกัด","displayRegistration":"น.64(13)-5/2541-ญอน.","province":"ชลบุรี","district":"เมืองชลบุรี","subdistrict":"ดอนหัวฬ่อ","industryType":"กระบอกสูบและสกรู (BARREL ASCREW)และอุปกรณ์ที่ใช้ในอุตสาหกรรมพลาสติก","status":"ดำเนินกิจการ","lat":13.4392747019061,"lon":101.039897225307},"82110100425550":{"id":"82110100425550","name":"บริษัท เควายบี สเตียริ่ง (ไทยแลนด์) จำกัด","owner":"บริษัท เควายบี สเตียริ่ง (ไทยแลนด์) จำกัด","displayRegistration":"น.77(2)-4/2555-นอน.","province":"ชลบุรี","district":"พานทอง","subdistrict":"หนองตำลึง","industryType":"ผลิตชิ้นส่วนรถยนต์","status":"ดำเนินกิจการ","lat":13.4346481424033,"lon":101.072015538581},"72060000225463":{"id":"72060000225463","name":"บริษัท ยูนิเวอร์แซล โพลีแบค จำกัด","owner":"บริษัท ยูนิเวอร์แซล โพลีแบค จำกัด","displayRegistration":"น.53(4)-2/2546-ญนฉ.","province":"ชลบุรี","district":"ศรีราชา","subdistrict":"ทุ่งสุขลา","industryType":"ผลิตถุงพลาสติก ซื้อมาขายไปผลิตภัณฑ์พลาสติก ชิ้นส่วนผลิตภัณฑ์พลาสติก เม็ดพลาสติก แม่สี หมึกพิมพ์ ตัวทำลายหมึกพิมพ์ ชิ้นส่วน อุปกรณ์และอะไหล่ของเครื่องจักร และซื้อมาขายไป ชิ้นส่วนอะไหล่ส่วนประกอบของเครื่องจักร เครื่องจักรใหม่ เช่น รถโฟล์คลิฟท์ สะพานโหลดสินค้า รถลาก เครื่องพันฟิล์ม อุปกรณ์ไฟฟ้า เครื่องจักร เครื่องปั่นไฟเครื่องจักร เครื่องตัดแผ่นพลาสติก และ บรรจุภัณฑ์ เช่น พาเลทไม้ พาเลทพลาสติก กล่องกระดาษ เทปปิดกล่อง ถังบรรจุหมึกพิมพ์ ตัวทำลายหมึกพิมพ์ เครื่องแพ็คสินค้า ผ้าใบคลุมสินค้า","status":"ดำเนินกิจการ","lat":13.0853353479541,"lon":100.90496459625},"82110800125526":{"id":"82110800125526","name":"บริษัท สยาม  ไทโย  สตีล  จำกัด","owner":"บริษัท สยาม  ไทโย  สตีล  จำกัด","displayRegistration":"น.64(12)-1/2552-นอน.","province":"ชลบุรี","district":"เมืองชลบุรี","subdistrict":"ดอนหัวฬ่อ","industryType":"ตัดและแปรรูปโลหะ  ( COIL  CENTER )  รวมทั้งการอัดแผ่นโลหะ  ( ROLLING MILL)  และจำหน่าย","status":"ดำเนินกิจการ","lat":13.4366634377672,"lon":101.050592867629},"82110600125585":{"id":"82110600125585","name":"บริษัท เรดิคอน ทรานสมิชชั่น ซิสเต็มส์ (ประเทศไทย) จำกัด","owner":"บริษัท เรดิคอน ทรานสมิชชั่น ซิสเต็มส์ (ประเทศไทย) จำกัด","displayRegistration":"น.64(13)-1/2558-นอน.","province":"ชลบุรี","district":"เมืองชลบุรี","subdistrict":"คลองตำหรุ","industryType":"ผลิตและประกอบเฟืองเกียร์ทดรอบเครื่องจักร อุปกรณ์ส่วนประกอบและชิ้นส่วน","status":"ดำเนินกิจการ","lat":13.4296925689745,"lon":101.017463571164},"82110800125591":{"id":"82110800125591","name":"บริษัท ซันจิริน เอ็กทรูชั่น (ประเทศไทย) จำกัด","owner":"บริษัท ซันจิริน เอ็กทรูชั่น (ประเทศไทย) จำกัด","displayRegistration":"น.64(13)-1/2559-นอน.","province":"ชลบุรี","district":"พานทอง","subdistrict":"หนองกะขะ","industryType":"ผลิต จำหน่าย นำเข้า ส่งออก อุปกรณ์ ชิ้นส่วนโลหะทุกชนิด ตลอดจนส่วนประกอบอื่นๆ ที่เกี่ยวข้อง","status":"ดำเนินกิจการ","lat":13.4453329646353,"lon":101.087495096253},"72450007425622":{"id":"72450007425622","name":"บริษัท หลัว ปัง คิทเช่น แอนด์ บาธ (ไทยแลนด์) จำกัด","owner":"บริษัท หลัว ปัง คิทเช่น แอนด์ บาธ (ไทยแลนด์) จำกัด","displayRegistration":"น.64(8)-74/2562-ญหส.","province":"ชลบุรี","district":"ศรีราชา","subdistrict":"เขาคันทรง","industryType":"ผลิตจำหน่ายผลิตภัณฑ์สำหรับห้องครัวห้องน้ำ, ผลิตและจำหน่ายนำเข้าและส่งออก ผลิตภัณฑ์โลหะสำหรับห้องครัวห้องน้ำ ผลิตภัณฑ์สิ่งอำนวยความสะดวกสุขาภิบาลทุกชนิดทุกประเภท","status":"ดำเนินกิจการ","lat":13.1295847001732,"lon":101.104230168605},"82420013625646":{"id":"82420013625646","name":"บริษัท เจไออีไอ (ไทยแลนด์) จำกัด","owner":"บริษัท เจไออีไอ (ไทยแลนด์) จำกัด","displayRegistration":"น.77(2)-136/2564-นปส.","province":"ชลบุรี","district":"ศรีราชา","subdistrict":"บึง","industryType":"ออกแบบ ผลิต ตรวจสอบ นำเข้า ส่งออก จำหน่ายและจัดหา จัดซื้อ ชิ้นส่วนที่ทำจากยางหรือเรซิ่นทุกชนิด เช่น ชิ้นส่วนยานยนต์ รวมทั้งวัตถุดิบ และชิ้นส่วนที่เกี่ยวข้องทุกประเภท","status":"ดำเนินกิจการ","lat":13.1169972844231,"lon":101.006782401551},"72110001425404":{"id":"72110001425404","name":"บริษัท ซูมิโตโม อีเล็คตริก ซินเตอร์ด คอมโพเน้นท์ส (ที) จำกัด","owner":"บริษัท ซูมิโตโม อีเล็คตริก ซินเตอร์ด คอมโพเน้นท์ส (ที) จำกัด","displayRegistration":"น.77(2)-14/2540-ญอน.","province":"ชลบุรี","district":"เมืองชลบุรี","subdistrict":"ดอนหัวฬ่อ","industryType":"ผลิตชิ้นส่วนรถยนต์ จักรยานยนต์ และชิ้นส่วนอิเล็กทรอนิกส์ จากผงโลหะขึ้นรูป (Sintered Metal Products)","status":"ดำเนินกิจการ","lat":13.449494721107,"lon":101.037413267417},"20200000825457":{"id":"20200000825457","name":"บริษัท แพลนเน็ท เฟอร์นิเจอร์ (ไทยแลนด์) จำกัด","owner":"บริษัท แพลนเน็ท เฟอร์นิเจอร์ (ไทยแลนด์) จำกัด","displayRegistration":"จ3-37-8/45ชบ","province":"ชลบุรี","district":"หนองใหญ่","subdistrict":"ห้างสูง","industryType":"ผลิตเฟอร์นิเจอร์จากไม้ยางพารา เช่น ตู้ โต๊ะ เก้าอี้","status":"ดำเนินกิจการ","lat":13.25515,"lon":101.33038},"10200800125456":{"id":"10200800125456","name":"บริษัท พรีเมี่ยมสตีล โพรเซสซิ่ง จำกัด","owner":"บริษัท พรีเมี่ยมสตีล โพรเซสซิ่ง จำกัด","displayRegistration":"3-64(12)-1/45ชบ","province":"ชลบุรี","district":"เมืองชลบุรี","subdistrict":"คลองตำหรุ","industryType":"ตัดเหล็กตามขนาดต่าง ๆ เพื่อจำหน่าย ผลิตและแปรรูปผลิตภัณฑ์เหล็กขนาดต่างๆ เพื่อจำหน่าย เช่น ท่อเหล็ก และท่อเหล็กแปรรูปทุกชนิด","status":"ดำเนินกิจการ","lat":13.44383,"lon":101.00867},"10200000425458":{"id":"10200000425458","name":"บริษัท ไทย เอเทค โซลูชั่น จำกัด","owner":"บริษัท ไทย เอเทค โซลูชั่น จำกัด","displayRegistration":"3-70-4/45ชบ","province":"ชลบุรี","district":"ศรีราชา","subdistrict":"บึง","industryType":"ผลิตชิ้นส่วนเครื่องใช้ไฟฟ้าและทำแม่พิมพ์","status":"ดำเนินกิจการ","lat":13.09749,"lon":100.98332},"10200000525455":{"id":"10200000525455","name":"บริษัท ซัมวอน โมลด์ (ไทยแลนด์) จำกัด","owner":"บริษัท ซัมวอน โมลด์ (ไทยแลนด์) จำกัด","displayRegistration":"3-70-5/45ชบ","province":"ชลบุรี","district":"เมืองชลบุรี","subdistrict":"หนองข้างคอก","industryType":"ผลิตชิ้นส่วนเครื่องใช้ไฟฟ้า ฯลฯ และทำแม่พิมพ์","status":"ดำเนินกิจการ","lat":13.32967,"lon":101.00533},"10200100325467":{"id":"10200100325467","name":"บริษัท เมต้าเทค จำกัด","owner":"บริษัท เมต้าเทค จำกัด","displayRegistration":"3-53(1)-3/46ชบ","province":"ชลบุรี","district":"เมืองชลบุรี","subdistrict":"สำนักบก","industryType":"ผลิตผลิตภัณฑ์จากพลาสติก เช่น ทำเครื่องใช้, เครื่องมือ,เครื่องเรือน หรือเครื่องประดับและรวมถึงชิ้นส่วนดังกล่าว และทำแม่พิมพ์โลหะ และประกอบภาชนะบรรจุจากไม้ (ดอกไม้)","status":"ดำเนินกิจการ","lat":13.38204,"lon":101.05492},"10200100125461":{"id":"10200100125461","name":"บริษัท พี.เจ.ชลบุรีพาราวู้ด จำกัด","owner":"บริษัท พี.เจ.ชลบุรีพาราวู้ด จำกัด","displayRegistration":"3-34(1)-1/46ชบ","province":"ชลบุรี","district":"บ้านบึง","subdistrict":"คลองกิ่ว","industryType":"แปรรูปไม้ยางพารา และไม้ที่ปลูกขึ้นโดยเฉพาะ 13 ชนิด อัดน้ำยาอบไม้ ทำเครื่องเรือน จากไม้","status":"ดำเนินกิจการ","lat":13.19883,"lon":101.15733},"20200400425460":{"id":"20200400425460","name":"บริษัท ชอง อิล (ไทยแลนด์) จำกัด","owner":"บริษัท ชอง อิล (ไทยแลนด์) จำกัด","displayRegistration":"จ3-70-4/46ชบ","province":"ชลบุรี","district":"ศรีราชา","subdistrict":"บึง","industryType":"ผลิตชิ้นส่วนเครื่องใช้ไฟฟ้า เช่น เครื่องซักผ้า ฯลฯ","status":"ดำเนินกิจการ","lat":13.085,"lon":101.0245},"20201600125454":{"id":"20201600125454","name":"บริษัท เซอร์วิสไทย โพรเกรส แมเนจเม็นท์ จำกัด","owner":"บริษัท เซอร์วิสไทย โพรเกรส แมเนจเม็นท์ จำกัด","displayRegistration":"จ3-64(10)-1/45ชบ","province":"ชลบุรี","district":"ศรีราชา","subdistrict":"บ่อวิน","industryType":"ขัดและผลิตชิ้นส่วนรถจักรยานยนต์","status":"ดำเนินกิจการ","lat":13.17067,"lon":100.93221},"82240000325590":{"id":"82240000325590","name":"บริษัท เจไออีไอ (ไทยแลนด์) จำกัด","owner":"บริษัท เจไออีไอ (ไทยแลนด์) จำกัด","displayRegistration":"น.77(2)-3/2559-นปท.","province":"ชลบุรี","district":"ศรีราชา","subdistrict":"หนองขาม","industryType":"ผลิต แบ่งบรรจุและตรวจสอบชิ้นส่วนยานยนต์ที่ทำจากยาง","status":"ดำเนินกิจการ","lat":13.1151789624795,"lon":101.006788954568},"72080100525422":{"id":"72080100525422","name":"บริษัท ไทเซอิ พลาส (ประเทศไทย) จำกัด","owner":"บริษัท ไทเซอิ พลาส (ประเทศไทย) จำกัด","displayRegistration":"น.77(2)-5/2542-ญหช.","province":"ชลบุรี","district":"ศรีราชา","subdistrict":"บ่อวิน","industryType":"ผลิตชิ้นส่วนอุปกรณ์รถยนต์ ชิ้นส่วนและผลิตภัณฑ์พลาสติก เช่น ข้อต่อ ข้องอ เพื่อใช้ในอุตสาหกรรมก่อสร้าง และผลิตกระแสไฟฟ้าจากระบบพลังงานแสงอาทิตย์ (โซลล่ารูฟท็อป) มีกำลังการผลิต 344.44 กิโลวัตต์ เพื่อใช้ในการประกอบกิจการ","status":"ดำเนินกิจการ","lat":13.0628287491302,"lon":101.08234294293},"82111700125517":{"id":"82111700125517","name":"บริษัท อันริทสึ อินฟิวิส (ประเทศไทย) จำกัด","owner":"บริษัท อันริทสึ อินฟิวิส (ประเทศไทย) จำกัด","displayRegistration":"น.81(1)-1/2551-นอน.","province":"ชลบุรี","district":"พานทอง","subdistrict":"พานทอง","industryType":"ผลิต พัฒนา ออกแบบ จำหน่าย นำเข้า ส่งออก และการบริการบำรุงรักษาเครื่องตรวจสอบคุณภาพอุปกรณ์เครื่องชั่งวัดน้ำหนัก การรวมระบบชิ้นส่วนที่เกี่ยวข้องในอุตสาหกรรมอาหาร ยาและสินค้าที่เกี่ยวข้อง","status":"ดำเนินกิจการ","lat":13.4486640912728,"lon":101.073733280908},"72060000125465":{"id":"72060000125465","name":"บริษัท ท็อป เบลนด์ อินเตอร์เนชั่นแนล จำกัด","owner":"บริษัท ท็อป เบลนด์ อินเตอร์เนชั่นแนล จำกัด","displayRegistration":"น.12(5)-1/2546-ญนฉ.","province":"ชลบุรี","district":"ศรีราชา","subdistrict":"ทุ่งสุขลา","industryType":"ผลิตเครื่องดื่มชนิดผง และน้ำตาลผสมเครื่องดื่มชนิดผง น้ำตาลผสมเครื่องดื่ม รสส้ม, ชา, กาแฟ, โกโก้ และน้ำตาลผสมอื่น ๆ เพื่อปรุงรส, รับผสมเครื่องดื่มชนิดผง และเครื่องปรุงรสตามสูตรที่ลูกค้ากำหนด, แบ่งบรรจุสินค้าประเภทน้ำตาลและน้ำตาลผสมเพื่อปรุงรส, ซื้อมา-ขายไปประเภทสารปรุงแต่งสี, กลิ่น, รส และบรรจุภัณฑ์ต่าง ๆ และคลังสินค้า","status":"ดำเนินกิจการ","lat":13.1183453435193,"lon":100.915000813491},"72110000425462":{"id":"72110000425462","name":"บริษัท โมเน็คส์โก้ อินเตอร์เนชั่นแนล จำกัด","owner":"บริษัท โมเน็คส์โก้ อินเตอร์เนชั่นแนล จำกัด","displayRegistration":"น.13(2)-4/2546-ญอน.","province":"ชลบุรี","district":"พานทอง","subdistrict":"บ้านเก่า","industryType":"ผลิตและรับจ้างผลิตเครื่องปรุงอาหาร ผลิตและรับจ้างผลิต บรรจุ แบ่งบรรจุ รับจ้างบรรจุ รับจ้างแบ่งบรรจุ นำเข้าและส่งออก ผลิตภัณฑ์อาหารอบแห้งประเภท พืช ผัก ผลไม้ เนื้อสัตว์ อาหารกึ่งสำเร็จรูป อาหารสำเร็จรูปพร้อมบริโภคทันที ส่วนผสมของอาหาร","status":"ดำเนินกิจการ","lat":13.4395288016192,"lon":101.011437538581},"82110008925644":{"id":"82110008925644","name":"บริษัท โออิชิ ฟู้ด เซอร์วิส จำกัด","owner":"บริษัท โออิชิ ฟู้ด เซอร์วิส จำกัด","displayRegistration":"น.13(2)-89/2564-นอน.","province":"ชลบุรี","district":"พานทอง","subdistrict":"บ้านเก่า","industryType":"ผลิตเครื่องปรุงรสอาหาร","status":"ดำเนินกิจการ","lat":13.4473538274635,"lon":101.061270338581},"72110000225433":{"id":"72110000225433","name":"บริษัท ไทย ไดโซ แอโรโซล จำกัด","owner":"บริษัท ไทย ไดโซ แอโรโซล จำกัด","displayRegistration":"น.47(3)-2/2543-ญอน.","province":"ชลบุรี","district":"เมืองชลบุรี","subdistrict":"หนองไม้แดง","industryType":"ผลิต HAIR COLOUR, HAIR SPRAY, HAIR MOUSSE, DEODORANT SPRAY, INSECT REPELLENT SPRAY, SHAVING FOAM,SKIN CARE SPRAY, AIR FRESHER, TOILET SPRAY, AUTOMOTIVE CLEANER SPRAY, OIL STAIN CLEANER และ BACTERICIDE/ FUNGICIDEและผลิตและประกอบเครื่องจักร และรับตรวจสอบสารเคมี และเชื้อต่างๆ สำหรับกลุ่มเครื่องสำอาง และรับจ้างบรรจุภัณฑ์หีบห่อ ติดสติกเกอร์ ฟิล์ม ฉลาก หุ้มฟิล์ม ผลิตภัณฑ์ทุกชนิด, ผลิตสินค้าประเภท ผลิตภัณฑ์พลาสติก ได้แก่ ขวดพลาสติกเพ็ท(PET) และขวดพลาสติกทุกชนิดรวมทั้งในรูปแบบของเม็ด แท่ง ท่อ แผ่น หลอด และรูปร่างอื่นๆ เพื่อใช้ในกิจการของบริษัท และส่งมอบให้แก่ผู้ว่าจ้าง, ผลิตสินค้าประเภทสเปรย์ฉีดเสื้อผ้าเพื่อให้ความเย็นสำหรับร่างกาย, ผลิตสินค้าประเภทสเปรย์ดับกลิ่นรองเท้า","status":"ดำเนินกิจการ","lat":13.4203200951169,"lon":101.018761796253},"10200000625461":{"id":"10200000625461","name":"บริษัท พัทยา เปเปอร์มิลล์ จำกัด","owner":"บริษัท พัทยา เปเปอร์มิลล์ จำกัด","displayRegistration":"3-105-6/46ชบ","province":"ชลบุรี","district":"บางละมุง","subdistrict":"หนองปลาไหล","industryType":"คัดแยกวัสดุที่ไม่ใช้แล้วเฉพาะที่กำหนดไว้ในหมวด 1 ข้อ 1","status":"ดำเนินกิจการ","lat":12.9821,"lon":100.94934},"10200300125469":{"id":"10200300125469","name":"บริษัท แน็ชเชอรัลรับเบอร์เธร็ด จำกัด","owner":"บริษัท แน็ชเชอรัลรับเบอร์เธร็ด จำกัด","displayRegistration":"3-52(4)-1/46ชบ","province":"ชลบุรี","district":"บ้านบึง","subdistrict":"หนองอิรุณ","industryType":"ผลิตเส้นยางยืด (RUBBER THREAD) และขอเพิ่มการประกอบกิจการผลิตพลังงานแสงอาทิตย์ที่ติดตั้งบนหลังคา ขนาด 2 เมกะวัตต์ เพื่อใช้ภายในโรงงาน","status":"ดำเนินกิจการ","lat":13.30383,"lon":101.26296},"20203000125464":{"id":"20203000125464","name":"ห้างหุ้นส่วนจำกัด ชลบุรี เฮงกลการ","owner":"ห้างหุ้นส่วนจำกัด ชลบุรี เฮงกลการ","displayRegistration":"จ3-64(13)-1/46ชบ","province":"ชลบุรี","district":"เมืองชลบุรี","subdistrict":"บ้านสวน","industryType":"กลึง ไส เชื่อมโลหะ","status":"ดำเนินกิจการ","lat":13.34815,"lon":101.01463},"72110000625400":{"id":"72110000625400","name":"บริษัท หมิงไท่ อินดัสเตรียล (ประเทศไทย) จำกัด","owner":"บริษัท หมิงไท่ อินดัสเตรียล (ประเทศไทย) จำกัด","displayRegistration":"น.64(2)-6/2540-ญอน.","province":"ชลบุรี","district":"เมืองชลบุรี","subdistrict":"หนองไม้แดง","industryType":"ขึ้นรูปผลิตภัณฑ์เหล็กและโลหะอื่น","status":"ดำเนินกิจการ","lat":13.429493377494,"lon":101.01924293858},"10200000225452":{"id":"10200000225452","name":"บริษัท วัฒนากิจพาราเจริญทรัพย์ จำกัด","owner":"บริษัท วัฒนากิจพาราเจริญทรัพย์ จำกัด","displayRegistration":"3-34(1)-2/45ชบ","province":"ชลบุรี","district":"พานทอง","subdistrict":"มาบโป่ง","industryType":"แปรรูปไม้ยางพาราและไม้ที่ปลูกขึ้นโดยเฉพาะ 13 ชนิด อบ อัดน้ำยาไม้ ทำพาเลทไม้","status":"ดำเนินกิจการ","lat":13.42677,"lon":101.12048},"10200100225477":{"id":"10200100225477","name":"บริษัท ฮิไรเซมิสึ (ประเทศไทย) จำกัด","owner":"บริษัท ฮิไรเซมิสึ (ประเทศไทย) จำกัด","displayRegistration":"3-53(5)-2/47ชบ","province":"ชลบุรี","district":"ศรีราชา","subdistrict":"หนองขาม","industryType":"ผลิตชิ้นส่วนพลาสติกหรือเคลือบด้วยพลาสติก","status":"ดำเนินกิจการ","lat":13.09367,"lon":100.9615},"20200000725459":{"id":"20200000725459","name":"บริษัท เด็คส์เตอร์ อินดัสทรี จำกัด","owner":"บริษัท เด็คส์เตอร์ อินดัสทรี จำกัด","displayRegistration":"จ3-37-7/45ชบ","province":"ชลบุรี","district":"บ้านบึง","subdistrict":"บ้านบึง","industryType":"ทำเครื่องเรือนจากไม้","status":"ดำเนินกิจการ","lat":13.29317,"lon":101.125},"72060000325446":{"id":"72060000325446","name":"บริษัท โฟมเทค อินเตอร์เนชั่นแนล จำกัด","owner":"บริษัท โฟมเทค อินเตอร์เนชั่นแนล จำกัด","displayRegistration":"น.53(5)-3/2544-ญนฉ.","province":"ชลบุรี","district":"ศรีราชา","subdistrict":"ทุ่งสุขลา","industryType":"ผลิตโฟม โพลียูริเทน ผลิตภัณฑ์แปรรูปที่ทำจากโฟม พลาสติก ฟิล์ม ฟอยส์ รวมถึงอะไหล่ชิ้นส่วนอุปกรณ์ และผลิตภัณฑ์กึ่งสำเร็จรูปที่เกี่ยวข้องกับการใช้โฟม วัตถุดิบที่ใช้ในการผลิตโฟม ได้แก่ สารพอลิออล ไอโซไซยาเนต ตัวเร่งปฏิกิริยา สารช่วยทำให้เสถียร สารเติมแต่ง รวมถึงการซื้อมาขายไปผลิตภัณฑ์โฟม และผลิตภัณฑ์ดังกล่าวข้างต้นทั้งหมด และซื้อมา-ขายไปอุปกรณ์ ชิ้นส่วนและผลิตภัณฑ์ที่เกี่ยวข้องกับอิเล็กทรอนิกส์ อิเล็กทริก ออโตโมทีฟ และผลิตอุปกรณ์ชิ้นส่วนและผลิตภัณฑ์ที่เกี่ยวข้องกับคลีนรูม, ผลิตภัณฑ์ทางการแพทย์,ผลิตพลังงานไฟฟ้าจากพลังงานแสงอาทิตย์แบบติดตั้งบนหลังคา กำลังการผลิต 409.59 กิโลวัตต์ เพื่อใช้ในโรงงานเท่านั้น","status":"ดำเนินกิจการ","lat":13.0776019542086,"lon":100.902197667413},"72110300125408":{"id":"72110300125408","name":"บริษัท อมตะ บี.กริม เพาเวอร์ 1 จำกัด","owner":"บริษัท อมตะ บี.กริม เพาเวอร์ 1 จำกัด","displayRegistration":"น.88(2)-1/2540-ญอน.","province":"ชลบุรี","district":"เมืองชลบุรี","subdistrict":"หนองไม้แดง","industryType":"ผลิตพลังงานไฟฟ้า ไอน้ำ และน้ำเพื่อการอุตสาหกรรม","status":"ดำเนินกิจการ","lat":13.4307354061622,"lon":101.026025373349},"82110017725621":{"id":"82110017725621","name":"บริษัท เมาน์เทน ท็อป (ประเทศไทย) จำกัด","owner":"บริษัท เมาน์เทน ท็อป (ประเทศไทย) จำกัด","displayRegistration":"น.77(2)-177/2562-นอน.","province":"ชลบุรี","district":"พานทอง","subdistrict":"หนองกะขะ","industryType":"ผลิต ประกอบ ซ่อมแซม อุปกรณ์เสริมรถกระบะ","status":"ดำเนินกิจการ","lat":13.4432240625493,"lon":101.099187396253},"10200700125465":{"id":"10200700125465","name":"บริษัท ยูนิค ซี โปรดักส์ จำกัด","owner":"บริษัท ยูนิค ซี โปรดักส์ จำกัด","displayRegistration":"3-86-1/46ชบ","province":"ชลบุรี","district":"ศรีราชา","subdistrict":"บ่อวิน","industryType":"ผลิตอุปกรณ์และชิ้นส่วนอุปกรณ์กีฬาทางน้ำ เช่น หน้ากากดำน้ำ ตีนกบ แว่นตาดำน้ำ และท่อดำน้ำ","status":"ดำเนินกิจการ","lat":13.05683,"lon":101.05117},"82110000625556":{"id":"82110000625556","name":"บริษัท โตโยกซ์ เอเชีย (ไทยแลนด์) จำกัด","owner":"บริษัท โตโยกซ์ เอเชีย (ไทยแลนด์) จำกัด","displayRegistration":"น.53(5)-6/2555-นอน.","province":"ชลบุรี","district":"เมืองชลบุรี","subdistrict":"ดอนหัวฬ่อ","industryType":"ผลิตท่อพลาสติก ทุกชนิดทุกประเภท","status":"ดำเนินกิจการ","lat":13.4551165665856,"lon":101.044066527695},"20200200125468":{"id":"20200200125468","name":"บริษัท แบล็ค ไลอ้อน (ไทยแลนด์) จำกัด","owner":"บริษัท แบล็ค ไลอ้อน (ไทยแลนด์) จำกัด","displayRegistration":"จ3-4(3)-1/46ชบ","province":"ชลบุรี","district":"เมืองชลบุรี","subdistrict":"บ้านสวน","industryType":"ทำผลิตภัณฑ์อาหารและบรรจุเนื้อสัตว์สำเร็จรูปในภาชนะ","status":"ดำเนินกิจการ","lat":13.34342,"lon":101.00279},"20202200125464":{"id":"20202200125464","name":"บริษัท ริมแพ็ค พลาสติก (ประเทศไทย) จำกัด","owner":"บริษัท ริมแพ็ค พลาสติก (ประเทศไทย) จำกัด","displayRegistration":"จ3-53(4)-1/46ชบ","province":"ชลบุรี","district":"ศรีราชา","subdistrict":"บางพระ","industryType":"ผลิตถุงพลาสติก","status":"หยุดชั่วคราว","lat":13.22793,"lon":101.02027},"72110700125388":{"id":"72110700125388","name":"บริษัท โคเบียว (ไทยแลนด์) จำกัด","owner":"บริษัท โคเบียว (ไทยแลนด์) จำกัด","displayRegistration":"น.72-1/2538-ญอน.","province":"ชลบุรี","district":"พานทอง","subdistrict":"บ้านเก่า","industryType":"บรรจุผลิตภัณฑ์ของบริษัทโคเบียว(ไทยแลนด์) จำกัด","status":"ดำเนินกิจการ","lat":13.4478790574793,"lon":101.015130867417},"72110100325562":{"id":"72110100325562","name":"บริษัท โฮริคาวะ รับเบอร์ (ประเทศไทย) จำกัด","owner":"บริษัท โฮริคาวะ รับเบอร์ (ประเทศไทย) จำกัด","displayRegistration":"น.52(4)-3/2556-ญอน.","province":"ชลบุรี","district":"พานทอง","subdistrict":"หนองกะขะ","industryType":"ผลิตผลิตภัณฑ์ยาง","status":"ดำเนินกิจการ","lat":13.4394617992775,"lon":101.102125655817},"10200600125466":{"id":"10200600125466","name":"บริษัท มิตซูมิ (ไทยแลนด์) จำกัด","owner":"บริษัท มิตซูมิ (ไทยแลนด์) จำกัด","displayRegistration":"3-72-1/46ชบ","province":"ชลบุรี","district":"บ้านบึง","subdistrict":"หนองชาก","industryType":"ประกอบชุดปรับคลื่นความถี่และความดังเสียงของโทรทัศน์และวีดีโอ","status":"ดำเนินกิจการ","lat":13.28367,"lon":101.1795},"20201000125468":{"id":"20201000125468","name":"บริษัท กนกเฟอร์นิเจอร์ แอนด์ เดคคอเรชั่น จำกัด","owner":"บริษัท กนกเฟอร์นิเจอร์ แอนด์ เดคคอเรชั่น จำกัด","displayRegistration":"จ3-32(1)-1/46ชบ","province":"ชลบุรี","district":"บางละมุง","subdistrict":"เขาไม้แก้ว","industryType":"ผลิต ซ่อม ประกอบ ทำเครื่องเรือนจากหนังหรือหนังเทียม","status":"ดำเนินกิจการ","lat":12.95667,"lon":101.049},"20200600225462":{"id":"20200600225462","name":"ห้างหุ้นส่วนจำกัด บางละมุงคอนกรีต","owner":"ห้างหุ้นส่วนจำกัด บางละมุงคอนกรีต","displayRegistration":"จ3-58(1)-2/46ชบ","province":"ชลบุรี","district":"บางละมุง","subdistrict":"ตะเคียนเตี้ย","industryType":"ผลิตเสาไฟฟ้าคอนกรีตอัดแรง เสาเข็มคอนกรีตอัดแรงและผลิตภัณฑ์คอนกรีตอื่นๆ","status":"ดำเนินกิจการ","lat":13.02726,"lon":100.97714},"20203900125465":{"id":"20203900125465","name":"บริษัท ไทยยนต์ชลบุรี ผู้จำหน่ายโตโยต้า จำกัด สาขาพัทยา","owner":"บริษัท ไทยยนต์ชลบุรี ผู้จำหน่ายโตโยต้า จำกัด","displayRegistration":"จ3-95(1)-1/46ชบ","province":"ชลบุรี","district":"บางละมุง","subdistrict":"นาเกลือ","industryType":"เคาะพ่นสีรถยนต์","status":"ดำเนินกิจการ","lat":12.97748,"lon":100.91603},"20202100125465":{"id":"20202100125465","name":"บริษัท ไทย วอน จำกัด","owner":"บริษัท ไทย วอน จำกัด","displayRegistration":"จ3-53(1)-1/46ชบ","province":"ชลบุรี","district":"ศรีราชา","subdistrict":"หนองขาม","industryType":"ผลิตชิ้นส่วนพลาสติก สำหรับเครื่องใช้ไฟฟ้าและอีเล็คทรอนิคส์","status":"ดำเนินกิจการ","lat":13.107204,"lon":101.010712},"20200100625443":{"id":"20200100625443","name":"วี เอส แมชชีน","owner":"นายวีรศักดิ์ เขื่อนสุริยะ","displayRegistration":"จ3-64(13)-6/44ชบ","province":"ชลบุรี","district":"เมืองชลบุรี","subdistrict":"บ้านสวน","industryType":"รับกลึงโลหะทั่วไป","status":"ดำเนินกิจการ","lat":13.3616,"lon":100.99602},"20201400125456":{"id":"20201400125456","name":"บริษัท นิกโก้ นิลโกศล จำกัด","owner":"บริษัท นิกโก้ นิลโกศล จำกัด","displayRegistration":"จ3-64(1)-1/45ชบ","province":"ชลบุรี","district":"เมืองชลบุรี","subdistrict":"คลองตำหรุ","industryType":"ประกอบเครื่องกำเนิดไอน้ำ และอุปกรณ์ต่าง ๆ ที่ใช้ในอุตสาหกรรมรับจ้างผลิตเพื่อการส่งออกชิ้นส่วนรถตัก รับจ้างผลิตถัง,ท่อ,ชิ้นส่วนเครื่องจักร,โครงสร้างเหล็ก","status":"ดำเนินกิจการ","lat":13.44133,"lon":101.00067},"10200200325466":{"id":"10200200325466","name":"ห้างหุ้นส่วนจำกัด เอส.เอส.เค พาร์เลส แอนด์ แพคกิ้ง","owner":"ห้างหุ้นส่วนจำกัด เอส.เอส.เค พาร์เลส แอนด์ แพคกิ้ง","displayRegistration":"3-105-3/46ชบ","province":"ชลบุรี","district":"พนัสนิคม","subdistrict":"หมอนนาง","industryType":"คัดแยกเศษวัสดุโดยไม่ฝังกลบ","status":"ดำเนินกิจการ","lat":13.41874,"lon":101.21287},"82110500125602":{"id":"82110500125602","name":"บริษัท อมากาซากิ  ไพพ  (ประเทศไทย)  จำกัด","owner":"บริษัท อมากาซากิ  ไพพ  (ประเทศไทย)  จำกัด","displayRegistration":"น.63(5)-1/2560-นอน.","province":"ชลบุรี","district":"พานทอง","subdistrict":"บ้านเก่า","industryType":"ผลิตท่อและข้อต่อทองแดงใช้กับเครื่องปรับอากาศ","status":"ดำเนินกิจการ","lat":13.4379932018581,"lon":101.01606406007},"20201200125417":{"id":"20201200125417","name":"บริษัท โฟร์ซันส์ อีสเทิร์น สตีล จำกัด","owner":"บริษัท โฟร์ซันส์ อีสเทิร์น สตีล จำกัด","displayRegistration":"จ3-64(11)-1/41ชบ","province":"ชลบุรี","district":"บ้านบึง","subdistrict":"บ้านบึง","industryType":"อัดเศษกระดาษ,เศษเหล็ก","status":"ดำเนินกิจการ","lat":13.32799,"lon":101.14194},"10200000825467":{"id":"10200000825467","name":"แฮนด์ลิตา เอ็นจิเนียริ่ง","owner":"นางพรใจ จิตตชโลธร","displayRegistration":"3-105-8/46ชบ","province":"ชลบุรี","district":"บ้านบึง","subdistrict":"คลองกิ่ว","industryType":"คัดแยกเศษวัสดุที่ไม่ใช้แล้ว","status":"หยุดชั่วคราว","lat":13.23004,"lon":101.11701},"82110000225522":{"id":"82110000225522","name":"บริษัท สยาม คีปเปอร์ แมนูแฟคเจอริ่ง จำกัด","owner":"บริษัท สยาม คีปเปอร์ แมนูแฟคเจอริ่ง จำกัด","displayRegistration":"น.52(4)-2/2552-นอน.","province":"ชลบุรี","district":"พานทอง","subdistrict":"หนองกะขะ","industryType":"ผลิตและจำหน่ายชิ้นส่วน และอุปกรณ์ที่ทำจากยาง, ผลิตกระแสไฟฟ้าจากพลังงานแสงอาทิตย์ กำลังการผลิต 325.60 กิโลวัตต์ เพื่อใช้ในโรงงาน","status":"ดำเนินกิจการ","lat":13.4400798710416,"lon":101.093263409744},"82110100425543":{"id":"82110100425543","name":"บริษัท โฟมเทค อินเตอร์เนชั่นแนล จำกัด","owner":"บริษัท โฟมเทค อินเตอร์เนชั่นแนล จำกัด","displayRegistration":"น.53(5)-4/2554-นอน.","province":"ชลบุรี","district":"เมืองชลบุรี","subdistrict":"หนองไม้แดง","industryType":"แปรรูปโฟม สำหรับผลิตภัณฑ์อิเล็กทรอนิคส์ อิเลคทริค ออโตโมทีฟ และอื่นๆ, ผลิตชิ้นส่วนพลาสติก โฟม และยางสังเคราะห์ สำหรับอุตสาหกรรมต่างๆ ( PLASTIC, FOAM AND RUBBER PARTS)","status":"ดำเนินกิจการ","lat":13.0950851606112,"lon":100.902895047387},"82110100225570":{"id":"82110100225570","name":"บริษัท เอเอ็มซี เอเชีย จำกัด","owner":"บริษัท เอเอ็มซี เอเชีย จำกัด","displayRegistration":"น.41(2)-2/2557-นอน.","province":"ชลบุรี","district":"พานทอง","subdistrict":"บ้านเก่า","industryType":"ผลิตผลิตภัณฑ์โลหะ ชิ้นส่วนโลหะ และแม่พิมพ์โลหะ เพื่อขาย จำหน่าย ส่งออก และว่าจ้างทำผลิตภัณฑ์โลหะ ชิ้นส่วนโลหะ, ผลิตชิ้นส่วนอุปกรณ์จับยึด ซ่อมแซมแม่พิมพ์ ชิ้นส่วนแม่พิมพ์ ชิ้นส่วนอุปกรณ์จับยึด","status":"ดำเนินกิจการ","lat":13.4352172417345,"lon":101.02269883858},"10200000925465":{"id":"10200000925465","name":"บริษัท จี เอส อีเลคทรอนิคส์ เมทัล จำกัด","owner":"บริษัท จีเอส อีเลคทรอนิคส์ เมทัล จำกัด","displayRegistration":"3-105-9/46ชบ","province":"ชลบุรี","district":"บ้านบึง","subdistrict":"หนองอิรุณ","industryType":"คัดแยกวัสดุที่ไม่ใช้แล้ว เฉพาะที่กำหนดไว้ในหมวด 1 ข้อ 1 ของภาคผนวกที่ 1 บัญชีสิ่งปฏิกูลหรือวัสดุที่ไม่ใช้แล้วท้ายประกาศกระทรวงอุตสาหกรรมฉบับที่ 1 (พ.ศ.2541)","status":"ดำเนินกิจการ","lat":13.31697,"lon":101.20902},"10200100625460":{"id":"10200100625460","name":"ห้างหุ้นส่วนจำกัด ศุภวัฒน์ โลหะกาญณ์","owner":"ห้างหุ้นส่วนจำกัด ศุภวัฒน์ โลหะกาญณ์","displayRegistration":"3-106-6/46ชบ","province":"ชลบุรี","district":"บ่อทอง","subdistrict":"บ่อกวางทอง","industryType":"ซ่อมและพ่นสีถังโลหะที่ผ่านการใช้งานแล้ว","status":"ดำเนินกิจการ","lat":13.3282,"lon":101.30811},"10200001025463":{"id":"10200001025463","name":"บริษัท เอส.วี.ซี.เอ็นจิเนียริ่ง แอนด์ เซอร์วิส จำกัด","owner":"บริษัท เอส.วี.ซี.เอ็นจิเนียริ่งแอนด์เซอร์วิส จำกัด","displayRegistration":"3-105-10/46ชบ","province":"ชลบุรี","district":"ศรีราชา","subdistrict":"สุรศักดิ์","industryType":"คัดแยกวัสดุไม่ใช้แล้ว ตามที่กำหนดไว้ในหมวด 1 ข้อ 1 ของภาคผนวกที่ 1 บัญชีสิ่งปฏิกูลหรือวัสดุที่ไม่ใช้แล้วท้ายประกาศกระทรวงอุตสาหกรรม ฉบับที่ 1 (พ.ศ.2541)","status":"ดำเนินกิจการ","lat":13.15605,"lon":100.98826},"72110000725408":{"id":"72110000725408","name":"บริษัท ไทย นิปปอน เซอิกิ จำกัด","owner":"บริษัท ไทย นิปปอน เซอิกิ จำกัด","displayRegistration":"น.77(2)-7/2540-ญอน.","province":"ชลบุรี","district":"เมืองชลบุรี","subdistrict":"ดอนหัวฬ่อ","industryType":"1. ผลิตชิ้นส่วน อุปกรณ์ อะไหล่ และประกอบมาตรวัดสำหรับรถยนต์ และรถจักรยานยนต์เครื่องมือเครื่องจักรทางด้านการก่อสร้าง และด้านการเกษตร และผลิตแผงวงจรไฟฟ้า (Print Circuit Board) สำหรับมาตรวัด2. ผลิตรีโมทคอนโทรล, แผงควบคุมเครื่องถ่ายเอกสาร, บริการด้านการผลิตอุปกรณ์อิเล็กทรอนิกส์ (EMS)","status":"ดำเนินกิจการ","lat":13.4416924341221,"lon":101.040295467417},"20202600125460":{"id":"20202600125460","name":"บริษัท กั๋วหลิน (ไทยแลนด์) จำกัด","owner":"บริษัท กั๋วหลิน (ไทยแลนด์) จำกัด","displayRegistration":"จ3-64(6)-1/46ชบ","province":"ชลบุรี","district":"พานทอง","subdistrict":"บ้านเก่า","industryType":"ทำผลิตภัณฑ์โลหะ เช่น ตะปูควง","status":"ดำเนินกิจการ","lat":13.43946,"lon":101.02136},"72370100725555":{"id":"72370100725555","name":"บริษัท คูโบต้า  พรีซิชั่น แมชชีนเนอรี่ (ประเทศไทย) จำกัด","owner":"บริษัท คูโบต้า  พรีซิชั่น แมชชีนเนอรี่ (ประเทศไทย) จำกัด","displayRegistration":"น.70-7/2555-ญปค.","province":"ชลบุรี","district":"ศรีราชา","subdistrict":"บ่อวิน","industryType":"ผลิต ประกอบ ซื้อมาขายไป นำเข้า ส่งออก กระบอกไฮโดรลิกแบบจุดยึด 3 จุด สำหรับรถแทรกเตอร์หรือส่วนประกอบอื่นๆ ของเครื่องจักรไฮโดรลิก","status":"ดำเนินกิจการ","lat":13.0926087895096,"lon":101.058602810932},"20200100325465":{"id":"20200100325465","name":"ร้าน ป.ธีรกรณ์ค้าไม้ สาขา 1","owner":"นายปราโมทย์ รัตนนิตย์","displayRegistration":"จ3-34(2)-3/46ชบ","province":"ชลบุรี","district":"เมืองชลบุรี","subdistrict":"เสม็ด","industryType":"ทำวงกบ บานประตู บานหน้าต่างจากไม้","status":"ดำเนินกิจการ","lat":13.33267,"lon":100.96917},"91050000125463":{"id":"91050000125463","name":"บริษัท รวมทิพย์ รีเทค จำกัด","owner":"บริษัท รวมทิพย์ รีเทค จำกัด","displayRegistration":"ข3-53(5)-1/46ชบ","province":"ชลบุรี","district":"พานทอง","subdistrict":"พานทอง","industryType":"ทำเม็ดพลาสติก","status":"ดำเนินกิจการ","lat":13.45933,"lon":101.07783},"10200300325465":{"id":"10200300325465","name":"บริษัท รักษาสิ่งแวดล้อมและรีไซเคิล จำกัด","owner":"บริษัท รักษาสิ่งแวดล้อมและรีไซเคิล จำกัด","displayRegistration":"3-106-3/46ชบ","province":"ชลบุรี","district":"บ้านบึง","subdistrict":"คลองกิ่ว","industryType":"นำน้ำมันที่ใช้แล้ว (Used Oil) มาผลิตเป็นน้ำมันทาไม้แบบ","status":"ดำเนินกิจการ","lat":13.1418,"lon":101.16271},"20202900125467":{"id":"20202900125467","name":"บริษัท สุวรรณรุ่งเรืองกรุ๊ป จำกัด","owner":"บริษัท สุวรรณรุ่งเรืองกรุ๊ป จำกัด","displayRegistration":"จ3-64(12)-1/46ชบ","province":"ชลบุรี","district":"ศรีราชา","subdistrict":"บึง","industryType":"ตัด พับ หรือรีดเหล็กและอัดเศษโลหะ คัดแยกวัสดุที่ไม่ใช้แล้ว เฉพาะที่กำหนดในหมวด 1 ข้อ 1 ของภาคผนวกที่ 1 บัญชีสิ่งปฏิกูลหรือวัสดุที่ไม่ใช้แล้ว ท้ายประกาศกระทรวงอุตสาหกรรม ฉบับที่ 1 (พ.ศ.2541)","status":"ดำเนินกิจการ","lat":13.06717,"lon":100.998},"20200200525469":{"id":"20200200525469","name":"บริษัท ศรีสหะเวิร์คช็อป จำกัด","owner":"บริษัท ศรีสหะเวิร์คช็อป จำกัด","displayRegistration":"จ3-64(13)-5/46ชบ","province":"ชลบุรี","district":"ศรีราชา","subdistrict":"ศรีราชา","industryType":"กลึงและเชื่อมโลหะทั่วไป","status":"ดำเนินกิจการ","lat":13.16617,"lon":100.93133},"20200200125435":{"id":"20200200125435","name":"บริษัท ยู ไอ พี จำกัด","owner":"บริษัท ยู ไอ พี จำกัด","displayRegistration":"จ3-24-1/43ชบ","province":"ชลบุรี","district":"เมืองชลบุรี","subdistrict":"คลองตำหรุ","industryType":"ทำถุงมือจากผ้าและอื่นๆ","status":"ดำเนินกิจการ","lat":13.421458,"lon":101.000967},"20203300125461":{"id":"20203300125461","name":"บริษัท โคโทบูกิ เทค (ไทยแลนด์) จำกัด","owner":"บริษัท โคโทบูกิ เทค (ไทยแลนด์) จำกัด","displayRegistration":"จ3-67(7)-1/46ชบ","province":"ชลบุรี","district":"บ้านบึง","subdistrict":"หนองซ้ำซาก","industryType":"รับซ่อมแม่พิมพ์","status":"ดำเนินกิจการ","lat":13.34545,"lon":101.06375},"20203600125468":{"id":"20203600125468","name":"บริษัท ชินเซ โคเงียว (ไทยแลนด์) จำกัด","owner":"บริษัท ชินเซ โคเงียว (ไทยแลนด์) จำกัด","displayRegistration":"จ3-77(2)-1/46ชบ","province":"ชลบุรี","district":"พานทอง","subdistrict":"มาบโป่ง","industryType":"ทำชิ้นส่วนไดนาโม และชิ้นส่วนเครื่องปรับอากาศ","status":"ดำเนินกิจการ","lat":13.44831,"lon":101.10134},"10200400125153":{"id":"10200400125153","name":"โรงงานดินเผาทองเจริญพานทอง","owner":"นางสุกัลยา เนติวิเชียร","displayRegistration":"3-56-1/15ชบ","province":"ชลบุรี","district":"พานทอง","subdistrict":"มาบโป่ง","industryType":"ผลิตอิฐกระเบื้องเคลือบ","status":"ดำเนินกิจการ","lat":13.45407,"lon":101.09855},"20200000225468":{"id":"20200000225468","name":"บริษัท ยู่สูงอุตสาหกรรม จำกัด","owner":"บริษัท ยู่สูงอุตสาหกรรม จำกัด","displayRegistration":"จ3-14-2/46ชบ","province":"ชลบุรี","district":"บ่อทอง","subdistrict":"ธาตุทอง","industryType":"ทำน้ำแข็ง กำลังการผลิต 370,000 ซองต่อปี","status":"ดำเนินกิจการ","lat":13.30698,"lon":101.34386},"20201900125469":{"id":"20201900125469","name":"บุญลือการยาง","owner":"นายบุญลือ ชนะสัตรู","displayRegistration":"จ3-51-1/46ชบ","province":"ชลบุรี","district":"ศรีราชา","subdistrict":"บางพระ","industryType":"อัดดอกยางรถยนต์ด้วยไฟฟ้า","status":"ดำเนินกิจการ","lat":13.20299,"lon":100.93801},"20200800125454":{"id":"20200800125454","name":"บริษัท กิจการยางชลบุรี จำกัด","owner":"บริษัท กิจการยางชลบุรี จำกัด","displayRegistration":"จ3-51-1/45ชบ","province":"ชลบุรี","district":"เมืองชลบุรี","subdistrict":"ดอนหัวฬ่อ","industryType":"หล่อดอกยางรถยนต์","status":"ดำเนินกิจการ","lat":13.40686,"lon":101.05383},"20200100525478":{"id":"20200100525478","name":"บริษัท เล-ซี-บอย (ประเทศไทย) จำกัด","owner":"บริษัท เล-ซี-บอย (ประเทศไทย) จำกัด","displayRegistration":"จ3-37-5/47ชบ","province":"ชลบุรี","district":"บ้านบึง","subdistrict":"หนองบอนแดง","industryType":"ผลิต จัดจำหน่ายและขายเครื่อง เคหะภัณฑ์ เครื่องเรือน เฟอร์นิเจอร์ รวมทั้งอะไหล่และอุปกรณ์ของสินค้าดังกล่าว และเครื่องตกแต่งภายในอาคารทำจากไม้และหนัง","status":"ดำเนินกิจการ","lat":13.36033,"lon":101.1965},"20202800125468":{"id":"20202800125468","name":"ล.สยามโครเมี่ยม","owner":"นายวินัย บรรยงคนันท์","displayRegistration":"จ3-64(10)-1/46ชบ","province":"ชลบุรี","district":"เมืองชลบุรี","subdistrict":"นาป่า","industryType":"ชุบโลหะ","status":"ดำเนินกิจการ","lat":13.38048,"lon":101.02092},"20200000325466":{"id":"20200000325466","name":"ร้าน ป.ธีรกรณ์ค้าไม้","owner":"นายปราโมทย์ รัตนนิตย์","displayRegistration":"จ3-34(1)-3/46ชบ","province":"ชลบุรี","district":"เมืองชลบุรี","subdistrict":"ห้วยกะปิ","industryType":"ไส ซอยไม้แปรรูป","status":"ดำเนินกิจการ","lat":13.33267,"lon":100.96917},"20202700125469":{"id":"20202700125469","name":"บริษัท เซิ่งไท่ บราซแวร์ (ประเทศไทย) จำกัด","owner":"บริษัท เซิ่งไท่ บราซแวร์ (ประเทศไทย) จำกัด","displayRegistration":"จ3-64(8)-1/46ชบ","province":"ชลบุรี","district":"เกาะจันทร์","subdistrict":"ท่าบุญมี","industryType":"ผลิตผลิตภัณฑ์จากโลหะ (ซิงส์) สำหรับใช้ในการต่อท่อและส่วนประกอบเครื่องสุขภัณฑ์","status":"ดำเนินกิจการ","lat":13.38461,"lon":101.3042},"20200300125459":{"id":"20200300125459","name":"โชคชัยน้ำแข็งหลอด","owner":"นายประเวศ จิตต์แย้ม","displayRegistration":"จ3-14-1/45ชบ","province":"ชลบุรี","district":"ศรีราชา","subdistrict":"สุรศักดิ์","industryType":"ทำน้ำแข็งก้อนเล็ก","status":"ดำเนินกิจการ","lat":13.151,"lon":100.91717},