{"20110001625592":{"id":"20110001625592","name":"-","owner":"นางสมคิด เอี่ยมภิรมย์","displayRegistration":"จ3-64(13)-16/59สป","province":"สมุทรปราการ","district":"พระสมุทรเจดีย์","subdistrict":"ในคลองบางปลากด","industryType":"กลึง เจาะ กัด ไส เจียน หรือเชื่อมโลหะทั่วไป และทำชิ้นส่วนแม่พิมพ์โลหะ","status":"ดำเนินกิจการ","lat":13.603355,"lon":100.540314},"10110006825512":{"id":"10110006825512","name":"บริษัท ยู.ที. จำกัด","owner":"บริษัท ยู.ที. จำกัด","displayRegistration":"3-53(1)-68/51สป","province":"สมุทรปราการ","district":"พระสมุทรเจดีย์","subdistrict":"บ้านคลองสวน","industryType":"ทำผลิตภัณฑ์พลาสติก เช่น กระปุก ตลับครีม ฯลฯ","status":"ดำเนินกิจการ","lat":13.589054,"lon":100.462296},"00110000125366":{"id":"00110000125366","name":"บริษัท จี เอฟ ฟูดส์ จำกัด","owner":"บริษัท จี เอฟ ฟูดส์ จำกัด","displayRegistration":"ศ3-4(3)-1/36สป","province":"สมุทรปราการ","district":"บางเสาธง","subdistrict":"บางเสาธง","industryType":"ทำผลิตภัณฑ์อาหารสำเร็จรูปจากเนื้อสัตว์ เช่น ไส้กรอก แฮม เบคอ","status":"ดำเนินกิจการ","lat":13.5917166666667,"lon":100.774},"20110400425388":{"id":"20110400425388","name":"บริษัท เพาเดอร์พลัส จำกัด","owner":"บริษัท เพาเดอร์พลัส จำกัด","displayRegistration":"จ3-45(1)-4/38สป","province":"สมุทรปราการ","district":"พระประแดง","subdistrict":"สำโรงใต้","industryType":"ผลิต,ผสมสีผงสำหรับเคลือบโลหะ","status":"ดำเนินกิจการ","lat":13.642285,"lon":100.583979},"20112300125373":{"id":"20112300125373","name":"ห้างหุ้นส่วนจำกัด ไทยแสงฮวด","owner":"ห้างหุ้นส่วนจำกัด ไทยแสงฮวด","displayRegistration":"จ3-63(1)-1/37สป","province":"สมุทรปราการ","district":"บางบ่อ","subdistrict":"บางบ่อ","industryType":"ทำถังบรรจุน้ำ (แท้งค์น้ำ)","status":"ดำเนินกิจการ","lat":13.6111166666667,"lon":100.860766666667},"20110100125361":{"id":"20110100125361","name":"บริษัท พี.เอส.ฟู้ดโปรดักส์ จำกัด","owner":"บริษัท พี.เอส.ฟู้ดโปรดักส์ จำกัด","displayRegistration":"จ3-4(1)-1/36สป","province":"สมุทรปราการ","district":"เมืองสมุทรปราการ","subdistrict":"ท้ายบ้าน","industryType":"ฆ่าสัตว์ เช่น สุกร ทำอาหารสำเร็จรูปจากเนื้อสุกร เช่น หมูหยอง กุนเชียง","status":"ดำเนินกิจการ","lat":13.55465,"lon":100.622316666667},"20110100125403":{"id":"20110100125403","name":"บริษัท สุวรรณภูมิ ฟู้ด จำกัด","owner":"บริษัท สุวรรณภูมิ ฟู้ด จำกัด","displayRegistration":"จ3-4(3)-1/40สป","province":"สมุทรปราการ","district":"บางพลี","subdistrict":"ราชาเทวะ","industryType":"ผลิตลูกชิ้นเนื้อหมู เนื้อวัว","status":"ดำเนินกิจการ","lat":13.7083833333333,"lon":100.7354},"10110200125180":{"id":"10110200125180","name":"บริษัท ซีพีเอฟ (ประเทศไทย) จำกัด (มหาชน)","owner":"บริษัท ซีพีเอฟ (ประเทศไทย) จำกัด (มหาชน)","displayRegistration":"3-15(1)-1/18สป","province":"สมุทรปราการ","district":"บางเสาธง","subdistrict":"ศีรษะจรเข้ใหญ่","industryType":"ทำอาหารสัตว์","status":"ดำเนินกิจการ","lat":13.6025833333333,"lon":100.78415},"10110000325386":{"id":"10110000325386","name":"บริษัท นิวโมเดอร์น ซุปเปอร์แพค จำกัด","owner":"บริษัท นิวโมเดอร์น ซุปเปอร์แพค จำกัด","displayRegistration":"3-53(4)-3/38สป","province":"สมุทรปราการ","district":"บางเสาธง","subdistrict":"บางเสาธง","industryType":"ทำถุงพลาสติก","status":"ดำเนินกิจการ","lat":13.58455,"lon":100.7714},"10110100325385":{"id":"10110100325385","name":"บริษัท ไทย เอ.อาร์. เซ็นเตอร์ จำกัด","owner":"บริษัท ไทย เอ.อาร์. เซ็นเตอร์ จำกัด","displayRegistration":"3-64(12)-3/38สป","province":"สมุทรปราการ","district":"พระสมุทรเจดีย์","subdistrict":"แหลมฟ้าผ่า","industryType":"ตัดเหล็ก กลึงและซ่อมลูกรีดเหล็ก","status":"ดำเนินกิจการ","lat":13.5832166666667,"lon":100.571683333333},"10110600125384":{"id":"10110600125384","name":"บริษัท สามชัยตะแกรงเหล็ก จำกัด","owner":"บริษัท สามชัยตะแกรงเหล็ก จำกัด","displayRegistration":"3-64(5)-1/38สป","province":"สมุทรปราการ","district":"เมืองสมุทรปราการ","subdistrict":"แพรกษา","industryType":"ผลิตลวดตาข่ายและลวดเหล็กขด ตะแกรงลวด เหล็กกล้าเชื่อมติดเสริมคอนกรีต ได้ปีละ 5,000 ตัน","status":"ดำเนินกิจการ","lat":13.5526333333333,"lon":100.68605},"20110600525383":{"id":"20110600525383","name":"บริษัท บี.เค.เค. (1985) จำกัด","owner":"บริษัท บี.เค.เค. (1985) จำกัด","displayRegistration":"จ3-63(2)-5/38สป","province":"สมุทรปราการ","district":"บางพลี","subdistrict":"บางปลา","industryType":"ประกอบอุปกรณ์สำหรับการก่อสร้าง เช่น เหล็กโครงสร้าง นั่งร้าน","status":"ดำเนินกิจการ","lat":13.5894833333333,"lon":100.76575},"10110800125382":{"id":"10110800125382","name":"บริษัท โอ.อี.ไอ.พาร์ท จำกัด","owner":"บริษัท โอ.อี.ไอ.พาร์ท จำกัด","displayRegistration":"3-64(13)-1/38สป","province":"สมุทรปราการ","district":"บางเสาธง","subdistrict":"บางเสาธง","industryType":"ผลิตชิ้นส่วนยานยนต์ทุกชนิดและชิ้นส่วนอุปกรณ์ไฟฟ้าทุกชนิด","status":"ดำเนินกิจการ","lat":13.5801333333333,"lon":100.7878},"20110100425381":{"id":"20110100425381","name":"ห้างหุ้นส่วนจำกัด สินพาราคลองด่าน","owner":"ห้างหุ้นส่วนจำกัด สินพาราคลองด่าน","displayRegistration":"จ3-34(1)-4/38สป","province":"สมุทรปราการ","district":"บางบ่อ","subdistrict":"คลองด่าน","industryType":"อบไม้ ไส-ซอยไม้ ทำลังไม้และเครื่องใช้ในครัวเรือน","status":"ดำเนินกิจการ","lat":13.5068333333333,"lon":100.825416666667},"20110000225378":{"id":"20110000225378","name":"บริษัท แมคคีย์ฟู้ด เซอร์วิสเซส (ประเทศ ไทย) จำกัด","owner":"บริษัท แมคคีย์ฟู้ด เซอร์วิสเซส (ประเทศ ไทย) จำกัด","displayRegistration":"จ3-4(3)-2/37สป","province":"สมุทรปราการ","district":"บางเสาธง","subdistrict":"บางเสาธง","industryType":"ผลิตอาหารสำเร็จรูป เช่น แฮมเบเกอร์เนื้อและแฮมเบเกอร์ปลา","status":"ดำเนินกิจการ","lat":13.5918,"lon":100.773516666667},"20111500125373":{"id":"20111500125373","name":"บริษัท ช.การช่าง จำกัด (มหาชน)","owner":"บริษัท ช.การช่าง จำกัด (มหาชน)","displayRegistration":"จ3-50(4)-1/37สป","province":"สมุทรปราการ","district":"บางบ่อ","subdistrict":"เปร็ง","industryType":"ผลิตแอสฟัลติกคอนกรีตชนิดร้อน","status":"ดำเนินกิจการ","lat":13.6207666666667,"lon":100.863366666667},"20111000525387":{"id":"20111000525387","name":"บริษัท ท้อดดี้ จำกัด","owner":"บริษัท ท้อดดี้ จำกัด","displayRegistration":"จ3-71-5/38สป","province":"สมุทรปราการ","district":"บางพลี","subdistrict":"บางพลีใหญ่","industryType":"ประกอบเครื่องสูบน้ำ","status":"ดำเนินกิจการ","lat":13.5829166666667,"lon":100.70885},"20110700225389":{"id":"20110700225389","name":"บริษัท ไมลอทท์ แลบบอราทอรีส์ จำกัด","owner":"บริษัท ไมลอทท์ แลบบอราทอรีส์ จำกัด","displayRegistration":"จ3-47(3)-2/38สป","province":"สมุทรปราการ","district":"บางพลี","subdistrict":"บางปลา","industryType":"ทำเครื่องสำอาง เครื่องเสริมความงาม น้ำหอมปรับอากาศ","status":"ดำเนินกิจการ","lat":13.5926,"lon":100.722566666667},"20110300425389":{"id":"20110300425389","name":"บริษัท แอ็คมี่ อินเตอร์เนชั่นแนล (ประเทศไทย) จำกัด","owner":"บริษัท แอ็คมี่ อินเตอร์เนชั่นแนล (ประเทศไทย) จำกัด","displayRegistration":"จ3-42(1)-4/38สป","province":"สมุทรปราการ","district":"บางเสาธง","subdistrict":"บางเสาธง","industryType":"ผสมและแบ่งบรรจุกาวประสานวัสดุ, วัสดุทนไฟบุผนังเตาหลอม","status":"ดำเนินกิจการ","lat":13.5870666666667,"lon":100.815383333333},"20111800125370":{"id":"20111800125370","name":"ห้างหุ้นส่วนจำกัด จินดาวัฒน์ อุตสาหกรรม","owner":"ห้างหุ้นส่วนจำกัด จินดาวัฒน์ อุตสาหกรรม","displayRegistration":"จ3-53(5)-1/37สป","province":"สมุทรปราการ","district":"พระประแดง","subdistrict":"บางหัวเสือ","industryType":"ทำเม็ดพลาสติกจากพลาสติกเก่า (เม็ดพลาสติกเกรดบี)","status":"ดำเนินกิจการ","lat":13.6350333333333,"lon":100.55865},"20110900525380":{"id":"20110900525380","name":"บริษัท ซี.บี.แทค (ประเทศไทย) จำกัด","owner":"บริษัท ซี.บี.แทค (ประเทศไทย) จำกัด","displayRegistration":"จ3-70-5/38สป","province":"สมุทรปราการ","district":"บางเสาธง","subdistrict":"บางเสาธง","industryType":"กลึง ดัด ท่อทองแดงและอลูมิเนียมเป็นอุปกรณ์ อะไหล่ของเครื่อง ปรับอากาศ","status":"ดำเนินกิจการ","lat":13.561243,"lon":100.817452},"20110500425379":{"id":"20110500425379","name":"บริษัท พี.ที.พัฒนากลการ จำกัด","owner":"บริษัท พี.ที.พัฒนากลการ จำกัด","displayRegistration":"จ3-64(13)-4/37สป","province":"สมุทรปราการ","district":"บางเสาธง","subdistrict":"บางเสาธง","industryType":"กลึง เชื่อมโลหะและม้วนโลหะ","status":"ดำเนินกิจการ","lat":13.5752166666667,"lon":100.7727},"10110000425384":{"id":"10110000425384","name":"บริษัท เอส วีเอส สตีล จำกัด","owner":"บริษัท ยูเนี่ยนเคมีเกิลอินดัสตรี จำกัด","displayRegistration":"3-59-4/38สป","province":"สมุทรปราการ","district":"พระสมุทรเจดีย์","subdistrict":"ในคลองบางปลากด","industryType":"ผลิตเหล็กเส้นเสริมคอนกรีต เหล็กรูปพรรณ และเหล็กลวด ได้ปีละ 60,000 ตัน,36,000 ตัน และ 12,000 ตัน ตามลำดับ(จำนวน 1 สายการผลิต)","status":"ดำเนินกิจการ","lat":13.5703,"lon":100.556216666667},"20111000125378":{"id":"20111000125378","name":"บริษัท สี่พระยาเฟอร์นิเจอร์ จำกัด","owner":"บริษัท สี่พระยาเฟอร์นิเจอร์จำกัด","displayRegistration":"จ3-37-1/37สป","province":"สมุทรปราการ","district":"พระประแดง","subdistrict":"สำโรงใต้","industryType":"ทำเฟอร์นิเจอร์จากหนังและไม้","status":"ดำเนินกิจการ","lat":13.6448166666667,"lon":100.583266666667},"20110900325385":{"id":"20110900325385","name":"บริษัท อินเตอร์ไทยแมนูแฟคเจอริ่ง จำกัด","owner":"บริษัท อินเตอร์ไทยแมนูแฟคเจอริ่ง จำกัด","displayRegistration":"จ3-63(2)-3/38สป","province":"สมุทรปราการ","district":"พระสมุทรเจดีย์","subdistrict":"ในคลองบางปลากด","industryType":"ทำบานพับประตู หน้าต่าง บานเกล็ด บันได","status":"ดำเนินกิจการ","lat":13.5964333333333,"lon":100.545583333333},"10110100125231":{"id":"10110100125231","name":"บริษัท ธีรวัฒน์-สรรพสิทธิ์ จำกัด","owner":"บริษัท ธีรวัฒน์-สรรพสิทธิ์ จำกัด","displayRegistration":"3-34(2)-1/23สป","province":"สมุทรปราการ","district":"เมืองสมุทรปราการ","subdistrict":"เทพารักษ์","industryType":"ทำวงกบประตูหน้าต่างไม้","status":"ดำเนินกิจการ","lat":13.6395666666667,"lon":100.606133333333},"20112300125381":{"id":"20112300125381","name":"กิจปทุมโลหะภัณฑ์","owner":"นายโสภณ นภาอารักษ์","displayRegistration":"จ3-60-1/38สป","province":"สมุทรปราการ","district":"พระประแดง","subdistrict":"สำโรงใต้","industryType":"ผลิตเครื่องใช้ในครอบครัวและชิ้นส่วนรถจักรยาน","status":"ดำเนินกิจการ","lat":13.6373166666667,"lon":100.58325},"20110000425382":{"id":"20110000425382","name":"NULL","owner":"บริษัท บุษกรการพิมพ์ จำกัด","displayRegistration":"จ3-22(4)-4/38สป","province":"สมุทรปราการ","district":"พระประแดง","subdistrict":"บางครุ","industryType":"รับจ้างพิมพ์ผ้า","status":"ดำเนินกิจการ","lat":13.6383666666667,"lon":100.5319},"20110000725369":{"id":"20110000725369","name":"บริษัท สินมั่นคงการทอ จำกัด","owner":"บริษัท สินมั่นคงการทอ จำกัด","displayRegistration":"จ3-22(2)-7/36สป","province":"สมุทรปราการ","district":"พระประแดง","subdistrict":"บางจาก","industryType":"ทอผ้า","status":"ดำเนินกิจการ","lat":13.6117166666667,"lon":100.535916666667},"20110200225376":{"id":"20110200225376","name":"บริษัท สื่อเจริญทรัพย์ จำกัด","owner":"บริษัท สื่อเจริญทรัพย์ จำกัด","displayRegistration":"จ3-36(1)-2/37สป","province":"สมุทรปราการ","district":"พระประแดง","subdistrict":"บางหญ้าแพรก","industryType":"ทำลังไม้","status":"ดำเนินกิจการ","lat":13.64245,"lon":100.552633333333},"20111100225375":{"id":"20111100225375","name":"บริษัท ซี แอนด์ ที เมทอล โปรดักส์ จำกัด","owner":"บริษัท ซี แอนด์ ที เมทอล โปรดักส์ จำกัด","displayRegistration":"จ3-64(12)-2/37สป","province":"สมุทรปราการ","district":"พระประแดง","subdistrict":"บางหญ้าแพรก","industryType":"ตัด พับ โลหะ","status":"หยุดชั่วคราว","lat":13.651005,"lon":100.543266},"20113300125371":{"id":"20113300125371","name":"บริษัท บิทิชีโน (ประเทศไทย) จำกัด","owner":"บริษัท บิทิชีโน (ประเทศไทย) จำกัด","displayRegistration":"จ3-74(3)-1/37สป","province":"สมุทรปราการ","district":"บางพลี","subdistrict":"บางโฉลง","industryType":"ผลิตอุปกรณ์ไฟฟ้า เช่น ปลั๊กเสียบ สวิทซ์","status":"ดำเนินกิจการ","lat":13.623458,"lon":100.748625},"20110500225381":{"id":"20110500225381","name":"บริษัท ไทยการซอง จำกัด","owner":"บริษัท ไทยการซอง จำกัด","displayRegistration":"จ3-39-2/38สป","province":"สมุทรปราการ","district":"เมืองสมุทรปราการ","subdistrict":"สำโรงเหนือ","industryType":"ผลิตซองจดหมาย การ์ด และกล่องกระดาษ","status":"ดำเนินกิจการ","lat":13.6507,"lon":100.603533333333},"20113500125387":{"id":"20113500125387","name":"บริษัท เชี่ยวชาญอินดัสทรี่ (1989) จำกัด","owner":"บริษัท เชี่ยวชาญอินดัสทรี่ (1989) จำกัด","displayRegistration":"จ3-85-1/38สป","province":"สมุทรปราการ","district":"พระประแดง","subdistrict":"บางครุ","industryType":"ทำชิ้นส่วนเครื่องดนตรี-กีฬา และรถจักรยานยนต์","status":"ดำเนินกิจการ","lat":13.6232,"lon":100.525133333333},"20110200425380":{"id":"20110200425380","name":"บริษัท ที.พี.อาร์ พรีซิชั่น ทูลลิ่ง จำกัด","owner":"บริษัท ที.พี.อาร์ พรีซิชั่น ทูลลิ่ง จำกัด","displayRegistration":"จ3-41(2)-4/38สป","province":"สมุทรปราการ","district":"บางเสาธง","subdistrict":"บางเสาธง","industryType":"กลึง เชื่อม ไส โลหะ เพื่อทำแม่พิมพ์โลหะและทำผลิตภัณฑ์พลาสติกเช่น ใบปรับแอร์ ฯลฯ","status":"ดำเนินกิจการ","lat":13.5632,"lon":100.818066666667},"20113100125381":{"id":"20113100125381","name":"บริษัท ศรีเจริญคอนคูเลต จำกัด","owner":"บริษัท ศรีเจริญคอนคูเลต จำกัด","displayRegistration":"จ3-73-1/38สป","province":"สมุทรปราการ","district":"บางพลี","subdistrict":"ราชาเทวะ","industryType":"ทำชิ้นส่วนอุปกรณ์ไฟฟ้า","status":"ดำเนินกิจการ","lat":13.66865,"lon":100.71675},"20110700125381":{"id":"20110700125381","name":"บริษัท โอเชี่ยน เคมีคอล ไฟเบอร์ อินเตอร์เนชั่นแนล (ไทยแลนด์) จำกัด","owner":"บริษัท โอเชี่ยน เคมีคอล ไฟเบอร์ อินเตอร์เนชั่นแนล (ไทยแลนด์) จำกัด","displayRegistration":"จ3-27(7)-1/38สป","province":"สมุทรปราการ","district":"เมืองสมุทรปราการ","subdistrict":"บางปูใหม่","industryType":"ผลิตเส้นใยโพลีเอสเตอร์","status":"ดำเนินกิจการ","lat":13.51878,"lon":100.691235},"20111100325381":{"id":"20111100325381","name":"บริษัท ลูกกลิ้งอุตสาหกรรมไทย จำกัด","owner":"บริษัท ลูกกลิ้งอุตสาหกรรมไทย จำกัด","displayRegistration":"จ3-68-3/38สป","province":"สมุทรปราการ","district":"เมืองสมุทรปราการ","subdistrict":"ท้ายบ้าน","industryType":"ทำลูกกลิ้งยาง","status":"ดำเนินกิจการ","lat":13.5793166666667,"lon":100.60725},"20110102125385":{"id":"20110102125385","name":"ห้างหุ้นส่วนจำกัด นวกิจวิศวกรรม 1992","owner":"ห้างหุ้นส่วนจำกัด นวกิจวิศวกรรม 1992","displayRegistration":"จ3-64(13)-21/38สป","province":"สมุทรปราการ","district":"เมืองสมุทรปราการ","subdistrict":"เทพารักษ์","industryType":"กลึง เจาะ คว้าน ไส เจียนและเชื่อมโลหะทั่วไป","status":"ดำเนินกิจการ","lat":13.6188166666667,"lon":100.644033333333},"20110001225385":{"id":"20110001225385","name":"บริษัท ทเวนตี้ เฟอร์นิเจอร์ จำกัด","owner":"บริษัท ทเวนตี้ เฟอร์นิเจอร์ จำกัด","displayRegistration":"จ3-37-12/38สป","province":"สมุทรปราการ","district":"บางพลี","subdistrict":"บางพลีใหญ่","industryType":"ทำเครื่องเรือน และเครื่องตบแต่งภายในอาคารจากไม้","status":"ดำเนินกิจการ","lat":13.6138,"lon":100.6779},"20110100725384":{"id":"20110100725384","name":"บริษัท ยู.อาร์.เคมีคอล จำกัด","owner":"บริษัท ยู.อาร์.เคมีคอล จำกัด","displayRegistration":"จ3-45(1)-7/38สป","province":"สมุทรปราการ","district":"บางพลี","subdistrict":"บางปลา","industryType":"ทำน้ำมันทาไม้ เช่น แชลแลค สีน้ำพลาสติก สีน้ำมัน กาวลาเท็กซ์","status":"ดำเนินกิจการ","lat":13.5834166666667,"lon":100.723783333333},"00110000225372":{"id":"00110000225372","name":"บริษัท สุวรรณธารา จำกัด","owner":"บริษัท สุวรรณธารา จำกัด","displayRegistration":"ศ3-14-2/37สป","province":"สมุทรปราการ","district":"บางเสาธง","subdistrict":"บางเสาธง","industryType":"ทำน้ำแข็ง ได้วันละ 2,080 ซอง","status":"ดำเนินกิจการ","lat":13.58455,"lon":100.7808},"20110600125382":{"id":"20110600125382","name":"บริษัท แอล.ไอ.เอส.อินเตอร์เนชั่นแนล จำกัด","owner":"บริษัท แอล.ไอ.เอสอินเตอร์เนชั่นแนล จำกัด","displayRegistration":"จ3-27(6)-1/38สป","province":"สมุทรปราการ","district":"พระประแดง","subdistrict":"บางครุ","industryType":"ทำวัสดุจากเส้นใยสำหรับทำเบาะ นวม รองพื้นรถยนต์ พรมอัด","status":"ดำเนินกิจการ","lat":13.6215,"lon":100.523816666667},"20110900125389":{"id":"20110900125389","name":"บริษัท มั่นคง แทน จำกัด","owner":"บริษัท มั่นคง แทน จำกัด","displayRegistration":"จ3-30-1/38สป","province":"สมุทรปราการ","district":"เมืองสมุทรปราการ","subdistrict":"บางปูใหม่","industryType":"รับจ้างตบแต่งหนังสัตว์ที่ฟอกแล้ว","status":"หยุดชั่วคราว","lat":13.5291,"lon":100.6295},"20116200125375":{"id":"20116200125375","name":"บริษัท เกียเส็งพรีเมี่ยมแอนด์ทอย จำกัด","owner":"นายจำนงค์ อริยเสริมบุญ","displayRegistration":"จ3-87(1)-1/37สป","province":"สมุทรปราการ","district":"บางพลี","subdistrict":"บางแก้ว","industryType":"ประกอบรถเด็กเล่น","status":"ดำเนินกิจการ","lat":13.6583833333333,"lon":100.677433333333},"20112600125370":{"id":"20112600125370","name":"บริษัท ทินแคน อินดัสทรี่ จำกัด","owner":"บริษัท ทินแคน อินดัสทรี่ จำกัด","displayRegistration":"จ3-64(1)-1/37สป","province":"สมุทรปราการ","district":"พระสมุทรเจดีย์","subdistrict":"ในคลองบางปลากด","industryType":"ทำกระป๋องต่าง ๆ และพิมพ์ลวดลายบนแผ่นโลหะ","status":"ดำเนินกิจการ","lat":13.58995,"lon":100.5449},"20111400225372":{"id":"20111400225372","name":"บริษัท พี ซี โปรดัสก์ อินเตอร์เนชั่นแนล จำกัด","owner":"บริษัท พี ซี โปรดัสก์ อินเตอร์เนชั่นแนล จำกัด","displayRegistration":"จ3-77(2)-2/37สป","province":"สมุทรปราการ","district":"บางบ่อ","subdistrict":"บางเพรียง","industryType":"ฉีดตะกั่วเพื่อทำลูกตุ้มถ่วงเบ็ดและถ่วงลูกล้อรถยนต์","status":"ดำเนินกิจการ","lat":13.5695833333333,"lon":100.83285},"20111600225388":{"id":"20111600225388","name":"บริษัท ทองดี (1993) จำกัด","owner":"บริษัท ทองดี (1993) จำกัด","displayRegistration":"จ3-65-2/38สป","province":"สมุทรปราการ","district":"พระประแดง","subdistrict":"สำโรงกลาง","industryType":"ซ่อมเครื่องจักรและทำอุปกรณ์สำหรับเครื่องจักรทั่วไป","status":"ดำเนินกิจการ","lat":13.651893,"lon":100.576311},"20110100825382":{"id":"20110100825382","name":"บริษัท โฟกัส อุตสาหกรรมพลาสติก จำกัด","owner":"บริษัท โฟกัส อุตสาหกรรมพลาสติก จำกัด","displayRegistration":"จ3-53(1)-8/38สป","province":"สมุทรปราการ","district":"บางพลี","subdistrict":"ราชาเทวะ","industryType":"ทำผลิตภัณฑ์พลาสติกเป็นเครื่องใช้ต่าง ๆ","status":"ดำเนินกิจการ","lat":13.6940666666667,"lon":100.718883333333},"20110700425369":{"id":"20110700425369","name":"บริษัท วี.เอส.วี.อิมปอร์ต เอ็กซ์ปอร์ต จำกัด","owner":"บริษัท วี.เอส.วี.อิมปอร์ต เอ็กซ์ปอร์ต จำกัด","displayRegistration":"จ3-45(1)-4/36สป","province":"สมุทรปราการ","district":"บางเสาธง","subdistrict":"บางเสาธง","industryType":"ผลิตสีน้ำ สีน้ำมัน สีย้อมไม้ สีหมึกพิมพ์","status":"ดำเนินกิจการ","lat":13.5745333333333,"lon":100.774733333333},"20110800325386":{"id":"20110800325386","name":"บริษัท เจ เอส สแตนดาร์ด จำกัด","owner":"บริษัท เจ เอส สแตนดาร์ด จำกัด","displayRegistration":"จ3-62-3/38สป","province":"สมุทรปราการ","district":"พระประแดง","subdistrict":"สำโรง","industryType":"ผลิตกุญแจ","status":"ดำเนินกิจการ","lat":13.65805,"lon":100.589183333333},"20110200725383":{"id":"20110200725383","name":"บริษัท พลาสท์ แคป จำกัด","owner":"บริษัท พลาสท์ แคป จำกัด","displayRegistration":"จ3-53(5)-7/38สป","province":"สมุทรปราการ","district":"บางเสาธง","subdistrict":"บางเสาธง","industryType":"ทำผลิตภัณฑ์พลาสติก เช่น ฝาปิดขวด และแผ่นพลาสติก","status":"ดำเนินกิจการ","lat":13.5880166666667,"lon":100.7739},"20110001425381":{"id":"20110001425381","name":"บริษัท อีเลคโทรลักซ์ ประเทศไทย จำกัด","owner":"บริษัท อีเลคโทรลักซ์ ประเทศไทย จำกัด","displayRegistration":"จ3-37-14/38สป","province":"สมุทรปราการ","district":"บางพลี","subdistrict":"บางแก้ว","industryType":"ทำเครื่องเรือนจากไม้","status":"ดำเนินกิจการ","lat":13.6543833333333,"lon":100.675266666667},"20110500425387":{"id":"20110500425387","name":"บริษัท เค ที แอนด์ แอล เมทัล จำกัด","owner":"บริษัท เค ที แอนด์ แอล เมทัล จำกัด","displayRegistration":"จ3-62-4/38สป","province":"สมุทรปราการ","district":"บางบ่อ","subdistrict":"บางบ่อ","industryType":"ทำผลิตภัณฑ์โลหะ เช่น ขาหลอดไฟนีออน เฟอร์นิเจอร์เหล็ก","status":"ดำเนินกิจการ","lat":13.5920833333333,"lon":100.857666666667},"20113300125389":{"id":"20113300125389","name":"บริษัท มาริอาร์ท (ประเทศไทย) จำกัด","owner":"บริษัท มาริอาร์ท (ประเทศไทย) จำกัด","displayRegistration":"จ3-75(1)-1/38สป","province":"สมุทรปราการ","district":"บางบ่อ","subdistrict":"คลองด่าน","industryType":"ต่อเรือ ซ่อมแซมเรือ และต่อรือตัดวัชพืช","status":"ดำเนินกิจการ","lat":13.5024666666667,"lon":100.818266666667},"20112700125361":{"id":"20112700125361","name":"บริษัท เมททอล โปรดักส์ จำกัด","owner":"บริษัท เมททอล โปรดักส์ จำกัด","displayRegistration":"จ3-71-1/36สป","province":"สมุทรปราการ","district":"บางพลี","subdistrict":"บางพลีใหญ่","industryType":"ผลิตชิ้นส่วนอุปกรณ์ไฟฟ้า ชิ้นส่วนของถ่านไฟฉายโลหะบรรจุภัณฑ์","status":"ดำเนินกิจการ","lat":13.6208166666667,"lon":100.715466666667},"20110600725363":{"id":"20110600725363","name":"บริษัท ซี.เค.เมทัล เวอร์ค จำกัด","owner":"บริษัท ซี.เค.เมทัล เวอร์ค จำกัด","displayRegistration":"จ3-62-7/36สป","province":"สมุทรปราการ","district":"เมืองสมุทรปราการ","subdistrict":"บางปู","industryType":"ผลิตโครงเหล็ก ซึ่งเป็นส่วนประกอบสำหรับผลิตภัณฑ์ประเภท เครื่องเรือน และอุปกรณ์ประดับยนต์","status":"ดำเนินกิจการ","lat":13.5071833333333,"lon":100.767533333333},"20110201525386":{"id":"20110201525386","name":"ห้างหุ้นส่วนจำกัด แอคคิวทูล","owner":"ห้างหุ้นส่วนจำกัด แอคคิวทูล","displayRegistration":"จ3-64(13)-15/38สป","province":"สมุทรปราการ","district":"บางเสาธง","subdistrict":"บางเสาธง","industryType":"กลึงและเชื่อมโลหะทุกชนิด","status":"ดำเนินกิจการ","lat":13.5633166666667,"lon":100.8182},"20110600325388":{"id":"20110600325388","name":"บริษัท อลังการ พลาสติกไทย จำกัด","owner":"บริษัท อลังการ พลาสติกไทย จำกัด","displayRegistration":"จ3-53(5)-3/38สป","province":"สมุทรปราการ","district":"บางพลี","subdistrict":"บางปลา","industryType":"ทำผลิตภัณฑ์พลาสติก","status":"ดำเนินกิจการ","lat":13.58915,"lon":100.7319},"20110200125386":{"id":"20110200125386","name":"บริษัท ไพโรจน์ (ทั่งซังฮะ) จำกัด","owner":"บริษัท ไพโรจน์ (ทั่งซังฮะ) จำกัด","displayRegistration":"จ3-13(4)-1/38สป","province":"สมุทรปราการ","district":"เมืองสมุทรปราการ","subdistrict":"บางปูใหม่","industryType":"ผลิตน้ำส้มสายชูกลั่น 5%","status":"ดำเนินกิจการ","lat":13.5166,"lon":100.676583333333},"20112600125388":{"id":"20112600125388","name":"ดี.อาร์.อินดัสเตรียล","owner":"นางอุมารัตน์ ศรีวงศ์ทอง","displayRegistration":"จ3-64(8)-1/38สป","province":"สมุทรปราการ","district":"บางพลี","subdistrict":"บางปลา","industryType":"ทำส่วนประกอบท่อร้อยสายไฟฟ้า เช่น ข้อต่อต่าง ๆ","status":"ดำเนินกิจการ","lat":13.57995,"lon":100.728366666667},"20110101125386":{"id":"20110101125386","name":"บริษัท เจิ้งเสียงไทยเครื่องแพคกิ้ง จำกัด","owner":"บริษัท เจิ้งเสียงไทยเครื่องแพคกิ้ง จำกัด","displayRegistration":"จ3-64(13)-11/38สป","province":"สมุทรปราการ","district":"บางพลี","subdistrict":"บางพลีใหญ่","industryType":"กลึงและเชื่อมโลหะทั่วไป","status":"ดำเนินกิจการ","lat":13.6009166666667,"lon":100.686133333333},"20110102225383":{"id":"20110102225383","name":"บริษัท ที.พี.อาร์ พรีซิชั่น ทูลลิ่ง จำกัด","owner":"บริษัท ที.พี.อาร์ พรีซิชั่น ทูลลิ่ง จำกัด","displayRegistration":"จ3-64(13)-22/38สป","province":"สมุทรปราการ","district":"บางเสาธง","subdistrict":"บางเสาธง","industryType":"กลึง เจาะ คว้าน กัด ไส เจียน และเชื่อมโลหะทั่วไป","status":"ดำเนินกิจการ","lat":13.5629833333333,"lon":100.818066666667},"00110000225398":{"id":"00110000225398","name":"ห้างหุ้นส่วนจำกัด ศรีเจริญลาภน้ำแข็งหลอด","owner":"ห้างหุ้นส่วนจำกัด ศรีเจริญลาภน้ำแข็งหลอด","displayRegistration":"ศ3-14-2/39สป","province":"สมุทรปราการ","district":"บางบ่อ","subdistrict":"คลองด่าน","industryType":"ทำน้ำแข็งก้อนเล็ก ได้วันละ 140 ตัน","status":"ดำเนินกิจการ","lat":13.50905,"lon":100.808466666667},"20110600225380":{"id":"20110600225380","name":"บริษัท เอเวียนท์ (ประเทศไทย) จำกัด","owner":"บริษัท เอเวียนท์ (ประเทศไทย) จำกัด","displayRegistration":"จ3-45(1)-2/38สป","province":"สมุทรปราการ","district":"บางพลี","subdistrict":"ราชาเทวะ","industryType":"ผสมสีผง และสีเม็ดพลาสติก","status":"ดำเนินกิจการ","lat":13.6940333333333,"lon":100.718833333333},"20110002425380":{"id":"20110002425380","name":"บริษัท ที.เอ.เมคคานิค จำกัด","owner":"บริษัท ที.เอ.เมคคานิค จำกัด","displayRegistration":"จ3-64(13)-24/38สป","province":"สมุทรปราการ","district":"บางพลี","subdistrict":"ราชาเทวะ","industryType":"รับจ้าง กลึง เจาะ กัด ไส และเชื่อมโลหะ","status":"ดำเนินกิจการ","lat":13.6684666666667,"lon":100.717566666667},"20111100625368":{"id":"20111100625368","name":"บริษัท ซัมมิท โอโตซีท อินดัสตรี จำกัด","owner":"บริษัท ซัมมิท โอโตซีท อินดัสตรี จำกัด","displayRegistration":"จ3-77(2)-6/36สป","province":"สมุทรปราการ","district":"บางพลี","subdistrict":"ราชาเทวะ","industryType":"ทำชิ้นส่วนประกอบรถยนต์ เช่น แผงประตู แผงบังแดด เข็มขัดนิรภัย","status":"ดำเนินกิจการ","lat":13.6472,"lon":100.71405},"10111000125396":{"id":"10111000125396","name":"บริษัท ซี.พี.แอล.ไวร์โรพ จำกัด","owner":"บริษัท ซี.พี.แอล.ไวร์โรพ จำกัด","displayRegistration":"3-64(5)-1/39สป","province":"สมุทรปราการ","district":"บางพลี","subdistrict":"บางโฉลง","industryType":"ทำลวดสลิง","status":"ดำเนินกิจการ","lat":13.599182,"lon":100.775689},"10110900125399":{"id":"10110900125399","name":"บริษัท ซิโนไทยเม็ททัลคาสติ้ง จำกัด","owner":"บริษัท ซิโนไทยเม็ททัลคาสติ้ง จำกัด","displayRegistration":"3-59-1/39สป","province":"สมุทรปราการ","district":"บางพลี","subdistrict":"บางปลา","industryType":"ผลิตก๊อกน้ำ ข้อต่อ ข้องอ น๊อต สกรู หน้าแปลนต่าง ๆ จากแสตนเลสได้ปีละ 320 ตัน (เตาหลอมไฟฟ้าขนาด 300 กก./ชม.จำนวน 2 เตา และ200 กก./ชม. จำนวน 2 เตา","status":"ดำเนินกิจการ","lat":13.5905833333333,"lon":100.741466666667},"20113900125383":{"id":"20113900125383","name":"บริษัท บำรุงโครเมี่ยม จำกัด","owner":"บริษัท บำรุงโครเมี่ยม จำกัด","displayRegistration":"จ3-100(5)-1/38สป","province":"สมุทรปราการ","district":"เมืองสมุทรปราการ","subdistrict":"สำโรงเหนือ","industryType":"ชุบโลหะ","status":"ดำเนินกิจการ","lat":13.5769,"lon":100.773283333333},"20110000625387":{"id":"20110000625387","name":"บริษัท ไดเซะกิ จำกัด","owner":"บริษัท ไดเซะกิ จำกัด","displayRegistration":"จ3-22(2)-6/38สป","province":"สมุทรปราการ","district":"บางพลี","subdistrict":"บางพลีใหญ่","industryType":"ทอผ้าทุกชนิด","status":"ดำเนินกิจการ","lat":13.5883333333333,"lon":100.707733333333},"20110200525387":{"id":"20110200525387","name":"นายสมเชฎฐ์ ผลสุวรรณชัย","owner":"นายสมเชฎฐ์ ผลสุวรรณชัย","displayRegistration":"จ3-40(1)-5/38สป","province":"สมุทรปราการ","district":"บางพลี","subdistrict":"ราชาเทวะ","industryType":"ทำกระดาษคาร์บอน","status":"ดำเนินกิจการ","lat":13.66865,"lon":100.71675},"20110100125387":{"id":"20110100125387","name":"บริษัท ซันเมอรี่ จำกัด","owner":"บริษัท ซันเมอรี่ จำกัด","displayRegistration":"จ3-10(1)-1/38สป","province":"สมุทรปราการ","district":"บางพลี","subdistrict":"บางพลีใหญ่","industryType":"ทำขนมปัง ขนมเค้ก และเพสตรี้","status":"ดำเนินกิจการ","lat":13.6035666666667,"lon":100.678616666667},"20112100125383":{"id":"20112100125383","name":"นายชวศิษฐ์ พงษ์สุขถาวร","owner":"นายชวศิษฐ์ พงษ์สุขถาวร","displayRegistration":"จ3-53(1)-1/38สป","province":"สมุทรปราการ","district":"พระสมุทรเจดีย์","subdistrict":"ในคลองบางปลากด","industryType":"ทำผลิตภัณฑ์พลาสติก","status":"ดำเนินกิจการ","lat":13.5785,"lon":100.56775},"00110000125390":{"id":"00110000125390","name":"บริษัท ยูไนเต็ดฟลาวมิลล์ จำกัด(มหาชน)","owner":"บริษัท ยูไนเต็ดฟลาวมิลล์ จำกัด (มหาชน)","displayRegistration":"ศ3-10(3)-1/39สป","province":"สมุทรปราการ","district":"พระประแดง","subdistrict":"บางหญ้าแพรก","industryType":"ทำผลิตภัณฑ์อาหารจากแป้ง เป็นชิ้น เช่น พาย","status":"ดำเนินกิจการ","lat":13.6509666666667,"lon":100.552033333333},"20111200525385":{"id":"20111200525385","name":"ห้างหุ้นส่วนจำกัด จี อาร์ พี. ไฮเทค","owner":"บริษัท จี อาร์ พี ไฮเทค (9999) จำกัด","displayRegistration":"จ3-77(2)-5/38สป","province":"สมุทรปราการ","district":"บางเสาธง","subdistrict":"บางเสาธง","industryType":"ทำชิ้นส่วนรถยนต์ เช่น โครงกันชน พรมปิดยางอะไหล่ หลังคารถยนต์สปอยเลอร์ ฯลฯ","status":"ดำเนินกิจการ","lat":13.5648,"lon":100.78115},"20110200125345":{"id":"20110200125345","name":"บริษัท ยูเนี่ยนอาทิฟิเชี่ยลฟลาวเวอร์ จำกัด","owner":"บริษัท ยูเนี่ยนอาทิฟิเชี่ยลฟลาวเวอร์ จำกัด","displayRegistration":"จ3-87(4)-1/34สป","province":"สมุทรปราการ","district":"พระประแดง","subdistrict":"บางจาก","industryType":"ผลิตดอกไม้ ต้นไม้ประดิษฐ์","status":"หยุดชั่วคราว","lat":13.61405,"lon":100.53105},"20113400125388":{"id":"20113400125388","name":"บริษัท เอเชี่ยนเคมิคัลแอนด์เอ็นยิเนียริ่ง จำกัด","owner":"บริษัท เอเชี่ยนเคมิคัลแอนด์เอ็นยิเนียริ่ง จำกัด","displayRegistration":"จ3-81(1)-1/38สป","province":"สมุทรปราการ","district":"บางพลี","subdistrict":"บางพลีใหญ่","industryType":"อุปกรณ์ห้องแล็บ อุปกรณ์กำจัดฝุ่น อุปกรณ์บำบัดควัน","status":"ดำเนินกิจการ","lat":13.6088,"lon":100.680266666667},"10110200225394":{"id":"10110200225394","name":"บริษัท น้ำมันไออาร์พีซี จำกัด","owner":"บริษัท น้ำมันไออาร์พีซี จำกัด","displayRegistration":"3-50(4)-2/39สป","province":"สมุทรปราการ","district":"พระประแดง","subdistrict":"บางครุ","industryType":"ผสมน้ำมันหล่อลื่น","status":"ดำเนินกิจการ","lat":13.6412666666667,"lon":100.52935},"20110100925380":{"id":"20110100925380","name":"บริษัท แอล เอส พลาสติก จำกัด","owner":"บริษัท แอล เอส พลาสติก จำกัด","displayRegistration":"จ3-53(4)-9/38สป","province":"สมุทรปราการ","district":"พระประแดง","subdistrict":"บางจาก","industryType":"ทำถุงพลาสติก","status":"ดำเนินกิจการ","lat":13.6077595,"lon":100.5353221},"10110500225391":{"id":"10110500225391","name":"บริษัท พานาโซนิค ออโต้โมทีฟ ซิสเต็มส์ เอเชีย แปซิฟิค จำกัด","owner":"บริษัท พานาโซนิค ออโต้โมทีฟ ซิสเต็มส์ เอเชีย แปซิฟิค จำกัด","displayRegistration":"3-72-2/39สป","province":"สมุทรปราการ","district":"บางเสาธง","subdistrict":"บางเสาธง","industryType":"ผลิตแผ่นพิมพ์วงจรไฟฟ้าและชิ้นส่วนอิเล็คทรอนิคส์","status":"ดำเนินกิจการ","lat":13.5680833333333,"lon":100.825233333333},"20110002725383":{"id":"20110002725383","name":"-","owner":"นางนุชนารถ วสุรัตน์","displayRegistration":"จ3-64(13)-27/38สป","province":"สมุทรปราการ","district":"บางพลี","subdistrict":"ราชาเทวะ","industryType":"กลึง เจาะ คว้าน กัด ไส เจียน และเชื่อมโลหะทั่วไป","status":"ดำเนินกิจการ","lat":13.71645,"lon":100.736183333333},"20110400325398":{"id":"20110400325398","name":"บริษัท ชัยวัฒนา วัสดุภัณฑ์ จำกัด","owner":"บริษัท ชัยวัฒนา วัสดุภัณฑ์ จำกัด","displayRegistration":"จ3-58(1)-3/39สป","province":"สมุทรปราการ","district":"บางพลี","subdistrict":"ราชาเทวะ","industryType":"ผลิตคอนกรีตผสมเสร็จและผลิตภัณฑ์คอนกรีต เช่น แผ่นพื้น ท่อ เสาเข็ม","status":"ดำเนินกิจการ","lat":13.702878,"lon":100.733569},"20111000225384":{"id":"20111000225384","name":"ห้างหุ้นส่วนจำกัด เอ็กซ์ตร้า เรซิ่น","owner":"ห้างหุ้นส่วนจำกัด เอ็กซ์ตร้า เรซิ่น","displayRegistration":"จ3-53(5)-2/38สป","province":"สมุทรปราการ","district":"เมืองสมุทรปราการ","subdistrict":"แพรกษา","industryType":"ทำพลาสติกเม็ด จากพลาสติกใหม่","status":"ดำเนินกิจการ","lat":13.5795166666667,"lon":100.632116666667},"20110100125379":{"id":"20110100125379","name":"บริษัท เอ-แซด กรุ๊ป จำกัด","owner":"บริษัท เอ-แซด กรุ๊ป จำกัด","displayRegistration":"จ3-6(2)-1/37สป","province":"สมุทรปราการ","district":"บางพลี","subdistrict":"ราชาเทวะ","industryType":"ผลิตอาหารทะเลสำเร็จรูป","status":"ดำเนินกิจการ","lat":13.7124,"lon":100.7335},"10110700125391":{"id":"10110700125391","name":"บริษัท ปิยะกิจ โฟม สยามจำกัด","owner":"บริษัท ปิยะกิจ โฟม สยามจำกัด","displayRegistration":"3-53(5)-1/39สป","province":"สมุทรปราการ","district":"บางพลี","subdistrict":"บางพลีใหญ่","industryType":"ทำผลิตภัณฑ์โฟมเกรดพี เช่น แผ่นโฟมและภาชนะบรรจุ","status":"ดำเนินกิจการ","lat":13.608305,"lon":100.685646},"10110300225393":{"id":"10110300225393","name":"บริษัท ที.ดี.ซี.สตีลกรุ๊ป จำกัด","owner":"บริษัท ที.ดี.ซี.สตีลกรุ๊ป จำกัด","displayRegistration":"3-59-2/39สป","province":"สมุทรปราการ","district":"เมืองสมุทรปราการ","subdistrict":"แพรกษา","industryType":"ผลิตเหล็กเส้นสริมคอนกรีตชนิดเหล็กเส้นกลม-เหล็กข้ออ้อย และ เหล็กรูปพรรณ ได้ปีละ 28,000 ตัน (จำนวน 1 สายการผลิต)","status":"ดำเนินกิจการ","lat":13.5577,"lon":100.677433333333},"20110900225395":{"id":"20110900225395","name":"บริษัท ซีเอสพี สตีลเซ็นเตอร์ จำกัด (มหาชน)","owner":"บริษัท ซีเอสพี สตีลเซ็นเตอร์ จำกัด (มหาชน)","displayRegistration":"จ3-64(12)-2/39สป","province":"สมุทรปราการ","district":"พระสมุทรเจดีย์","subdistrict":"ในคลองบางปลากด","industryType":"เกี่ยวกับผลิตภัณฑ์โลหะ เช่น ตัด พับ หรือม้วนโลหะ","status":"ดำเนินกิจการ","lat":13.5949666666667,"lon":100.525483333333},"20110002525387":{"id":"20110002525387","name":"ห้างหุ้นส่วนจำกัด โชคถาวร เอ็นจิเนียริ่ง","owner":"ห้างหุ้นส่วนจำกัด โชคถาวร เอ็นจิเนียริ่ง","displayRegistration":"จ3-64(13)-25/38สป","province":"สมุทรปราการ","district":"พระสมุทรเจดีย์","subdistrict":"ปากคลองบางปลากด","industryType":"กลึง เชื่อมโลหะทั่วไป","status":"ดำเนินกิจการ","lat":13.6039666666667,"lon":100.551083333333},"20111500225397":{"id":"20111500225397","name":"ห้างหุ้นส่วนจำกัด ธนัตถ์ การ์เม้นท์ แฟคตอรี่","owner":"ห้างหุ้นส่วนจำกัด ธนัตถ์ การ์เม้นท์ แฟคตอรี่","displayRegistration":"จ2-28(1)-2/39สป","province":"สมุทรปราการ","district":"เมืองสมุทรปราการ","subdistrict":"ท้ายบ้านใหม่","industryType":"รับจ้างตัดเย็บเสื้อผ้า","status":"ดำเนินกิจการ","lat":13.5673666666667,"lon":100.609616666667},"20110201025395":{"id":"20110201025395","name":"บริษัท กุลวัฒน์ เอ็นจิเนียริ่ง จำกัด","owner":"บริษัท กุลวัฒน์ เอ็นจิเนียริ่ง จำกัด","displayRegistration":"จ3-64(13)-10/39สป","province":"สมุทรปราการ","district":"พระสมุทรเจดีย์","subdistrict":"บ้านคลองสวน","industryType":"กลึง เจาะ คว้าน กัด ไส เจียน เชื่อมโลหะทั่วไป","status":"ดำเนินกิจการ","lat":13.606407,"lon":100.501659},"20111400125390":{"id":"20111400125390","name":"บริษัท พงษ์ไพศาลอุตสาหกรรม จำกัด","owner":"บริษัท พงษ์ไพศาลอุตสาหกรรม จำกัด","displayRegistration":"จ3-63(1)-1/39สป","province":"สมุทรปราการ","district":"บางพลี","subdistrict":"บางปลา","industryType":"กลึง เชื่อม แปรรูปโลหะ ผลิตเครื่องสูบน้ำและทำส่วนประกอบสำหรับใช้ในการก่อสร้าง","status":"ดำเนินกิจการ","lat":13.59405,"lon":100.76095},"20110300425397":{"id":"20110300425397","name":"บริษัท ยูไนเต็ด แพ็ค จำกัด","owner":"บริษัท ยูไนเต็ด แพ็ค จำกัด","displayRegistration":"จ3-53(4)-4/39สป","province":"สมุทรปราการ","district":"พระสมุทรเจดีย์","subdistrict":"ปากคลองบางปลากด","industryType":"ผลิตถุงพลาสติก","status":"ดำเนินกิจการ","lat":13.5884333333333,"lon":100.544366666667},"20113000125382":{"id":"20113000125382","name":"บริษัท เอส.เค.ไอ. จำกัด","owner":"บริษัท เอส.เค.ไอ. จำกัด","displayRegistration":"จ3-70-1/38สป","province":"สมุทรปราการ","district":"บางเสาธง","subdistrict":"บางเสาธง","industryType":"ผลิตและประกอบพัดลมและอุปกรณ์ปัดน้ำฝนรถยนต์","status":"ดำเนินกิจการ","lat":13.57685,"lon":100.785383333333},"00110300125363":{"id":"00110300125363","name":"บริษัท นูบูน จำกัด","owner":"บริษัท นูบูน จำกัด","displayRegistration":"ศ3-8(1)-1/36สป","province":"สมุทรปราการ","district":"บางพลี","subdistrict":"ราชาเทวะ","industryType":"ผลิตน้ำผลไม้ น้ำชา ชานม กาแฟ กาแฟนม บรรจุขวดหรือกระป๋อง","status":"ดำเนินกิจการ","lat":13.67275,"lon":100.723716666667},"10111200125394":{"id":"10111200125394","name":"บริษัท ศรีศุภฤกษ์ อุตสาหกรรม จำกัด","owner":"บริษัท ศรีศุภฤกษ์ อุตสาหกรรม จำกัด","displayRegistration":"3-64(13)-1/39สป","province":"สมุทรปราการ","district":"พระประแดง","subdistrict":"สำโรง","industryType":"ทำแม่พิมพ์รองเท้า และชิ้นส่วนรองเท้า","status":"ดำเนินกิจการ","lat":13.658565,"lon":100.577903},"20110400825389":{"id":"20110400825389","name":"บริษัท สมบูรณ์ ฟอร์จจิ้ง เทคโนโลยี จำกัด","owner":"บริษัท สมบูรณ์ ฟอร์จจิ้ง เทคโนโลยี จำกัด","displayRegistration":"จ3-77(2)-8/38สป","province":"สมุทรปราการ","district":"บางพลี","subdistrict":"บางโฉลง","industryType":"ผลิตชิ้นส่วนสำหรับรถยนต์ เช่น เพลาข้าง, ส่วนประกอบเพลากลาง,เฟือง,เกียร์ ฯลฯ","status":"ดำเนินกิจการ","lat":13.6217833333333,"lon":100.7336},"20110400725381":{"id":"20110400725381","name":"บริษัท ออโตโมทีฟโปรดัคส์อิมปอร์ต แอนด์ เอ็กซ์ปอร์ตเซ็นเตอร์ จำกัด","owner":"บริษัท ออโตโมทีฟโปรดัคส์อิมปอร์ต แอนด์ เอ็กซ์ปอร์ตเซ็นเตอร์ จำกัด","displayRegistration":"จ3-77(2)-7/38สป","province":"สมุทรปราการ","district":"บางพลี","subdistrict":"บางโฉลง","industryType":"ทำชิ้นส่วนรถยนต์ เช่น EXHAUST,DRUM BRAKE,FLY WHEEL,PULLEY,HUB ฯลฯ","status":"หยุดชั่วคราว","lat":13.6217833333333,"lon":100.7336},"20110000725351":{"id":"20110000725351","name":"บริษัท ที เจ อินเตอร์เนชั่นแนล จำกัด","owner":"บริษัท ที เจ อินเตอร์เนชั่นแนล จำกัด","displayRegistration":"จ3-28(1)-7/35สป","province":"สมุทรปราการ","district":"เมืองสมุทรปราการ","subdistrict":"สำโรงเหนือ","industryType":"ตัดเย็บเสื้อผ้าสำเร็จรูป","status":"ดำเนินกิจการ","lat":13.6394666666667,"lon":100.61235},"20110100725392":{"id":"20110100725392","name":"บริษัท ตากสินพลาสติก จำกัด","owner":"บริษัท ตากสินพลาสติก จำกัด","displayRegistration":"จ3-53(1)-7/39สป","province":"สมุทรปราการ","district":"พระสมุทรเจดีย์","subdistrict":"ในคลองบางปลากด","industryType":"ผลิตของใช้ต่าง ๆ ด้วยพลาสติกและทำแม่พิมพ์โลหะ","status":"ดำเนินกิจการ","lat":13.5813,"lon":100.526516666667},"10110500125393":{"id":"10110500125393","name":"บริษัท เจริญมั่นคง จำกัด","owner":"บริษัท เจริญมั่นคง จำกัด","displayRegistration":"3-50(4)-1/39สป","province":"สมุทรปราการ","district":"เมืองสมุทรปราการ","subdistrict":"ปากน้ำ","industryType":"แบ่งบรรจุน้ำมันหล่อลื่น","status":"ดำเนินกิจการ","lat":13.58265,"lon":100.59395},"20110001125395":{"id":"20110001125395","name":"บริษัท ซี.เอช.ที.อินดัสเตรียล จำกัด","owner":"นางนุชนาถ วสุรัตน์","displayRegistration":"จ3-53(1)-11/39สป","province":"สมุทรปราการ","district":"บางพลี","subdistrict":"ราชาเทวะ","industryType":"รับจ้างผลิตชิ้นส่วนพลาสติก เช่น อะไหล่มู่ลี่","status":"ดำเนินกิจการ","lat":13.7124166666667,"lon":100.733483333333},"20110500925394":{"id":"20110500925394","name":"บริษัท เจ.บี.พี. (1995) เซอร์วิส จำกัด","owner":"บริษัท เจ.บี.พี. (1995) เซอร์วิส จำกัด","displayRegistration":"จ3-95(1)-9/39สป","province":"สมุทรปราการ","district":"เมืองสมุทรปราการ","subdistrict":"สำโรงเหนือ","industryType":"ซ่อม-เคาะพ่นสีรถยนต์","status":"ดำเนินกิจการ","lat":13.6433333333333,"lon":100.629866666667},"20111900125395":{"id":"20111900125395","name":"บริษัท แชมป์ อินดัสตรี จำกัด","owner":"บริษัท แชมป์ อินดัสตรี จำกัด","displayRegistration":"จ3-77(2)-1/39สป","province":"สมุทรปราการ","district":"บางเสาธง","subdistrict":"บางเสาธง","industryType":"รับจ้างทำชิ้นส่วนหรืออุปกรณ์จักรยาน จักรยานยนต์ และรถยนต์","status":"ดำเนินกิจการ","lat":13.5835166666667,"lon":100.774833333333},"10111300125393":{"id":"10111300125393","name":"บริษัท โตโยต้า มอเตอร์ ประเทศไทย จำกัด","owner":"บริษัท โตโยต้า มอเตอร์ ประเทศไทย จำกัด","displayRegistration":"3-67(7)-1/39สป","province":"สมุทรปราการ","district":"พระประแดง","subdistrict":"สำโรงใต้","industryType":"ผลิตแม่พิมพ์ปั้มตัวถังรถยนต์","status":"ดำเนินกิจการ","lat":13.6355,"lon":100.589216666667},"20110001325383":{"id":"20110001325383","name":"บริษัท ชัยวรรณโลหะภัณฑ์ จำกัด","owner":"บริษัท ชัยวรรณโลหะภัณฑ์ จำกัด","displayRegistration":"จ3-64(13)-13/38สป","province":"สมุทรปราการ","district":"พระประแดง","subdistrict":"สำโรงกลาง","industryType":"รับจ้าง กลึง เชื่อม เจาะ ไสและปั๊มโลหะทั่วไป","status":"ดำเนินกิจการ","lat":13.6474166666667,"lon":100.586183333333},"20110300925396":{"id":"20110300925396","name":"บริษัท เบสท์เอ็นจิเนียริ่ง เซอร์วิส จำกัด","owner":"บริษัท เบสท์เอ็นจิเนียริ่ง เซอร์วิส จำกัด","displayRegistration":"จ3-64(13)-9/39สป","province":"สมุทรปราการ","district":"บางเสาธง","subdistrict":"บางเสาธง","industryType":"กลึง-เชื่อมโลหะ, ทำชิ้นส่วนและอุปกรณ์ของผลิตภัณฑ์โลหะ","status":"ดำเนินกิจการ","lat":13.5880666666667,"lon":100.815083333333},"20111300125391":{"id":"20111300125391","name":"บริษัท ไทยอินเตอร์แมท จำกัด","owner":"บริษัท ไทยอินเตอร์แมท จำกัด","displayRegistration":"จ3-61-1/39สป","province":"สมุทรปราการ","district":"บางพลี","subdistrict":"ราชาเทวะ","industryType":"ผลิต ตกแต่ง ดัดแปลง หรือซ่อมแซมเครื่องมือ เครื่องใช้ที่ทำด้วยเหล็กหรือเหล็กกล้า และอุปกรณ์ของเครื่องมือเครื่องใช้ เพื่อใช้ในโรงงาน รวมทั้งงานเคลือบและพ่นสี","status":"ดำเนินกิจการ","lat":13.70235,"lon":100.733933333333},"20110300525386":{"id":"20110300525386","name":"บริษัท สาฮะ แอนด์ ซันส์ พริ้นติ้ง จำกัด","owner":"บริษัท สาฮะ แอนด์ ซันส์ พริ้นติ้ง จำกัด","displayRegistration":"จ3-41(1)-5/38สป","province":"สมุทรปราการ","district":"บางพลี","subdistrict":"บางโฉลง","industryType":"พิมพ์สิ่งพิมพ์ต่าง ๆ และทำกล่องกระดาษ","status":"ดำเนินกิจการ","lat":13.6213166666667,"lon":100.756316666667},"20111200225382":{"id":"20111200225382","name":"บริษัท ดี.ที.เอส.อุตสาหกรรม จำกัด","owner":"บริษัท ดี.ที.เอส.อุตสาหกรรม จำกัด","displayRegistration":"จ3-59-2/38สป","province":"สมุทรปราการ","district":"บางพลี","subdistrict":"บางปลา","industryType":"รีดลดขนาดเส้นลวดเหล็กเพื่อทำตะปู","status":"ดำเนินกิจการ","lat":13.5712666666667,"lon":100.726416666667},"20110003625392":{"id":"20110003625392","name":"NULL","owner":"นางราตรี พุ่มเจริญ","displayRegistration":"จ3-64(13)-36/39สป","province":"สมุทรปราการ","district":"พระสมุทรเจดีย์","subdistrict":"บ้านคลองสวน","industryType":"กลึง เชื่อม ตัด พับ เจาะ ไสโลหะเพื่อทำชิ้นส่วนอะไหล่เครื่องจ","status":"ดำเนินกิจการ","lat":13.5793666666667,"lon":100.470183333333},"20111500325361":{"id":"20111500325361","name":"บริษัท ราชาไซเคิล จำกัด","owner":"บริษัท ราชาไซเคิล จำกัด","displayRegistration":"จ3-78(2)-3/36สป","province":"สมุทรปราการ","district":"เมืองสมุทรปราการ","subdistrict":"แพรกษาใหม่","industryType":"ดัดแปลงหรือเปลี่ยนสภาพรถจักรยานสองล้อหรือสามล้อ รถจักรยานยนต์ไฟฟ้า รวมทั้งการผลิตชิ้นส่วนอุปกรณ์ของผลิตภัณฑ์ดังกล่าว","status":"ดำเนินกิจการ","lat":13.574014,"lon":100.694327},"20111000425364":{"id":"20111000425364","name":"ห้างหุ้นส่วนจำกัด ราชาวิศวกรรมจักรกล","owner":"ห้างหุ้นส่วนจำกัด ราชาวิศวกรรมจักรกล","displayRegistration":"จ3-61-4/36สป","province":"สมุทรปราการ","district":"เมืองสมุทรปราการ","subdistrict":"แพรกษาใหม่","industryType":"ผลิต ดัดแปลง หรือซ่อมแซมเครื่องมือหรือเครื่องใช้ที่ทำด้วย เหล็ก","status":"ดำเนินกิจการ","lat":13.5743166666667,"lon":100.6957},"20111000425380":{"id":"20111000425380","name":"บริษัท บุญอินกิจไพศาล จำกัด","owner":"บริษัท บุญอินกิจไพศาล จำกัด","displayRegistration":"จ3-74(3)-4/38สป","province":"สมุทรปราการ","district":"พระประแดง","subdistrict":"บางจาก","industryType":"ทำอุปกรณ์ไฟฟ้า เช่น สะพานไฟฟ้า","status":"ดำเนินกิจการ","lat":13.6155666666667,"lon":100.527716666667},"20110400425396":{"id":"20110400425396","name":"NULL","owner":"นายโชคชัย สุธรรมดิลก","displayRegistration":"จ3-61-4/39สป","province":"สมุทรปราการ","district":"บางเสาธง","subdistrict":"บางเสาธง","industryType":"ผลิตอุปกรณ์เครื่องเหล็กประมงและอุปกรณ์เครื่องเหล็กอื่น ๆ","status":"ดำเนินกิจการ","lat":13.5776666666667,"lon":100.779466666667},"20111100125393":{"id":"20111100125393","name":"บริษัท ธีรราช อินดัสทรี จำกัด","owner":"บริษัท ธีรราช อินดัสทรี จำกัด","displayRegistration":"จ3-53(7)-1/39สป","province":"สมุทรปราการ","district":"พระประแดง","subdistrict":"บางจาก","industryType":"ผลิตรองเท้าแตะฟองน้ำทุกชนิด","status":"ดำเนินกิจการ","lat":13.6016,"lon":100.528516666667},"10110100225395":{"id":"10110100225395","name":"บริษัท แฟร์เท็กซ์ไทล์ แอนด์ ลอจีสติกส์ (ประเทศไทย) จำกัด","owner":"บริษัท แฟร์เท็กซ์ไทล์ แอนด์ ลอจีสติกส์ (ประเทศไทย) จำกัด","displayRegistration":"3-22(3)-2/39สป","province":"สมุทรปราการ","district":"เมืองสมุทรปราการ","subdistrict":"ท้ายบ้านใหม่","industryType":"ฟอกย้อมเส้นด้ายและผ้า","status":"ดำเนินกิจการ","lat":13.579108,"lon":100.624766},"10110300125395":{"id":"10110300125395","name":"บริษัท วีเทค แฟคทอรี จำกัด","owner":"บริษัท วีเทค แฟคทอรี จำกัด","displayRegistration":"3-22(4)-1/39สป","province":"สมุทรปราการ","district":"เมืองสมุทรปราการ","subdistrict":"บางปูใหม่","industryType":"พิมพ์ผ้า ได้ปีละ 2,400,000 หลา","status":"ดำเนินกิจการ","lat":13.52755,"lon":100.623466666667},"10110000125398":{"id":"10110000125398","name":"บริษัท วุฒิชัยโปรดิวส์ จำกัด","owner":"บริษัท วุฒิชัยโปรดิวส์ จำกัด","displayRegistration":"3-9(1)-1/39สป","province":"สมุทรปราการ","district":"บางเสาธง","subdistrict":"บางเสาธง","industryType":"คัดข้าวและแบ่งบรรจุข้าว","status":"ดำเนินกิจการ","lat":13.56596667,"lon":100.7802833},"10110700125409":{"id":"10110700125409","name":"บริษัท ไทยศิริมิตรการยาง จำกัด","owner":"บริษัท ไทยศิริมิตรการยาง จำกัด","displayRegistration":"3-52(4)-1/40สป","province":"สมุทรปราการ","district":"พระสมุทรเจดีย์","subdistrict":"ในคลองบางปลากด","industryType":"ทำลูกกลิ้งยางของเครื่องพิมพ์และผลิตภัณฑ์ยางต่าง ๆ","status":"ดำเนินกิจการ","lat":13.60239,"lon":100.67154},"20110700425393":{"id":"20110700425393","name":"ห้างหุ้นส่วนจำกัด บี.แอนด์ แอล.มอเตอร์เวอร์ค","owner":"ห้างหุ้นส่วนจำกัด บี.แอนด์ แอล.มอเตอร์เวอร์ค","displayRegistration":"จ3-95(1)-4/39สป","province":"สมุทรปราการ","district":"พระประแดง","subdistrict":"สำโรง","industryType":"ซ่อมรถยนต์","status":"ดำเนินกิจการ","lat":13.6601,"lon":100.59285},"20110100925398":{"id":"20110100925398","name":"บริษัท เอ-คอน คอนกรีต จำกัด","owner":"บริษัท เอ-คอน คอนกรีต จำกัด","displayRegistration":"จ3-58(1)-9/39สป","province":"สมุทรปราการ","district":"เมืองสมุทรปราการ","subdistrict":"แพรกษา","industryType":"ทำผลิตภัณฑ์คอนกรีต เช่น ท่อระบายน้ำ","status":"หยุดชั่วคราว","lat":13.56885,"lon":100.690716666667},"20111300125409":{"id":"20111300125409","name":"ห้างแหลมทองคุรุภัณฑ์","owner":"นายจือเยี้ยง แซ่ลี้","displayRegistration":"จ3-64(13)-1/40สป","province":"สมุทรปราการ","district":"พระสมุทรเจดีย์","subdistrict":"ปากคลองบางปลากด","industryType":"รับจ้างเจาะ เจียร เชื่อมโลหะและซ่อมเครื่องมือเครื่องใช้","status":"ดำเนินกิจการ","lat":13.5898833333333,"lon":100.531883333333},"20110002225384":{"id":"20110002225384","name":"บริษัท อินเตอร์พลาม่า(ประเทศไทย) จำกัด","owner":"บริษัท อินเตอร์พลาม่า(ประเทศไทย) จำกัด","displayRegistration":"จ3-53(1)-22/38สป","province":"สมุทรปราการ","district":"บางพลี","subdistrict":"บางพลีใหญ่","industryType":"ผลิตของเล่นเด็กและของใช้จากพลาสติก","status":"ดำเนินกิจการ","lat":13.604645,"lon":100.677844},"20110200625393":{"id":"20110200625393","name":"บริษัท ไทยแน็ก อินดัสตรี้ส์ จำกัด","owner":"บริษัท ไทยแน็ก อินดัสตรี้ส์ จำกัด","displayRegistration":"จ3-53(1)-6/39สป","province":"สมุทรปราการ","district":"บางพลี","subdistrict":"บางปลา","industryType":"รับจ้างผลิตผลิตภัณฑ์สำหรับใช้เป็นฉนวนและผลิตภัณฑ์ยางสังเคราะห์","status":"ดำเนินกิจการ","lat":13.5962333333333,"lon":100.732516666667},"20110401225399":{"id":"20110401225399","name":"บริษัท บางพลี ฮอนด้า ออโตโมบิล จำกัด","owner":"บริษัท บางพลี ฮอนด้า ออโตโมบิล จำกัด","displayRegistration":"จ3-95(1)-12/39สป","province":"สมุทรปราการ","district":"บางพลี","subdistrict":"บางพลีใหญ่","industryType":"ซ่อมและตรวจสอบรถยนต์","status":"ดำเนินกิจการ","lat":13.6407833333333,"lon":100.699483333333},"20111800225360":{"id":"20111800225360","name":"บริษัท โรงงานก้องกิจเจริญ จำกัด","owner":"บริษัท โรงงานก้องกิจเจริญ จำกัด","displayRegistration":"จ3-64(10)-2/36สป","province":"สมุทรปราการ","district":"บางพลี","subdistrict":"บางพลีใหญ่","industryType":"ชุบโลหะ โครเมี่ยม นิเกิ้ล","status":"ดำเนินกิจการ","lat":13.61215,"lon":100.696583333333},"20113800125384":{"id":"20113800125384","name":"บริษัท แบล็คแจ็ค อินดัสเตรียล จำกัด","owner":"บริษัท แบล็คแจ็ค อินดัสเตรียล จำกัด","displayRegistration":"จ3-100(1)-1/38สป","province":"สมุทรปราการ","district":"บางเสาธง","subdistrict":"บางเสาธง","industryType":"รับจ้างชุบเคลือบสีชิ้นงาน โลหะต่าง ๆ เช่น เครื่องมือ เฟอร์นิเจอร์ ชิ้นส่วนรถจักรยานยนต์ จักรยานและอื่น ๆ","status":"ดำเนินกิจการ","lat":13.5653833333333,"lon":100.811566666667},"20110101325390":{"id":"20110101325390","name":"บริษัท บางพลี ฮอนด้า ออโตโมบิล จำกัด","owner":"บริษัท บางพลี ฮอนด้า ออโตโมบิล จำกัด","displayRegistration":"จ3-95(1)-13/39สป","province":"สมุทรปราการ","district":"บางพลี","subdistrict":"บางพลีใหญ่","industryType":"ซ่อมและพ่นสีรถยนต์","status":"ดำเนินกิจการ","lat":13.6407833333333,"lon":100.699483333333},"20110500225399":{"id":"20110500225399","name":"บริษัท ปูนซิเมนต์ไทย (ท่าหลวง) จำกัด","owner":"บริษัท ปูนซิเมนต์ไทย (ท่าหลวง) จำกัด","displayRegistration":"จ3-58(1)-2/39สป","province":"สมุทรปราการ","district":"บางบ่อ","subdistrict":"บางเพรียง","industryType":"ผลิตคอนกรีตผสมเสร็จ","status":"ดำเนินกิจการ","lat":13.572,"lon":100.831183333333},"10111400125392":{"id":"10111400125392","name":"บริษัท เอส เอ็ม แอล อินดัสทรี จำกัด","owner":"บริษัท เอส เอ็ม แอล อินดัสทรี จำกัด","displayRegistration":"3-77(2)-1/39สป","province":"สมุทรปราการ","district":"บางเสาธง","subdistrict":"บางเสาธง","industryType":"ผลิตโครงเบาะรถยนต์และชิ้นส่วนภายในรถยนต์ที่เป็นโลหะ","status":"ดำเนินกิจการ","lat":13.58175,"lon":100.7776},"20111600125398":{"id":"20111600125398","name":"บริษัท ชูไก จำกัด (มหาชน)","owner":"บริษัท ชูไก จำกัด (มหาชน)","displayRegistration":"จ3-65-1/39สป","province":"สมุทรปราการ","district":"บางพลี","subdistrict":"บางแก้ว","industryType":"ซ่อมและประกอบรถยนต์ รถเครน รถยก รถเทเลอร์ รถแทรกเตอร์","status":"ดำเนินกิจการ","lat":13.6583833333333,"lon":100.677433333333},"20110600925369":{"id":"20110600925369","name":"ห้างหุ้นส่วนจำกัด พูลธนาเทคโนโลยี่ แอนด์ ซัพพลายน์","owner":"ห้างหุ้นส่วนจำกัด พูลธนาเทคโนโลยี่ แอนด์ ซัพพลายน์","displayRegistration":"จ3-68-9/36สป","province":"สมุทรปราการ","district":"บางพลี","subdistrict":"บางโฉลง","industryType":"ทำเครื่องตรวจสอบคอนกรีต,กล้องสำรวจ","status":"ดำเนินกิจการ","lat":13.6134333333333,"lon":100.76185},"20110400625391":{"id":"20110400625391","name":"ห้างหุ้นส่วนจำกัด เหลืองทองการช่าง","owner":"ห้างหุ้นส่วนจำกัด เหลืองทองการช่าง","displayRegistration":"จ3-64(13)-6/39สป","province":"สมุทรปราการ","district":"บางพลี","subdistrict":"ราชาเทวะ","industryType":"กลึงน๊อต สกรู บูช แหวน สลัก เกลียว","status":"ดำเนินกิจการ","lat":13.66485,"lon":100.716633333333},"91070000125404":{"id":"91070000125404","name":"บริษัท เอเซียน แอดวานซ์ ออลล์ สตีล จำกัด","owner":"บริษัท เอเซียน แอดวานซ์ ออลล์ สตีล จำกัด","displayRegistration":"ข3-59-1/40สป","province":"สมุทรปราการ","district":"พระสมุทรเจดีย์","subdistrict":"ปากคลองบางปลากด","industryType":"ผลิตเหล็กเส้นเสริมคอนกรีตชนิดเหล็กเส้นกลม และเหล็กข้ออ้อย จำนวน 2 สายการผลิต","status":"ดำเนินกิจการ","lat":13.5974666666667,"lon":100.56215},"20110200425398":{"id":"20110200425398","name":"บริษัท เจริญรัตน์ พลาสติกไทย จำกัด","owner":"บริษัท เจริญรัตน์ พลาสติกไทย จำกัด","displayRegistration":"จ3-53(1)-4/39สป","province":"สมุทรปราการ","district":"เมืองสมุทรปราการ","subdistrict":"แพรกษาใหม่","industryType":"ทำผลิตภัณฑ์พลาสติกเช่น ชิ้นส่วนเครื่องไฟฟ้า ชิ้นส่วนเครื่อง เรือน ชิ้นส่วนเครื่องใช้","status":"ดำเนินกิจการ","lat":13.5935833333333,"lon":100.670016666667},"10110600225390":{"id":"10110600225390","name":"บริษัท ไทยไฟเบอร์ออพติคส จำกัด","owner":"บริษัท ไทยไฟเบอร์ออพติคส์ จำกัด","displayRegistration":"3-74(2)-2/39สป","province":"สมุทรปราการ","district":"พระสมุทรเจดีย์","subdistrict":"ปากคลองบางปลากด","industryType":"ผลิตเคเบิ้ลใยแก้วนำแสง (Fiber Optic Cable)","status":"ดำเนินกิจการ","lat":13.59805,"lon":100.529483333333},"20110001825382":{"id":"20110001825382","name":"บริษัท สุพรีม พลาสติก อินดัสตรี้","owner":"บริษัท สพรีม พลาสติก อินดัสตรี้ จำกัด","displayRegistration":"จ3-53(4)-18/38สป","province":"สมุทรปราการ","district":"เมืองสมุทรปราการ","subdistrict":"เทพารักษ์","industryType":"ทำผลิตภัณฑ์พลาสติก เช่นถุงพลาสติก","status":"ดำเนินกิจการ","lat":13.6304333333333,"lon":100.600333333333},"20110000325392":{"id":"20110000325392","name":"บริษัท เลดี้เบิร์ดการ์เม้นท์ จำกัด","owner":"บริษัท เลดี้เบิร์ดการ์เม้นท์ จำกัด","displayRegistration":"จ3-28(1)-3/39สป","province":"สมุทรปราการ","district":"บางพลี","subdistrict":"ราชาเทวะ","industryType":"ตัดเย็บเสื้อผ้าสำเร็จรูป,ถักผ้ายืด","status":"ดำเนินกิจการ","lat":13.672953,"lon":100.716799},"20110500725364":{"id":"20110500725364","name":"บริษัท เค.เคนซ่า 1993(ประเทศไทย) จำกัด","owner":"บริษัท เค.เคนซ่า 1993(ประเทศไทย) จำกัด","displayRegistration":"จ3-61-7/36สป","province":"สมุทรปราการ","district":"พระสมุทรเจดีย์","subdistrict":"ในคลองบางปลากด","industryType":"ทำเครื่องใช้ที่ทำด้วยเหล็กหรือเหล็กกล้าเช่นบานพับ รางเลื่อน ทำอุปกรณ์ทำเกลียวภายในแม่พิมพ์โลหะ","status":"ดำเนินกิจการ","lat":13.5905833333333,"lon":100.54415},"20110400925395":{"id":"20110400925395","name":"บริษัท ควอลิตี้ ออโต้ โปรดักส์ จำกัด","owner":"บริษัท ควอลิตี้ ออโต้ โปรดักส์ จำกัด","displayRegistration":"จ3-77(2)-9/39สป","province":"สมุทรปราการ","district":"บางพลี","subdistrict":"บางพลีใหญ่","industryType":"ประกอบชุดสายไฟฟ้าสำหรับรถยนต์,สายแบตเตอร์รี่","status":"ดำเนินกิจการ","lat":13.6176666666667,"lon":100.70365},"20111100225383":{"id":"20111100225383","name":"บริษัท วิคตอรี่แมชชินเนอร์รี่ จำกัด","owner":"บริษัท วิคตอรี่แมชชินเนอร์รี่ จำกัด","displayRegistration":"จ3-55-2/38สป","province":"สมุทรปราการ","district":"บางพลี","subdistrict":"ราชาเทวะ","industryType":"ทำผลิตภัณฑ์เซรามิค เช่นถ้วยไฟฟ้าแรงสูง ถ้วย ชาม","status":"ดำเนินกิจการ","lat":13.6319666666667,"lon":100.720516666667},"20110500125367":{"id":"20110500125367","name":"NULL","owner":"นายสุทัศน์ ฐิติปุญญา","displayRegistration":"จ3-15(2)-1/36สป","province":"สมุทรปราการ","district":"เมืองสมุทรปราการ","subdistrict":"ท้ายบ้าน","industryType":"บดเปลือกหอยและกุ้งสำหรับผสมเป็นอาหารสัตว์","status":"หยุดชั่วคราว","lat":13.5522,"lon":100.5941},"20110300825398":{"id":"20110300825398","name":"บริษัท อะโคปอล จำกัด","owner":"บริษัท อะโคปอล จำกัด","displayRegistration":"จ3-72-8/39สป","province":"สมุทรปราการ","district":"บางพลี","subdistrict":"บางปลา","industryType":"ประกอบชิ้นส่วนอิเล็กทรอนิกส์หรือผลิตอุปกรณ์สำหรับใช้กับเครื่องอิเล็กทรอนิกส์เช่น โทรศัพท์ วิทยุสื่อสารแบบมือถือ","status":"ดำเนินกิจการ","lat":13.588943,"lon":100.722489},"20110001425399":{"id":"20110001425399","name":"บริษัท เจนเนอรัล พลาสติก แอนด์ เซลส์ จำกัด","owner":"บริษัท เจนเนอรัล พลาสติก แอนด์ เซลส์ จำกัด","displayRegistration":"จ3-53(4)-14/39สป","province":"สมุทรปราการ","district":"พระประแดง","subdistrict":"บางจาก","industryType":"ทำผลิตภัณฑ์พลาสติก เช่น ถุงพลาสติก","status":"ดำเนินกิจการ","lat":13.6036666666667,"lon":100.525666666667},"20110500425395":{"id":"20110500425395","name":"บริษัท พรีเมียร์ วินโดว์ จำกัด","owner":"บริษัท พรีเมียร์ วินโดว์ จำกัด","displayRegistration":"จ3-62-4/39สป","province":"สมุทรปราการ","district":"บางพลี","subdistrict":"บางโฉลง","industryType":"ผลิตเครื่องเรือนหรือเครื่องตกแต่งภายในอาคารที่ทำจากโลหะ","status":"ดำเนินกิจการ","lat":13.6239,"lon":100.748083333333},"20110002025396":{"id":"20110002025396","name":"บริษัท สแกนเนอร์ อิเลคทริค อินเตอร์เนชั่นแนล จำกัด","owner":"บริษัท สแกนเนอร์ อิเลคทริค อินเตอร์เนชั่นแนล จำกัด","displayRegistration":"จ3-53(1)-20/39สป","province":"สมุทรปราการ","district":"พระสมุทรเจดีย์","subdistrict":"บ้านคลองสวน","industryType":"รับจ้างฉีดพลาสติกเครื่องใช้ไฟฟ้าเช่น พัดลมดูดอากาศ หม้อหุงข้","status":"ดำเนินกิจการ","lat":13.5782333333333,"lon":100.48825},"20110003725390":{"id":"20110003725390","name":"บ.สแกนเนอร์อิเลคทริคอินเตอร์เนชั่นแนล จก","owner":"บริษัท สแกนเนอร์ อีเลคทริค อินเตอร์เนชั่นแนล จำกัด","displayRegistration":"จ3-64(13)-37/39สป","province":"สมุทรปราการ","district":"พระสมุทรเจดีย์","subdistrict":"บ้านคลองสวน","industryType":"กลึง เชื่อม ไสโลหะเพื่อทำอุปกรณ์เครื่องใช้ไฟฟ้า","status":"ดำเนินกิจการ","lat":13.5782333333333,"lon":100.48825},"20110400725399":{"id":"20110400725399","name":"บริษัท ซี เอ็น.เอ็น.พาร์ท จำกัด","owner":"บริษัท ซี เอ็น.เอ็น.พาร์ท จำกัด","displayRegistration":"จ3-77(2)-7/39สป","province":"สมุทรปราการ","district":"พระประแดง","subdistrict":"บางจาก","industryType":"รับจ้างผลิตชิ้นส่วนอะไหล่และอุปกรณ์เครื่องยนต์ รถยนต์","status":"ดำเนินกิจการ","lat":13.6060333333333,"lon":100.53295},"20110300225409":{"id":"20110300225409","name":"บริษัท ชัยเจริญ เอนจิเนียริ่ง แอนด์ ซัพพลาย จำกัด","owner":"บริษัท ชัยเจริญ เอนจิเนียริ่ง แอนด์ ซัพพลาย จำกัด","displayRegistration":"จ3-64(2)-2/40สป","province":"สมุทรปราการ","district":"เมืองสมุทรปราการ","subdistrict":"แพรกษา","industryType":"รับจ้างกลึง ไส ปั๊ม เชื่อมโลหะทั่วไป","status":"ดำเนินกิจการ","lat":13.572315,"lon":100.638194},"20110300125401":{"id":"20110300125401","name":"บริษัท นิวลี่ เว็ดส์ ฟู้ดส์ (ประเทศไทย) จำกัด","owner":"บริษัท นิวลี่ เว็ดส์ ฟู้ดส์ (ประเทศไทย) จำกัด","displayRegistration":"จ3-9(5)-1/40สป","province":"สมุทรปราการ","district":"บางเสาธง","subdistrict":"บางเสาธง","industryType":"ผลิตแป้งปรุงอาหารสำเร็จรูปและเกล็ดขนมปังป่น","status":"ดำเนินกิจการ","lat":13.5725,"lon":100.78405},"20110700425385":{"id":"20110700425385","name":"บริษัท ชูไก จำกัด","owner":"บริษัท ชูไก จำกัด","displayRegistration":"จ3-70-4/38สป","province":"สมุทรปราการ","district":"บางพลี","subdistrict":"บางแก้ว","industryType":"รับซ่อมรถบรรทุก รถเครน รถยก","status":"ดำเนินกิจการ","lat":13.6583833333333,"lon":100.677433333333},"20110005225399":{"id":"20110005225399","name":"ห้างหุ้นส่วนจำกัด รัฐวัฒน์การช่าง","owner":"ห้างหุ้นส่วนจำกัด รัฐวัฒน์การช่าง","displayRegistration":"จ3-64(13)-52/39สป","province":"สมุทรปราการ","district":"พระสมุทรเจดีย์","subdistrict":"ในคลองบางปลากด","industryType":"รับจ้างกลึง ปั๊ม เชื่อมโลหะเช่นสกูร สายร้อยข้อ ฯลฯ","status":"ดำเนินกิจการ","lat":13.58975,"lon":100.532133333333},"20110200325390":{"id":"20110200325390","name":"บริษัท ธนางกูร การพิมพ์ และบรรจุภัณฑ์ จำกัด","owner":"บริษัท ธนางกูร การพิมพ์ และบรรจุภัณฑ์ จำกัด","displayRegistration":"จ3-39-3/39สป","province":"สมุทรปราการ","district":"พระประแดง","subdistrict":"สำโรง","industryType":"ทำกล่องกระดาษและพิมพ์สิ่งพิมพ์ทุกชนิด","status":"ดำเนินกิจการ","lat":13.659348,"lon":100.580831},"20110500925386":{"id":"20110500925386","name":"บริษัท ส.ลิขิต ออโตพาร์ท อินดัสตรี จำกัด","owner":"บริษัท ส.ลิขิต ออโตพาร์ท อินดัสตรี จำกัด","displayRegistration":"จ3-77(2)-9/38สป","province":"สมุทรปราการ","district":"บางพลี","subdistrict":"ราชาเทวะ","industryType":"รับจ้างทำอุปกรณ์และชิ้นส่วนรถยนต์จากโลหะ","status":"ดำเนินกิจการ","lat":13.7198,"lon":100.717633333333},"20110003425397":{"id":"20110003425397","name":"NULL","owner":"นายอนันต์ ศรีสันติโรจน์","displayRegistration":"จ3-64(13)-34/39สป","province":"สมุทรปราการ","district":"เมืองสมุทรปราการ","subdistrict":"สำโรงเหนือ","industryType":"รับจ้างกลึง ไส ตัดและพับโลหะ","status":"ดำเนินกิจการ","lat":13.6497,"lon":100.610033333333},"20110000625395":{"id":"20110000625395","name":"บริษัท ยูนิคแพ็คเก็จจิ้ง(1993) จำกัด","owner":"บริษัท ยูนิคแพ็คเก็จจิ้ง(1993) จำกัด","displayRegistration":"จ3-39-6/39สป","province":"สมุทรปราการ","district":"บางเสาธง","subdistrict":"บางเสาธง","industryType":"รับจ้างทำกล่องกระดาษ","status":"ดำเนินกิจการ","lat":13.5838333333333,"lon":100.7709},"20110102125393":{"id":"20110102125393","name":"บริษัท ไชยาพรรณเอ็นจิเนียริ่ง จำกัด","owner":"บริษัท ไชยาพรรณเอ็นจิเนียริ่ง จำกัด","displayRegistration":"จ3-64(13)-21/39สป","province":"สมุทรปราการ","district":"บางพลี","subdistrict":"บางพลีใหญ่","industryType":"กลึง กัด ตัด ไส และเชื่อมโลหะ","status":"ดำเนินกิจการ","lat":13.6083333333333,"lon":100.707966666667},"10110300225401":{"id":"10110300225401","name":"บริษัท โฮฟ.ดี.เค.จำกัด","owner":"บริษัท โฮฟ ดี.เค จำกัด","displayRegistration":"3-37-2/40สป","province":"สมุทรปราการ","district":"เมืองสมุทรปราการ","subdistrict":"สำโรงเหนือ","industryType":"ทำเครื่องเรือนและชิ้นส่วนเครื่องเรือนจากไม้","status":"ดำเนินกิจการ","lat":13.6548,"lon":100.6172},"20111400125408":{"id":"20111400125408","name":"บริษัท เอ็ม.เอ็น.ออโตพาร์ท จำกัด","owner":"บริษัท เอ็ม.เอ็น.ออโตพาร์ท จำกัด","displayRegistration":"จ3-65-1/40สป","province":"สมุทรปราการ","district":"บางเสาธง","subdistrict":"บางเสาธง","industryType":"ทำชิ้นส่วนเครื่องจักร เครื่องยนต์และอุปกรณ์รถยนต์","status":"ดำเนินกิจการ","lat":13.5806666666667,"lon":100.776833333333},"20110201225391":{"id":"20110201225391","name":"บริษัท โอกาวา ฟอร์จิง (ประเทศไทย) จำกัด","owner":"บริษัท โอกาวา ฟอร์จิง (ประเทศไทย) จำกัด","displayRegistration":"จ3-64(2)-12/39สป","province":"สมุทรปราการ","district":"บางเสาธง","subdistrict":"บางเสาธง","industryType":"กลึง เชื่อม ไส ปั๊มโลหะ ตัด พับโลหะเพื่อทำอุปกรณ์อะไหล่","status":"ดำเนินกิจการ","lat":13.5741,"lon":100.778483333333},"20110001925364":{"id":"20110001925364","name":"บริษัท นำง่ายเฮง จำกัด","owner":"บริษัท นำง่ายฮง จำกัด","displayRegistration":"จ3-53(1)-19/36สป","province":"สมุทรปราการ","district":"เมืองสมุทรปราการ","subdistrict":"แพรกษา","industryType":"ทำผลิตภัณฑ์พลาสติก","status":"ดำเนินกิจการ","lat":13.57124486,"lon":100.689672},"20110400625383":{"id":"20110400625383","name":"บริษัท พีเค แอนด์ เอ็ม เทคนิเคิล เซลส์ แอนด์ เซอร์วิส จำกัด","owner":"บริษัท พีเค แอนด์ เอ็ม เทคนิเคิล เซลส์ แอนด์ เซอร์วิส จำกัด","displayRegistration":"จ3-74(3)-6/38สป","province":"สมุทรปราการ","district":"พระสมุทรเจดีย์","subdistrict":"ในคลองบางปลากด","industryType":"ทำตู้สวิตซ์ไฟฟ้าและรางวางสายไฟฟ้า","status":"ดำเนินกิจการ","lat":13.5884333333333,"lon":100.544366666667},"10110800125390":{"id":"10110800125390","name":"บริษัท ปูนซิเมนต์ไทย (ท่าหลวง) จำกัด","owner":"บริษัท ปูนซิเมนต์ไทย (ท่าหลวง) จำกัด","displayRegistration":"3-58(1)-1/39สป","province":"สมุทรปราการ","district":"พระสมุทรเจดีย์","subdistrict":"ในคลองบางปลากด","industryType":"ผลิตคอนกรีตผสมเสร็จ","status":"ดำเนินกิจการ","lat":13.6006833333333,"lon":100.556},"20111200225390":{"id":"20111200225390","name":"บริษัท ไดเชะกิรีด จำกัด","owner":"บริษัท ไดเชะกิรีด จำกัด","displayRegistration":"จ3-68-2/39สป","province":"สมุทรปราการ","district":"บางพลี","subdistrict":"บางพลีใหญ่","industryType":"รีดลวดเหล็กเพื่อทำหวีเครื่องทอผ้า","status":"ดำเนินกิจการ","lat":13.58835,"lon":100.70775},"20110300525394":{"id":"20110300525394","name":"บริษัท เคฟลาร์ จำกัด","owner":"บริษัท เคฟลาร์ จำกัด","displayRegistration":"จ3-77(2)-5/39สป","province":"สมุทรปราการ","district":"บางเสาธง","subdistrict":"บางเสาธง","industryType":"ทำชิ้นส่วนและอุปกรณ์สำหรับรถยนต์ เช่น ผ้าดิสเบรค","status":"ดำเนินกิจการ","lat":13.5879166666667,"lon":100.815316666667},"20110101625393":{"id":"20110101625393","name":"อู่รุ่งโรจน์ยนต์","owner":"นายวิโรจน์ เจริญวัฒนโยธิน","displayRegistration":"จ3-95(1)-16/39สป","province":"สมุทรปราการ","district":"เมืองสมุทรปราการ","subdistrict":"สำโรงเหนือ","industryType":"ปะผุซ่อมรถยนต์และเคาะพ่นสีรถยนต์","status":"ดำเนินกิจการ","lat":13.6352166666667,"lon":100.6203},"10110900125407":{"id":"10110900125407","name":"บริษัท ยูไนเต็ด เทคโนโลยี ดีเวลลอปเมนต์ จำกัด","owner":"บริษัท ยูไนเต็ด เทคโนโลยี ดีเวลลอปเมนต์ จำกัด","displayRegistration":"3-62-1/40สป","province":"สมุทรปราการ","district":"บางพลี","subdistrict":"ราชาเทวะ","industryType":"ทำเครื่องเรือนจากโลหะ และชิ้นส่วนเครื่องปรับอากาศ","status":"ดำเนินกิจการ","lat":13.6635166666667,"lon":100.718983333333},"10110600225408":{"id":"10110600225408","name":"บริษัท เฮง เฮงอุตสาหกรรม จำกัด","owner":"บริษัท เฮง เฮงอุตสาหกรรม จำกัด","displayRegistration":"3-62-2/40สป","province":"สมุทรปราการ","district":"เมืองสมุทรปราการ","subdistrict":"สำโรงเหนือ","industryType":"ตัดเหล็ก พับเหล็ก กลึง ไส เจียน เจาะ เพื่อทำเครื่องเรือนจากโลหะ","status":"ดำเนินกิจการ","lat":13.635,"lon":100.620733333333},"10111700125407":{"id":"10111700125407","name":"บริษัท ไทยพัฒนกิจหม้อแปลงไฟฟ้า จำกัด","owner":"บริษัท ไทยพัฒนกิจหม้อแปลงไฟฟ้า จำกัด","displayRegistration":"3-71-1/40สป","province":"สมุทรปราการ","district":"บางพลี","subdistrict":"บางแก้ว","industryType":"ผลิตและซ่อมหม้อแปลงไฟฟ้า มอเตอร์ไฟฟ้า เครื่องกำเนิดไฟฟ้า","status":"ดำเนินกิจการ","lat":13.649948,"lon":100.68943},"10110400225400":{"id":"10110400225400","name":"บริษัท สมบูรณ์ แอนด์ เอส.พี.รับเบอร์ จำกัด","owner":"บริษัท สมบูรณ์ แอนด์ เอส.พี.รับเบอร์ จำกัด","displayRegistration":"3-52(4)-2/40สป","province":"สมุทรปราการ","district":"พระประแดง","subdistrict":"สำโรงใต้","industryType":"การหั่น ผสม รีดให้เป็นแผ่น หรือตัดแผ่นยางธรรมชาติซึ่ง มิใช่การทำในสวนยางหรือป่า","status":"ดำเนินกิจการ","lat":13.634618,"lon":100.58118},"10111000125404":{"id":"10111000125404","name":"บริษัท เนชั่นแนล บิลเดอร์ จำกัด","owner":"บริษัท เนชั่นแนล บิลเดอร์ จำกัด","displayRegistration":"3-63(2)-1/40สป","province":"สมุทรปราการ","district":"บางพลี","subdistrict":"บางพลีใหญ่","industryType":"ตัดชิ้นส่วน และทำประตู-หน้าต่างจากโลหะ","status":"ดำเนินกิจการ","lat":13.5827666666667,"lon":100.7078},"20110002125394":{"id":"20110002125394","name":"บริษัท ไทยเจริญทองการทอ จำกัด","owner":"บริษัท ไทยเจริญทองการทอ จำกัด","displayRegistration":"จ3-53(1)-21/39สป","province":"สมุทรปราการ","district":"บางพลี","subdistrict":"บางปลา","industryType":"ทำผลิตภัณฑ์พลาสติกเป็นของใช้เช่น ตาข่ายพลาสติกกันแสง","status":"ดำเนินกิจการ","lat":13.5874666666667,"lon":100.721966666667},"10110800125408":{"id":"10110800125408","name":"บริษัท ยูไนเต็ด คอปเปอร์ จำกัด","owner":"บริษัท ยูไนเต็ด คอปเปอร์ จำกัด","displayRegistration":"3-60-1/40สป","province":"สมุทรปราการ","district":"พระสมุทรเจดีย์","subdistrict":"ในคลองบางปลากด","industryType":"รีดทองแดงเส้น ทองแดงแผ่น รางไฟรอก","status":"ดำเนินกิจการ","lat":13.5959,"lon":100.555566666667},"20110101525387":{"id":"20110101525387","name":"บริษัท โชเอะ(ประเทศไทย) จำกัด","owner":"บริษัท โชเอะ(ประเทศไทย) จำกัด","displayRegistration":"จ3-53(4)-15/38สป","province":"สมุทรปราการ","district":"บางพลี","subdistrict":"บางพลีใหญ่","industryType":"ผลิตผลิตภัณฑ์พลาสติก เช่น ถุงพลาสติก","status":"ดำเนินกิจการ","lat":13.6024,"lon":100.688083333333},"20110000325400":{"id":"20110000325400","name":"บริษัท เอ็น. แอล. ซานิทารีฟิตติ้งส์ จำกัด","owner":"บริษัท เอ็น. แอล. ซานิทารีฟิตติ้งส์ จำกัด","displayRegistration":"จ3-53(1)-3/40สป","province":"สมุทรปราการ","district":"บางเสาธง","subdistrict":"บางเสาธง","industryType":"รับจ้างฉีดพลาสติกเพื่อเป็นส่วนประกอบอุปกรณ์ของเครื่องสุขภัณฑ์","status":"ดำเนินกิจการ","lat":13.5727666666667,"lon":100.81335},"20111000125394":{"id":"20111000125394","name":"นายธนะพัฒน์ สุรศิริรัตนสิน","owner":"นายธนะพัฒน์ สุรศิริรัตนสิน","displayRegistration":"จ3-53(5)-1/39สป","province":"สมุทรปราการ","district":"บางพลี","subdistrict":"ราชาเทวะ","industryType":"ทำเม็ดพลาสติกเกรดบี","status":"ดำเนินกิจการ","lat":13.66905,"lon":100.723116666667},"10112100125401":{"id":"10112100125401","name":"บริษัท รอนด้า (ประเทศไทย) จำกัด","owner":"บริษัท รอนด้า (ประเทศไทย) จำกัด","displayRegistration":"3-83-1/40สป","province":"สมุทรปราการ","district":"บางเสาธง","subdistrict":"บางเสาธง","industryType":"ผลิตชิ้นส่วนและประกอบนาฬิกาหรืออุปกรณ์ที่ใช้กับผลิตภัณฑ์อิลคทรอนิคส์","status":"ดำเนินกิจการ","lat":13.5768,"lon":100.783533333333},"10110100225403":{"id":"10110100225403","name":"บริษัท โตโยโบะ สห เซฟตี้ วีฟ จำกัด","owner":"บริษัท โตโยโบะ สห เซฟตี้ วีฟ จำกัด","displayRegistration":"3-22(2)-2/40สป","province":"สมุทรปราการ","district":"พระประแดง","subdistrict":"สำโรงใต้","industryType":"ปั่นด้าย (จำนวนแกนปั่นด้าย 41616 แกน) และทอผ้า (จำนวนเครื่องทอผ้า AIR JET LOOM 377 เครื่อง)","status":"ดำเนินกิจการ","lat":13.56496,"lon":100.77021},"10111300125401":{"id":"10111300125401","name":"NULL","owner":"นายพิทยา อิฉริยะศิลป์","displayRegistration":"3-64(2)-1/40สป","province":"สมุทรปราการ","district":"บางพลี","subdistrict":"ราชาเทวะ","industryType":"ทำผลิตภัณฑ์โลหะด้วยวิธีปั๊มหรือกระแทก การกลึง เจาะ ทำเกลียวผลิตภัณฑ์โลหะและผลิตภัณฑ์","status":"ดำเนินกิจการ","lat":13.6682666666667,"lon":100.718283333333},"10111400125400":{"id":"10111400125400","name":"NULL","owner":"นายพิทยา อัฉริยะศิลป์","displayRegistration":"3-64(5)-1/40สป","province":"สมุทรปราการ","district":"บางพลี","subdistrict":"ราชาเทวะ","industryType":"ผลิตลวดเชื่อมไฟฟ้า","status":"ดำเนินกิจการ","lat":13.66865,"lon":100.71675},"10110200425259":{"id":"10110200425259","name":"วิรัตน์การช่าง","owner":"นายวัชระ มูลเชื้อ","displayRegistration":"3-63(2)-4/25สป","province":"สมุทรปราการ","district":"พระประแดง","subdistrict":"สำโรงกลาง","industryType":"ทำประตู-หน้าต่างเหล็ก","status":"ดำเนินกิจการ","lat":13.65765,"lon":100.584933333333},"00110100125399":{"id":"00110100125399","name":"บริษัท เพิ่มสมุทร จำกัด","owner":"บริษัท เพิ่มสมุทร จำกัด","displayRegistration":"ศ3-14-1/39สป","province":"สมุทรปราการ","district":"พระสมุทรเจดีย์","subdistrict":"ในคลองบางปลากด","industryType":"ทำน้ำแข็งซอง","status":"ดำเนินกิจการ","lat":13.5974833333333,"lon":100.542033333333},"20110101525395":{"id":"20110101525395","name":"บริษัท จินฟง พรีซิซั่น อินดัสทรี่ จำกัด","owner":"บริษัท จินฟง พรีซิซั่น อินดัสทรี่ จำกัด","displayRegistration":"จ3-64(13)-15/39สป","province":"สมุทรปราการ","district":"บางเสาธง","subdistrict":"บางเสาธง","industryType":"กลึง เชื่อม ไส เจาะ กว้าน กัด เจียร์โลหะและทำอุปกรณ์อะไหล่","status":"ดำเนินกิจการ","lat":13.577557,"lon":100.804473},"20110600425386":{"id":"20110600425386","name":"บริษัท เค.เอส.เมทอลเทค จำกัด","owner":"บริษัท เค.เอส.เมทอลเทค จำกัด","displayRegistration":"จ3-64(12)-4/38สป","province":"สมุทรปราการ","district":"พระสมุทรเจดีย์","subdistrict":"บ้านคลองสวน","industryType":"ทำตู้ โต๊ะและเครื่องเรือนจากโลหะ","status":"ดำเนินกิจการ","lat":13.5847333333333,"lon":100.484616666667},"20112800125386":{"id":"20112800125386","name":"บริษัท วอลวิก อินเตอร์เนชั่นแนล จำกัด","owner":"บริษัท วอลวิก อินเตอร์เนชั่นแนล จำกัด","displayRegistration":"จ3-67(8)-1/38สป","province":"สมุทรปราการ","district":"เมืองสมุทรปราการ","subdistrict":"สำโรงเหนือ","industryType":"ผลิตชิ้นส่วนของเครื่องจักร เครื่องยนต์ทุกชนิด","status":"หยุดชั่วคราว","lat":13.6490333333333,"lon":100.610916666667},"10110500225409":{"id":"10110500225409","name":"โรงงานคอนกรีตผสมเสร็จ เทพารักษ์ กม.4","owner":"บริษัท ผลิตภัณฑ์และวัตถุก่อสร้าง จำกัด","displayRegistration":"3-58(1)-2/40สป","province":"สมุทรปราการ","district":"เมืองสมุทรปราการ","subdistrict":"บางเมือง","industryType":"ผลิตคอนกรีตผสมเสร็จ","status":"ดำเนินกิจการ","lat":13.62,"lon":100.64455},"20111400225398":{"id":"20111400225398","name":"ทัศนชัยการชุบ","owner":"นายมานพ ทัศนชัยกุล","displayRegistration":"จ3-100(5)-2/39สป","province":"สมุทรปราการ","district":"บางเสาธง","subdistrict":"บางเสาธง","industryType":"ชุบโลหะด้วยสังกะสี","status":"ดำเนินกิจการ","lat":13.5833166666667,"lon":100.780816666667},"20110100325409":{"id":"20110100325409","name":"บริษัท ชาญทวีสินอุตสาหกรรมพลาสติก (2535) จำกัด","owner":"บริษัท ชาญทวีสินอุตสาหกรรมพลาสติก (2535) จำกัด","displayRegistration":"จ3-53(4)-3/40สป","province":"สมุทรปราการ","district":"เมืองสมุทรปราการ","subdistrict":"สำโรงเหนือ","industryType":"รับจ้างทำผลิตภัณฑ์พลาสติกเช่น ขวดน้ำ","status":"ดำเนินกิจการ","lat":13.65035,"lon":100.610366666667},"20110102125401":{"id":"20110102125401","name":"บริษัท รัตนะ ออโต้ บอดี้ (2009) จำกัด","owner":"บริษัท รัตนะ ออโต้ บอดี้ (2009) จำกัด","displayRegistration":"จ3-95(1)-21/40สป","province":"สมุทรปราการ","district":"เมืองสมุทรปราการ","subdistrict":"เทพารักษ์","industryType":"ซ่อมและเคาะพ่นสีรถยนต์","status":"ดำเนินกิจการ","lat":13.6199666666667,"lon":100.637933333333},"20110002825407":{"id":"20110002825407","name":"NULL","owner":"นายบุญชัย รัศมีทองตระกูล","displayRegistration":"จ3-64(13)-28/40สป","province":"สมุทรปราการ","district":"บางพลี","subdistrict":"ราชาเทวะ","industryType":"กลึง เชื่อม ไส เจาะ คว้าน กัด พับและตัดเหล็กเพลาดำ","status":"หยุดชั่วคราว","lat":13.7197833333333,"lon":100.71765},"10110100425409":{"id":"10110100425409","name":"หน่วยผลิตคอนกรีตทุ่งครุ","owner":"บริษัท ทีพีไอ คอนกรีต จำกัด","displayRegistration":"3-58(1)-4/40สป","province":"สมุทรปราการ","district":"พระประแดง","subdistrict":"บางครุ","industryType":"ผลิตและจำหน่ายคอนกรีตผสมเสร็จ","status":"ดำเนินกิจการ","lat":13.6317166666667,"lon":100.521033333333},"20110100525362":{"id":"20110100525362","name":"ผลิตภัณฑ์ วี ที เอ็น","owner":"นายวินัย ทิพยวงศ์","displayRegistration":"จ3-29-5/36สป","province":"สมุทรปราการ","district":"เมืองสมุทรปราการ","subdistrict":"แพรกษา","industryType":"ทาสีและเคลือบสีหนังสัตว์","status":"ดำเนินกิจการ","lat":13.5743166666667,"lon":100.641683333333},"20111600125406":{"id":"20111600125406","name":"บริษัท บุญเจริญทรัพย์ไพศาล จำกัด","owner":"นายเจริญเกียรติยศ เอี่ยมบุญ","displayRegistration":"จ3-81(1)-1/40สป","province":"สมุทรปราการ","district":"พระสมุทรเจดีย์","subdistrict":"ในคลองบางปลากด","industryType":"รับจ้างซ่อมแซมมาตรวัดน้ำมันเชื้อเพลิง","status":"ดำเนินกิจการ","lat":13.5692833333333,"lon":100.53135},"20110001025405":{"id":"20110001025405","name":"บริษัท เอส.ซี.อุตสาหกรรม (2017) จำกัด","owner":"บริษัท เอส.ซี. อุตสาหกรรม (2017) จำกัด","displayRegistration":"จ3-53(1)-10/40สป","province":"สมุทรปราการ","district":"พระประแดง","subdistrict":"สำโรง","industryType":"รับจ้างทำตะกร้าลวดเคลือบพลาสติก","status":"ดำเนินกิจการ","lat":13.65735,"lon":100.589466666667},"20110500525368":{"id":"20110500525368","name":"บริษัท ยู.อาร์.เคมีคอล จำกัด","owner":"บริษัท ยู.อาร์.เคมีคอล จำกัด","displayRegistration":"จ3-45(1)-5/36สป","province":"สมุทรปราการ","district":"บางพลี","subdistrict":"บางปลา","industryType":"ทำน้ำมันทาไม้ เช่น แชลแลค สีน้ำพลาสติก สีน้ำมัน กาวลาเท็กซ์","status":"ดำเนินกิจการ","lat":13.5833833333333,"lon":100.723783333333},"20110800225404":{"id":"20110800225404","name":"บริษัท แพรคติคอลเอ็นจิเนียริ่ง จำกัด","owner":"บริษัท แพรคติคอลเอ็นจิเนียริ่ง จำกัด","displayRegistration":"จ3-71-2/40สป","province":"สมุทรปราการ","district":"เมืองสมุทรปราการ","subdistrict":"สำโรงเหนือ","industryType":"ประกอบแผงสวิชไฟฟ้า","status":"ดำเนินกิจการ","lat":13.6488166666667,"lon":100.609516666667},"20110000125396":{"id":"20110000125396","name":"-","owner":"นายพิชัย ลัทธศักดิ์ศิริ","displayRegistration":"จ3-14-1/39สป","province":"สมุทรปราการ","district":"เมืองสมุทรปราการ","subdistrict":"เทพารักษ์","industryType":"ผลิตน้ำแข็งก้อนเล็ก","status":"หยุดชั่วคราว","lat":13.63335,"lon":100.618466666667},"20112000125400":{"id":"20112000125400","name":"บริษัท บางปูชุบเคลือบผิว จำกัด","owner":"บริษัท บางปูชุบเคลือบผิว จำกัด","displayRegistration":"จ3-100(5)-1/40สป","province":"สมุทรปราการ","district":"เมืองสมุทรปราการ","subdistrict":"บางปูใหม่","industryType":"ชุบอลูมิเนียม","status":"ดำเนินกิจการ","lat":13.5284666666667,"lon":100.644266666667},"20110500325405":{"id":"20110500325405","name":"บริษัท ยูไอ ทรังค์กิ้ง แอนด์ เมททัล เวิร์ค จำกัด","owner":"บริษัท ยูไอ ทรังค์กิ้ง แอนด์ เมททัล เวิร์ค จำกัด","displayRegistration":"จ3-73-3/40สป","province":"สมุทรปราการ","district":"บางเสาธง","subdistrict":"บางเสาธง","industryType":"รางเก็บสายไฟ โคมไฟและอุปกรณ์ไฟฟ้าตู้สวิชท์บอร์ด","status":"ดำเนินกิจการ","lat":13.5668833333333,"lon":100.780566666667},"20110300125369":{"id":"20110300125369","name":"บริษัท สยามฟลาวค้าแป้ง จำกัด","owner":"บริษัท สยามฟลาวค้าแป้ง จำกัด","displayRegistration":"จ3-7(5)-1/36สป","province":"สมุทรปราการ","district":"พระประแดง","subdistrict":"สำโรงกลาง","industryType":"ผลิตเนยเทียมและไขมันผสมผ่านกรรมวิธี","status":"หยุดชั่วคราว","lat":13.62444,"lon":100.52694},"20110400325406":{"id":"20110400325406","name":"บริษัท เอเซียเอ็นจิเนียริ่ง แอนด์ เซอร์วิส(ประเทศไทย) จำกัด","owner":"บริษัท เอเซียเอ็นจิเนียริ่ง แอนด์ เซอร์วิส(ประเทศไทย) จำกัด","displayRegistration":"จ3-71-3/40สป","province":"สมุทรปราการ","district":"พระประแดง","subdistrict":"สำโรงใต้","industryType":"รับจ้างซ่อมมอเตอร์ไฟฟ้า หม้อแปลงไฟฟ้าและอุปกรณ์ไฟฟ้า","status":"ดำเนินกิจการ","lat":13.6363333333333,"lon":100.582716666667},"20110000825409":{"id":"20110000825409","name":"บริษัท ส.กฤษดา โลหะการ(2539) จำกัด","owner":"บริษัท ส.กฤษดา โลหะการ(2539) จำกัด","displayRegistration":"จ3-64(13)-8/40สป","province":"สมุทรปราการ","district":"พระสมุทรเจดีย์","subdistrict":"ในคลองบางปลากด","industryType":"รับจ้างกลึง เชื่อม ไสโลหะและปั้มโลหะ","status":"ดำเนินกิจการ","lat":13.5955833333333,"lon":100.539633333333},"20110001125403":{"id":"20110001125403","name":"บริษัท สหมิตรอุตสาหกรรมโลหะ จำกัด","owner":"บริษัท สหมิตรอุตสาหกรรมโลหะ จำกัด","displayRegistration":"จ3-64(13)-11/40สป","province":"สมุทรปราการ","district":"บางพลี","subdistrict":"บางพลีใหญ่","industryType":"รับจ้างกลึง ไส ม้วน และแปรรูปโลหะ","status":"ดำเนินกิจการ","lat":13.6027166666667,"lon":100.693516666667},"10110300125403":{"id":"10110300125403","name":"บริษัท ประกอบ อินเตอร์ลัมเบอร์ จำกัด","owner":"บริษัท ประกอบ อินเตอร์ลัมเบอร์ จำกัด","displayRegistration":"3-34(1)-1/40สป","province":"สมุทรปราการ","district":"เมืองสมุทรปราการ","subdistrict":"แพรกษา","industryType":"ไส ซอย เซาะร่อง ทำวงกบประตูหน้าต่าง","status":"ดำเนินกิจการ","lat":13.554626787826,"lon":100.692412605807},"20111500125407":{"id":"20111500125407","name":"บริษัท บลู เมตัล เอ็นจิเนียริ่ง จำกัด","owner":"บริษัท บลู เมตัล เอ็นจิเนียริ่ง จำกัด","displayRegistration":"จ3-68-1/40สป","province":"สมุทรปราการ","district":"บางพลี","subdistrict":"บางปลา","industryType":"รับจ้างกลึง เชื่อมชิ้นส่วนเครื่องจักร ซ่อมและประกอบเครื่อง","status":"ดำเนินกิจการ","lat":13.5966833333333,"lon":100.7326},"20110000125404":{"id":"20110000125404","name":"บริษัท สุขสวัสดิ์พืชผล จำกัด","owner":"บริษัท สุขสวัสดิ์พืชผล จำกัด","displayRegistration":"จ3-2(9)-1/40สป","province":"สมุทรปราการ","district":"พระประแดง","subdistrict":"บางจาก","industryType":"ร่อนเมล็ดพืชเช่น ถั่วเขียว","status":"ดำเนินกิจการ","lat":13.6218333333333,"lon":100.534766666667},"10110200325152":{"id":"10110200325152","name":"บริษัท เจริญกิจอุดมทรัพย์ จำกัด","owner":"บริษัท เจริญกิจอุดมทรัพย์ จำกัด","displayRegistration":"3-22(3)-3/15สป","province":"สมุทรปราการ","district":"พระสมุทรเจดีย์","subdistrict":"ในคลองบางปลากด","industryType":"ย้อมและรีดผ้า","status":"ดำเนินกิจการ","lat":13.594,"lon":100.57295},"10110200225402":{"id":"10110200225402","name":"NULL","owner":"นางสาวชะอ้อนศรี ชาตะคุณ","displayRegistration":"3-34(2)-2/40สป","province":"สมุทรปราการ","district":"บางพลี","subdistrict":"บางพลีใหญ่","industryType":"รับจ้างทำวงกบประตูหน้าต่างไม้","status":"ดำเนินกิจการ","lat":13.5811,"lon":100.70575},"20110400225408":{"id":"20110400225408","name":"บริษัท แพลทตินั่ม เมคคานิค จำกัด","owner":"บริษัท แพลทตินั่ม เมคคานิค จำกัด","displayRegistration":"จ3-64(13)-2/40สป","province":"สมุทรปราการ","district":"เมืองสมุทรปราการ","subdistrict":"บางปูใหม่","industryType":"ตัด ม้วน เชื่อม เจาะ เจียรโลหะ","status":"ดำเนินกิจการ","lat":13.5136833333333,"lon":100.7076},"10110000225404":{"id":"10110000225404","name":"บริษัท โรงงานผ้าไทย จำกัด (มหาชน)","owner":"บริษัท โรงงานผ้าไทย จำกัด (มหาชน)","displayRegistration":"3-22(1)-2/40สป","province":"สมุทรปราการ","district":"บางพลี","subdistrict":"บางโฉลง","industryType":"ปั่นด้าย","status":"ดำเนินกิจการ","lat":13.5993166666667,"lon":100.775766666667},"10110600125400":{"id":"10110600125400","name":"บริษัท กัปตัน โค๊ทติ้ง จำกัด","owner":"บริษัท กัปตัน โค๊ทติ้ง จำกัด","displayRegistration":"3-45(1)-1/40สป","province":"สมุทรปราการ","district":"บางเสาธง","subdistrict":"บางเสาธง","industryType":"ผสมสีบรรจุใส่กระป๋องสเปรย์และสีน้ำมัน","status":"ดำเนินกิจการ","lat":13.574002,"lon":100.784049},"20110000525397":{"id":"20110000525397","name":"บริษัท สินคูณการพิมพ์ จำกัด","owner":"บริษัท สินคูณการพิมพ์ จำกัด","displayRegistration":"จ3-41(1)-5/39สป","province":"สมุทรปราการ","district":"พระประแดง","subdistrict":"บางพึ่ง","industryType":"พิมพ์สิ่งพิมพ์ต่างๆ และปั๊มขึ้นรูปกระดาษเพื่อทำกล่องกระดาษ","status":"ดำเนินกิจการ","lat":13.6454333333333,"lon":100.5225},"20110100425399":{"id":"20110100425399","name":"บริษัท สินคูณการพิมพ์ จำกัด","owner":"บริษัท สินคูณการพิมพ์ จำกัด","displayRegistration":"จ3-41(1)-4/39สป","province":"สมุทรปราการ","district":"พระประแดง","subdistrict":"บางพึ่ง","industryType":"พิมพ์สิ่งพิมพ์ต่างๆ","status":"ดำเนินกิจการ","lat":13.64545,"lon":100.5225},"20110800125406":{"id":"20110800125406","name":"บริษัท อลัวส์ โอ.พี.เอส.เคมีภัณฑ์ จำกัด","owner":"บริษัท อลัวส์ โอ.พี.เอส.เคมีภัณฑ์ จำกัด","displayRegistration":"จ3-42(1)-1/40สป","province":"สมุทรปราการ","district":"พระสมุทรเจดีย์","subdistrict":"ในคลองบางปลากด","industryType":"แบ่งบรรจุน้ำยาเคมีที่ใช้เกี่ยวกับสิ่งพิมพ์และน้ำยา","status":"ดำเนินกิจการ","lat":13.5847833333333,"lon":100.549416666667},"20110900225403":{"id":"20110900225403","name":"บริษัท อาร์มสตรองรับเบอร์ แอนด์ เคมีคัลโปรดักส์ จำกัด","owner":"บริษัท อาร์มสตรองรับเบอร์ แอนด์ เคมีคัลโปรดักส์ จำกัด","displayRegistration":"จ3-72-2/40สป","province":"สมุทรปราการ","district":"บางเสาธง","subdistrict":"บางเสาธง","industryType":"รับจ้างผลิตชิ้นส่วนอิเล็กทรอนิกส์ที่ทำจากยาง โฟม ฟองน้ำ","status":"ดำเนินกิจการ","lat":13.5679833333333,"lon":100.801316666667},"20110002625401":{"id":"20110002625401","name":"บริษัท เทอร์มาเทค จำกัด","owner":"บริษัท เทอร์มาเทค จำกัด","displayRegistration":"จ3-64(13)-26/40สป","province":"สมุทรปราการ","district":"บางพลี","subdistrict":"บางปลา","industryType":"กลึงและเชื่อมโลหะ เช่น ชิ้นส่วนอุปกรณ์ลำเลียง","status":"ดำเนินกิจการ","lat":13.58915,"lon":100.7319},"20110300425363":{"id":"20110300425363","name":"ห้างหุ้นส่วนจำกัด โรงงานฟอกหนังทวีสิน","owner":"ห้างหุ้นส่วนจำกัด โรงงานฟอกหนังทวีสิน","displayRegistration":"จ3-29-4/36สป","province":"สมุทรปราการ","district":"เมืองสมุทรปราการ","subdistrict":"ท้ายบ้าน","industryType":"ตกแต่งหนังสัตว์","status":"ดำเนินกิจการ","lat":13.5546166666667,"lon":100.602383333333},"20110001625402":{"id":"20110001625402","name":"บริษัท ซูโอโคคิ(ประเทศไทย) จำกัด","owner":"บริษัท ซูโอโคคิ (ประเทศไทย) จำกัด","displayRegistration":"จ3-64(13)-16/40สป","province":"สมุทรปราการ","district":"บางบ่อ","subdistrict":"บ้านระกาศ","industryType":"รับจ้างกลึง เจาะ ตัด ไส เชื่อมโลหะทั่วไป","status":"ดำเนินกิจการ","lat":13.5789833333333,"lon":100.880766666667},"20111100125401":{"id":"20111100125401","name":"บริษัท โกรว์-แอนด์-โกลว์ จำกัด","owner":"บริษัท โกรว์-แอนด์-โกลว์ จำกัด","displayRegistration":"จ3-53(7)-1/40สป","province":"สมุทรปราการ","district":"เมืองสมุทรปราการ","subdistrict":"ท้ายบ้าน","industryType":"รับจ้างทำแผ่นหนังประกบสำหรับทำรองเท้า","status":"ดำเนินกิจการ","lat":13.5773,"lon":100.6192},"20110007725396":{"id":"20110007725396","name":"บริษัท ว่านลี่ แพ็คกิ้ง เอ้นเตอร์ไพรส จำกัด","owner":"บริษัท ว่านลี่ แพ็คกิ้ง เอ้นเตอร์ไพรส จำกัด","displayRegistration":"จ3-64(13)-77/39สป","province":"สมุทรปราการ","district":"บางพลี","subdistrict":"บางโฉลง","industryType":"รับจ้างตัด พับ ม้วน กลึง ไส เชื่อมโลหะเพื่อทำถังเหล็ก ประกอบหม้อแปลงไฟฟ้า ซ่อมเครื่องจักรกลและเครื่องมือกล","status":"ดำเนินกิจการ","lat":13.63015,"lon":100.721583333333},"20110200325408":{"id":"20110200325408","name":"บริษัท โตโยต้า ชัยรัชการ จำกัด","owner":"บริษัท โตโยต้า ชัยรัชการ จำกัด","displayRegistration":"จ3-65-3/40สป","province":"สมุทรปราการ","district":"บางพลี","subdistrict":"บางโฉลง","industryType":"บริการซ่อมแซม บำรุงรักษาเครื่องยนต์","status":"ดำเนินกิจการ","lat":13.6159833333333,"lon":100.749333333333},"10110800125416":{"id":"10110800125416","name":"นายวัลลภ ฉัตรวรชัย","owner":"นายวัลลภ ฉัตรวรชัย","displayRegistration":"3-78(2)-1/41สป","province":"สมุทรปราการ","district":"พระสมุทรเจดีย์","subdistrict":"ในคลองบางปลากด","industryType":"ผลิตอุปกรณ์สำหรับรถจักรยานยนต์","status":"ดำเนินกิจการ","lat":13.5853,"lon":100.53465},"20110700325395":{"id":"20110700325395","name":"ห้างหุ้นส่วนจำกัด ท่อไอเสียไทย","owner":"ห้างหุ้นส่วนจำกัด ท่อไอเสียไทย","displayRegistration":"จ3-78(2)-3/39สป","province":"สมุทรปราการ","district":"บางพลี","subdistrict":"ราชาเทวะ","industryType":"ทำท่อไอเสีย","status":"ดำเนินกิจการ","lat":13.6889666666667,"lon":100.73135},"20110001425407":{"id":"20110001425407","name":"ห้างหุ้นส่วนจำกัด แอล.พี.ดี.พลาสติก","owner":"ห้างหุ้นส่วนจำกัด แอล.พี.ดี.พลาสติก","displayRegistration":"จ3-53(1)-14/40สป","province":"สมุทรปราการ","district":"พระสมุทรเจดีย์","subdistrict":"ในคลองบางปลากด","industryType":"ทำผลิตภัณฑ์พลาสติก","status":"ดำเนินกิจการ","lat":13.5896166666667,"lon":100.544216666667},"10111100225153":{"id":"10111100225153","name":"บริษัท อิสรีย์ เทรดดิ้ง แอนด์ เอ็นจิเนียริ่ง จำกัด","owner":"บริษัท อิสรีย์ เทรดดิ้ง แอนด์ เอ็นจิเนียริ่ง จำกัด","displayRegistration":"3-70-2/15สป","province":"สมุทรปราการ","district":"พระประแดง","subdistrict":"สำโรงกลาง","industryType":"ทำส่วนประกอบจักรเย็บผ้า","status":"ดำเนินกิจการ","lat":13.6491,"lon":100.5811},"20110400125400":{"id":"20110400125400","name":"บริษัท กรุงไทยอาหาร จำกัด(มหาชน)","owner":"บริษัท กรุงไทยอาหาร จำกัด(มหาชน)","displayRegistration":"จ3-15(1)-1/40สป","province":"สมุทรปราการ","district":"พระสมุทรเจดีย์","subdistrict":"ในคลองบางปลากด","industryType":"ผลิตอาหารสัตว์","status":"ดำเนินกิจการ","lat":13.62837,"lon":100.70667},"10110500425330":{"id":"10110500425330","name":"บริษัท ฟูจิ อี.ดี.เอ็ม.(ประเทศไทย) จำกัด","owner":"บริษัท ฟูจิ อี.ดี.เอ็ม.(ประเทศไทย) จำกัด","displayRegistration":"3-64(9)-4/33สป","province":"สมุทรปราการ","district":"เมืองสมุทรปราการ","subdistrict":"เทพารักษ์","industryType":"ทำตะไบแต่งเล็ม","status":"ดำเนินกิจการ","lat":13.61755,"lon":100.642733333333},"20110300325407":{"id":"20110300325407","name":"บริษัท วรกิจ คอมเมอร์เชียล 84 จำกัด","owner":"บริษัท วรกิจ คอมเมอร์เชียล 84 จำกัด","displayRegistration":"จ3-70-3/40สป","province":"สมุทรปราการ","district":"บางเสาธง","subdistrict":"บางเสาธง","industryType":"รับซ่อมรถบรรทุก รถเครน รถยก","status":"ดำเนินกิจการ","lat":13.6170666666667,"lon":100.819483333333},"20111000125402":{"id":"20111000125402","name":"บริษัท เฟยซิน เอ็นเตอร์ไพร์ส จำกัด","owner":"บริษัท เฟยซิน เอ็นเตอร์ไพร์ส จำกัด","displayRegistration":"จ3-52(4)-1/40สป","province":"สมุทรปราการ","district":"พระสมุทรเจดีย์","subdistrict":"ในคลองบางปลากด","industryType":"ทำผลิตภัณฑ์ยางเช่น ยางปะเก็บ ซีลยาง สายพานยาง","status":"ดำเนินกิจการ","lat":13.6007833333333,"lon":100.53255},"10110100125413":{"id":"10110100125413","name":"บริษัท ภานุภูษา จำกัด","owner":"บริษัท ภานุภูษา จำกัด","displayRegistration":"3-22(4)-1/41สป","province":"สมุทรปราการ","district":"เมืองสมุทรปราการ","subdistrict":"บางปูใหม่","industryType":"รับจ้างพิมพ์สี และลวดลายผ้า","status":"ดำเนินกิจการ","lat":13.5254833333333,"lon":100.6343},"20110101325366":{"id":"20110101325366","name":"บริษัท แมกซ์เวลล์ ซิสเต็มส์ จำกัด","owner":"บริษัท แมกซ์เวลล์ ซิสเต็มส์ จำกัด","displayRegistration":"จ3-64(2)-13/36สป","province":"สมุทรปราการ","district":"บางบ่อ","subdistrict":"บางเพรียง","industryType":"กลึง กัด ไสโลหะต่าง ๆ และผลิตเครื่องจักร เช่นเครื่องพับเหล็กและเครื่องปั๊มโลหะ","status":"ดำเนินกิจการ","lat":13.5591166666667,"lon":100.84275},"10110700125417":{"id":"10110700125417","name":"บริษัท ตะปูมหาวงศ์ จำกัด","owner":"บริษัท ตะปูมหาวงศ์ จำกัด","displayRegistration":"3-64(5)-1/41สป","province":"สมุทรปราการ","district":"พระประแดง","subdistrict":"สำโรง","industryType":"ทำลวดผูกเหล็ก และตะปู","status":"ดำเนินกิจการ","lat":13.6588166666667,"lon":100.582833333333},"20110001125411":{"id":"20110001125411","name":"ห้างหุ้นส่วนจำกัด เอส.เอ็นไมโครพรีซิชั่น","owner":"บริษัท สยาม ซี ที เอส จำกัด","displayRegistration":"จ3-64(13)-11/41สป","province":"สมุทรปราการ","district":"เมืองสมุทรปราการ","subdistrict":"บางด้วน","industryType":"รับจ้างกลึง ไส เชื่อม ตัดโลหะทุกชนิด","status":"ดำเนินกิจการ","lat":13.6275833333333,"lon":100.580016666667},"10110100425417":{"id":"10110100425417","name":"บริษัท ซัมมิท โอโต บอดี้ อินดัสตรี จำกัด","owner":"บริษัท ซัมมิท โอโต บอดี้ อินดัสตรี จำกัด","displayRegistration":"3-77(2)-4/41สป","province":"สมุทรปราการ","district":"บางพลี","subdistrict":"บางพลีใหญ่","industryType":"ผลิตชิ้นส่วนประกอบรถยนต์ชนิดต่าง ๆ ผลิตท่อไอเสียรถยนต์","status":"ดำเนินกิจการ","lat":13.6366666666667,"lon":100.706733333333},"10110000325410":{"id":"10110000325410","name":"บริษัท ธนาดุล โปรดักส์ จำกัด","owner":"บริษัท ธนาดุล โปรดักส์ จำกัด","displayRegistration":"3-59-3/41สป","province":"สมุทรปราการ","district":"พระสมุทรเจดีย์","subdistrict":"ในคลองบางปลากด","industryType":"ผลิตเหล็กรูปพรรณ และเหล็กข้ออ้อยจาก billet","status":"ดำเนินกิจการ","lat":13.5872,"lon":100.53361},"20110400125418":{"id":"20110400125418","name":"บริษัท 107 การปัก จำกัด","owner":"บริษัท 107 การปัก จำกัด","displayRegistration":"จ3-33-1/41สป","province":"สมุทรปราการ","district":"เมืองสมุทรปราการ","subdistrict":"สำโรงเหนือ","industryType":"รับจ้างทำชิ้นส่วนรองเท้า","status":"ดำเนินกิจการ","lat":13.6505333333333,"lon":100.6098},"20110000525371":{"id":"20110000525371","name":"บริษัท สยามเฟธเธอร์ปรอดักส์ จำกัด","owner":"บริษัท สยามเฟธเธอร์ปรอดักส์ จำกัด","displayRegistration":"จ3-28(1)-5/37สป","province":"สมุทรปราการ","district":"พระสมุทรเจดีย์","subdistrict":"ปากคลองบางปลากด","industryType":"ตัดเย็บเสื้อผ้าสำเร็จรูป","status":"ดำเนินกิจการ","lat":13.6038666666667,"lon":100.560133333333},"10110400125410":{"id":"10110400125410","name":"บริษัท ไทยเรืองอุตสาหกรรม จำกัด","owner":"บริษัท ไทยเรืองอุตสาหกรรม จำกัด","displayRegistration":"3-58(1)-1/41สป","province":"สมุทรปราการ","district":"เมืองสมุทรปราการ","subdistrict":"บางปู","industryType":"ผลิตท่อระบายน้ำคอนกรีตเสริมเหล็กระบบการสั่นสะเทือนในแนวตั้งชนิดคอนกรีตผสมเสร็จแห้งไม่ยุบตัว(VERTICAL DRY CAST PROCESS)สำหรับงานดันท่อใต้ดิน และผลิตภัณฑ์คอนกรีต","status":"ดำเนินกิจการ","lat":13.5013333333333,"lon":100.7672},"20112400125364":{"id":"20112400125364","name":"บริษัท รีฟอร์มโปรดักส์ จำกัด","owner":"บริษัท รีฟอร์มโปรดักส์ จำกัด","displayRegistration":"จ3-65-1/36สป","province":"สมุทรปราการ","district":"บางพลี","subdistrict":"บางพลีใหญ่","industryType":"ผลิตชิ้นส่วนเครื่องจักรกล","status":"ดำเนินกิจการ","lat":13.6038833333333,"lon":100.677783333333},"20110000825391":{"id":"20110000825391","name":"บริษัท จันวาณิชย์ ซีเคียวริตี้ พริ้นท์ติง จำกัด","owner":"บริษัท จันวาณิชย์ ซีเคียวริตี้ พริ้นท์ติง จำกัด","displayRegistration":"จ3-41(1)-8/39สป","province":"สมุทรปราการ","district":"พระสมุทรเจดีย์","subdistrict":"ปากคลองบางปลากด","industryType":"รับจ้างพิมพ์สิ่งพิมพ์ทุกชนิด","status":"ดำเนินกิจการ","lat":13.6030166666667,"lon":100.557116666667},"00110000125382":{"id":"00110000125382","name":"บริษัท อเมริกันบริติช จำกัด","owner":"บริษัท อเมริกันบริติช จำกัด","displayRegistration":"ศ3-46(2)-1/38สป","province":"สมุทรปราการ","district":"เมืองสมุทรปราการ","subdistrict":"บางโปรง","industryType":"ผลิตยารักษาโรคแผนปัจจุบัน","status":"ดำเนินกิจการ","lat":13.6261666666667,"lon":100.564316666667},"20111700125413":{"id":"20111700125413","name":"บริษัท สยามยูไนเต็ดไฮเทค จำกัด","owner":"บริษัท สยามยูไนเต็ดไฮเทค จำกัด","displayRegistration":"จ3-67(7)-1/41สป","province":"สมุทรปราการ","district":"บางพลี","subdistrict":"บางพลีใหญ่","industryType":"รับจ้างปั๊มโลหะและทำแบบแม่พิมพ์","status":"ดำเนินกิจการ","lat":13.60816667,"lon":100.6837333},"20110102425397":{"id":"20110102425397","name":"บริษัท เอ.พี.เซอร์วิส (1994) จำกัด","owner":"บริษัท เอ.พี.เซอร์วิส (1994) จำกัด","displayRegistration":"จ3-95(1)-24/39สป","province":"สมุทรปราการ","district":"เมืองสมุทรปราการ","subdistrict":"บางเมือง","industryType":"ซ่อมและเคาะพ่นสีรถยนต์","status":"ดำเนินกิจการ","lat":13.61495,"lon":100.6151},"10110001125348":{"id":"10110001125348","name":"บริษัท แพรกษาเท็กซ์ไทล์ จำกัด","owner":"บริษัท แพรกษาเท็กซ์ไทล์ จำกัด","displayRegistration":"3-22(1)-11/34สป","province":"สมุทรปราการ","district":"เมืองสมุทรปราการ","subdistrict":"แพรกษา","industryType":"ปั่นด้าย จำนวนแกนปั่นด้าย 9,600 แกน","status":"ดำเนินกิจการ","lat":13.5658833333333,"lon":100.67255},"20110000925415":{"id":"20110000925415","name":"ห้างหุ้นส่วนจำกัด สมบูรณ์ศิริ","owner":"ห้างหุ้นส่วนจำกัด สมบูรณ์ศิริ","displayRegistration":"จ3-64(13)-9/41สป","province":"สมุทรปราการ","district":"บางเสาธง","subdistrict":"บางเสาธง","industryType":"รับจ้างกลึง เจาะ คว้าน ไส เจียน หรือเชื่อมโลหะทั่วไป","status":"ดำเนินกิจการ","lat":13.5712,"lon":100.802466666667},"10110100125421":{"id":"10110100125421","name":"บริษัท เลนโซ่ เทอร์มินอล จำกัด","owner":"บริษัท เลนโซ่ เทอร์มินอล จำกัด","displayRegistration":"3-42(2)-1/42สป","province":"สมุทรปราการ","district":"เมืองสมุทรปราการ","subdistrict":"ท้ายบ้าน","industryType":"แบ่งบรรจุเคมีภัณฑ์ เช่น ETHYLENE GLYCOL,METHY  KETONE  ฯ ล ฯ","status":"ดำเนินกิจการ","lat":13.5695166666667,"lon":100.583},"20110100625394":{"id":"20110100625394","name":"บริษัท จันวาณิชย์ จำกัด","owner":"บริษัท จันวาณิชย์ จำกัด","displayRegistration":"จ3-41(1)-6/39สป","province":"สมุทรปราการ","district":"พระสมุทรเจดีย์","subdistrict":"ปากคลองบางปลากด","industryType":"รับจ้างพิมพ์สิ่งพิมพ์ทุกชนิด","status":"ดำเนินกิจการ","lat":13.59095,"lon":100.53635},"10110700125359":{"id":"10110700125359","name":"บริษัท ออคิดแบกส์ คอปอเรชั่น จำกัด","owner":"บริษัท ออคิดแบกส์ คอปอเรชั่น จำกัด","displayRegistration":"3-32(1)-1/35สป","province":"สมุทรปราการ","district":"เมืองสมุทรปราการ","subdistrict":"แพรกษา","industryType":"ผลิตกระเป๋าหนัง","status":"ดำเนินกิจการ","lat":13.5744833333333,"lon":100.652633333333},"20110500225407":{"id":"20110500225407","name":"บริษัท พระราม3 กรุ๊ป ฮอนด้า ออโตโมบิล จำกัด","owner":"บริษัท พระราม3 กรุ๊ป ออนด้า ออโตโมบิล จำกัด","displayRegistration":"จ3-65-2/40สป","province":"สมุทรปราการ","district":"พระประแดง","subdistrict":"บางจาก","industryType":"บริการซ่อมแซม บำรุงรักษา ตรวจสอบ เคาะพ่นสีรถยนต์","status":"ดำเนินกิจการ","lat":13.6167666666667,"lon":100.544283333333},"20110003225391":{"id":"20110003225391","name":"บริษัท เค.ไทย ไฮดรอลิก จำกัด","owner":"บริษัท เค.ไทย ไฮดรอลิก จำกัด","displayRegistration":"จ3-64(13)-32/39สป","province":"สมุทรปราการ","district":"บางพลี","subdistrict":"บางพลีใหญ่","industryType":"รับจ้างกลึง เชื่อม เจาะ คว้าน กัด ไส เจียรโลหะทั่วไป","status":"ดำเนินกิจการ","lat":13.6190833333333,"lon":100.706366666667},"20112300125415":{"id":"20112300125415","name":"บริษัท เอ็ม.ไอ.ที.มาร์เก็ตติ้ง จำกัด","owner":"บริษัท เอ็ม.ไอ.ที.มาร์เก็ตติ้ง จำกัด","displayRegistration":"จ3-87(4)-1/41สป","province":"สมุทรปราการ","district":"เมืองสมุทรปราการ","subdistrict":"ท้ายบ้าน","industryType":"ทำซิปไนล่อน ซิปพลาสติก ซิบโลหะ และซิปอื่น ๆ ทุกชนิด","status":"ดำเนินกิจการ","lat":13.5876833333333,"lon":100.6184},"10110100325419":{"id":"10110100325419","name":"บริษัท ฟรีสแลนด์คัมพิน่า (ประเทศไทย) จำกัด (มหาชน)","owner":"บริษัท ฟรีสแลนด์คัมพิน่า (ประเทศไทย) จำกัด (มหาชน)","displayRegistration":"3-101-3/41สป","province":"สมุทรปราการ","district":"พระประแดง","subdistrict":"สำโรงใต้","industryType":"บำบัดน้ำเสียรวม","status":"ดำเนินกิจการ","lat":13.63951,"lon":100.575794},"20110002425398":{"id":"20110002425398","name":"บริษัท สหเสรีเอเซี่ยน จำกัด","owner":"บริษัท สหเสรีเอเซี่ยน จำกัด","displayRegistration":"จ3-53(1)-24/39สป","province":"สมุทรปราการ","district":"เมืองสมุทรปราการ","subdistrict":"แพรกษา","industryType":"รับจ้างทำผลิตภัณฑ์พลาสติก เช่น รางสำหรับสายไฟฟ้า","status":"ดำเนินกิจการ","lat":13.5807666666667,"lon":100.634866666667},"20112100125409":{"id":"20112100125409","name":"บริษัท เค.วาย อินเตอร์-เทรค จำกัด","owner":"บริษัท เค.วาย อินเตอร์-เทรค จำกัด","displayRegistration":"จ3-104-1/40สป","province":"สมุทรปราการ","district":"พระประแดง","subdistrict":"สำโรงใต้","industryType":"ประกอบและซ่อมแซมหม้อไอน้ำ","status":"ดำเนินกิจการ","lat":13.61491,"lon":100.5456},"20110003525402":{"id":"20110003525402","name":"บริษัท สตาร์ มารีน เอ็นจิเนียริ่ง จำกัด","owner":"บริษัท สตาร์ มารีน เอ็นจิเนียริ่ง จำกัด","displayRegistration":"จ3-64(13)-35/40สป","province":"สมุทรปราการ","district":"พระประแดง","subdistrict":"บางพึ่ง","industryType":"กลึง ไส กัด เจาะ และเชื่อมโลหะ","status":"ดำเนินกิจการ","lat":13.6731333333333,"lon":100.522766666667},"20110800525381":{"id":"20110800525381","name":"บริษัท ศรีเพชร อุตสาหกรรมเหล็ก จำกัด","owner":"บริษัท ศรีเพชร อุตสาหกรรมเหล็ก จำกัด","displayRegistration":"จ3-64(12)-5/38สป","province":"สมุทรปราการ","district":"บางพลี","subdistrict":"บางปลา","industryType":"รับจ้าง ตัด พับ ปั๊มขึ้นรูปโลหะ","status":"ดำเนินกิจการ","lat":13.5857833333333,"lon":100.72185},"20111200225374":{"id":"20111200225374","name":"บริษัท กลวิศว์ จำกัด","owner":"บริษัท กลวิศว์ จำกัด","displayRegistration":"จ3-64(13)-2/37สป","province":"สมุทรปราการ","district":"เมืองสมุทรปราการ","subdistrict":"เทพารักษ์","industryType":"กลึง เชื่อมโลหะ","status":"ดำเนินกิจการ","lat":13.64105,"lon":100.595866666667},"20112700125429":{"id":"20112700125429","name":"บริษัท ธำรงไทย ทูล แอนด์ ดาย จำกัด","owner":"ห้างหุ้นส่วนจำกัด ธำรงไทย ทูล แอนด์ ดาย","displayRegistration":"จ3-64(6)-1/42สป","province":"สมุทรปราการ","district":"เมืองสมุทรปราการ","subdistrict":"ท้ายบ้าน","industryType":"รับจ้างทำสลัก แป้นเกลียว แม่พิมพ์โลหะ","status":"ดำเนินกิจการ","lat":13.5807844253961,"lon":100.615298181931},"20113000125424":{"id":"20113000125424","name":"บริษัท ไล-เว่ย จำกัด","owner":"บริษัท ไล-เว่ย จำกัด","displayRegistration":"จ3-64(13)-1/42สป","province":"สมุทรปราการ","district":"บางพลี","subdistrict":"บางพลีใหญ่","industryType":"รับจ้างกลึงโลหะและประกอบอุปกรณ์ที่ใช้กับสายไฟฟ้า หลอด หรือเครื่องประกอบสำหรับร้อยสายไฟฟ้า","status":"ดำเนินกิจการ","lat":13.6227333333333,"lon":100.716766666667},"20110000725419":{"id":"20110000725419","name":"บริษัท รุ่งเรือง ออโต้ไฮเทค จำกัด","owner":"บริษัท รุ่งเรือง ออโต้ไฮเทค จำกัด","displayRegistration":"จ3-95(1)-7/41สป","province":"สมุทรปราการ","district":"บางพลี","subdistrict":"บางแก้ว","industryType":"รับจ้าง เคาะ พ่นสี และซ่อมแซมรถยนต์","status":"ดำเนินกิจการ","lat":13.6369,"lon":100.6652167},"20110000825417":{"id":"20110000825417","name":"บริษัท ทาเน็ท จำกัด","owner":"บริษัท ทาเน็ท จำกัด","displayRegistration":"จ3-53(4)-8/41สป","province":"สมุทรปราการ","district":"พระสมุทรเจดีย์","subdistrict":"ปากคลองบางปลากด","industryType":"ผลิตถุงพลาสติก","status":"ดำเนินกิจการ","lat":13.6017833333333,"lon":100.52285},"20110900225411":{"id":"20110900225411","name":"บริษัท ยูนิ-ท้อป เทรดดิ้ง (1988) จำกัด","owner":"บริษัท ยูนิ-ท้อป เทรดดิ้ง (1988) จำกัด","displayRegistration":"จ3-64(9)-2/41สป","province":"สมุทรปราการ","district":"บางเสาธง","subdistrict":"บางเสาธง","industryType":"ผลิตฝอยเหล็ก,ฝอยแสตนเลส,แผ่นใยขัด,อุปกรณ์ทำความสะอาด","status":"ดำเนินกิจการ","lat":13.5849666666667,"lon":100.772833333333},"20111700125397":{"id":"20111700125397","name":"บริษัท ไทยเดคคอเรชั่นแลมป์ จำกัด","owner":"บริษัท ไทยเดคคอเรชั่นแลมป์ จำกัด","displayRegistration":"จ3-74(1)-1/39สป","province":"สมุทรปราการ","district":"เมืองสมุทรปราการ","subdistrict":"ท้ายบ้าน","industryType":"พ่นสีหลอดไฟฟ้า","status":"ดำเนินกิจการ","lat":13.58165,"lon":100.625433333333},"20110100125429":{"id":"20110100125429","name":"บริษัท ธัญญไรซ์ (ไทยแลนด์) จำกัด","owner":"บริษัท ธัญญไรซ์ (ไทยแลนด์) จำกัด","displayRegistration":"จ3-9(1)-1/42สป","province":"สมุทรปราการ","district":"บางบ่อ","subdistrict":"บางบ่อ","industryType":"ขัดข้าว,ปรับปรุงคุณภาพข้าวโดยไม่มีการผลิต และผลิตผลทางเกษตรกรรม","status":"ดำเนินกิจการ","lat":13.5773,"lon":100.839283333333},"20110000125362":{"id":"20110000125362","name":"บริษัท สยามฟู้ด จำกัด","owner":"บริษัท สยามฟู้ด จำกัด","displayRegistration":"จ3-2(2)-1/36สป","province":"สมุทรปราการ","district":"บางเสาธง","subdistrict":"ศีรษะจรเข้ใหญ่","industryType":"กะเทาะเปลือกเมล็ดพืช เช่น ถั่วเขียว ถั่ว งา","status":"หยุดชั่วคราว","lat":13.6545166666667,"lon":100.786783333333},"20110201425397":{"id":"20110201425397","name":"นันทชัยการช่าง","owner":"นายนันทชัย เติมบุญผาติ","displayRegistration":"จ3-64(12)-14/39สป","province":"สมุทรปราการ","district":"บางพลี","subdistrict":"บางพลีใหญ่","industryType":"ตัด พับโลหะ ทำตู้สวิทซ์บอร์ด","status":"ดำเนินกิจการ","lat":13.5793333333333,"lon":100.708816666667},"20110100525420":{"id":"20110100525420","name":"บริษัท เวิลด์แวร์ อินเตอร์เนชั่นแนล จำกัด","owner":"บริษัท เวิลด์แวร์ อินเตอร์เนชั่นแนล จำกัด","displayRegistration":"จ3-53(1)-5/42สป","province":"สมุทรปราการ","district":"พระประแดง","subdistrict":"บางครุ","industryType":"ทำผลิตภัณฑ์พลาสติก เช่นกะละมัง","status":"ดำเนินกิจการ","lat":13.6198333333333,"lon":100.524416666667},"20111600125422":{"id":"20111600125422","name":"บริษัท ไมลอทท์ แลบบอราทอรีส์ จำกัด","owner":"บริษัท ไมลอทท์ แลบบอราทอรีส์ จำกัด","displayRegistration":"จ3-47(3)-1/42สป","province":"สมุทรปราการ","district":"บางพลี","subdistrict":"บางปลา","industryType":"รับจ้างทำและบรรจุเครื่องสำอางค์","status":"ดำเนินกิจการ","lat":13.5926,"lon":100.722583333333},"20110400125426":{"id":"20110400125426","name":"บริษัท โรงานทอผ้าเดลต้า จำกัด","owner":"บริษัท โรงงานทอผ้า เดลต้า จำกัด","displayRegistration":"จ3-22(2)-1/42สป","province":"สมุทรปราการ","district":"บางพลี","subdistrict":"บางปลา","industryType":"ทอผ้า","status":"ดำเนินกิจการ","lat":13.5916333333333,"lon":100.732133333333},"20110000125420":{"id":"20110000125420","name":"บริษัท กรุงสยามเครื่องดื่ม จำกัด","owner":"บริษัท กรุงสยามเครื่องดื่ม จำกัด","displayRegistration":"จ3-8(1)-1/42สป","province":"สมุทรปราการ","district":"พระสมุทรเจดีย์","subdistrict":"บ้านคลองสวน","industryType":"ผลิตน้ำดื่ม เครื่องดื่ม เครื่องดื่มบรรจุภาชนะปิดสนิท และเครื่องดื่มจากผลิตผลการเกษตรกรรม","status":"ดำเนินกิจการ","lat":13.5783166666667,"lon":100.4901},"10110300125429":{"id":"10110300125429","name":"บริษัท วโรปกรณ์ จำกัด (มหาชน)","owner":"บริษัท วโรปกรณ์ จำกัด (มหาชน)","displayRegistration":"3-64(1)-1/42สป","province":"สมุทรปราการ","district":"เมืองสมุทรปราการ","subdistrict":"บางปูใหม่","industryType":"ผลิตภาชนะอลูมิเนียม แหวนโลหะสำหรับทำหลอดต่าง ๆ และรีดอลูมิเนียมแผ่นหนาและแผ่นบาง","status":"ดำเนินกิจการ","lat":13.5153,"lon":100.693733333333},"20110002125402":{"id":"20110002125402","name":"ธัญญะเจริญโลหะกิจ","owner":"ห้างหุ้นส่วนจำกัด ธัญญะเจริญโลหะกิจ","displayRegistration":"จ3-64(13)-21/40สป","province":"สมุทรปราการ","district":"เมืองสมุทรปราการ","subdistrict":"แพรกษาใหม่","industryType":"รับจ้างกลึง เชื่อม เจาะโลหะทั่วไป","status":"ดำเนินกิจการ","lat":13.6034,"lon":100.6652},"10110000125430":{"id":"10110000125430","name":"บริษัท โรงน้ำแข็งกิมซำ จำกัด","owner":"บริษัท โรงน้ำแข็งกิมซำ จำกัด","displayRegistration":"3-14-1/43สป","province":"สมุทรปราการ","district":"เมืองสมุทรปราการ","subdistrict":"เทพารักษ์","industryType":"ผลิตน้ำแข็งซอง","status":"ดำเนินกิจการ","lat":13.6265166666667,"lon":100.62195},"20112000125418":{"id":"20112000125418","name":"NULL","owner":"นายบุญรอด ปาริยะรังสี","displayRegistration":"จ3-74(2)-1/41สป","province":"สมุทรปราการ","district":"พระสมุทรเจดีย์","subdistrict":"ปากคลองบางปลากด","industryType":"ทำสายไฟฟ้า","status":"ดำเนินกิจการ","lat":13.59685,"lon":100.5189},"20110900325427":{"id":"20110900325427","name":"บริษัท ชัยยุทธการประดิษฐ์ (1988) จำกัด","owner":"บริษัท ชัยยุทธการประดิษฐ์ (1988) จำกัด","displayRegistration":"จ3-78(2)-3/42สป","province":"สมุทรปราการ","district":"บางพลี","subdistrict":"บางปลา","industryType":"ทำชิ้นส่วนรถจักรยานยนต์","status":"ดำเนินกิจการ","lat":13.5952833333333,"lon":100.754233333333},