{"10330003425286":{"id":"10330003425286","name":"โรงสีเกียรติดำรง","owner":"ห้างหุ้นส่วนจำกัด โรงสีเกียรติดำรง","displayRegistration":"3-9(1)-34/28ศก","province":"ศรีสะเกษ","district":"เมืองศรีสะเกษ","subdistrict":"โพนข่า","industryType":"สีข้าว กำลังสีสูงสุดของร้านสีข้าว 180 เกวียน/วัน","status":"ดำเนินกิจการ","lat":15.08996,"lon":104.34014},"10330003525283":{"id":"10330003525283","name":"ห้างหุ้นส่วนจำกัด โรงสีไฟศิริมงคล","owner":"ห้างหุ้นส่วนจำกัด โรงสีไฟศิริมงคล","displayRegistration":"3-9(1)-35/28ศก","province":"ศรีสะเกษ","district":"เมืองศรีสะเกษ","subdistrict":"หนองครก","industryType":"สีข้าว กำลังสีสูงสุดของร้านสีข้าว 120 เกวียน/วัน","status":"ดำเนินกิจการ","lat":15.09036,"lon":104.33952},"10330004825294":{"id":"10330004825294","name":"ห้างหุ้นส่วนจำกัด โรงสีข้าวตั้งกิจไทยพยุห์","owner":"ห้างหุ้นส่วนจำกัด โรงสีข้าวตั้งกิจไทยพยุห์","displayRegistration":"3-9(1)-48/29ศก","province":"ศรีสะเกษ","district":"พยุห์","subdistrict":"พยุห์","industryType":"สีข้าว กำลังสีสูงสุดของร้านสีข้าว 8 เกวียน/วัน","status":"หยุดชั่วคราว","lat":14.89328,"lon":104.38771},"10330000125293":{"id":"10330000125293","name":"บัวชัยพลาสติก","owner":"นายสุเมธ แซ่ตั้ง","displayRegistration":"3-53(4)-1/29ศก","province":"ศรีสะเกษ","district":"เมืองศรีสะเกษ","subdistrict":"หนองครก","industryType":"ทำภาชนะบรรจุจากพลาสติก","status":"ดำเนินกิจการ","lat":15.09525,"lon":104.30789},"10330000225325":{"id":"10330000225325","name":"ห้างหุ้นส่วนจำกัด โรงสีเรืองสินไทย","owner":"ห้างหุ้นส่วนจำกัด โรงสีเรืองสินไทย","displayRegistration":"3-9(1)-2/32ศก","province":"ศรีสะเกษ","district":"เมืองศรีสะเกษ","subdistrict":"หนองครก","industryType":"สีข้าว กำลังสีสูงสุดของร้านสีข้าว 120 เกวียน/วัน","status":"ดำเนินกิจการ","lat":15.09732,"lon":104.32059},"10330000125319":{"id":"10330000125319","name":"มิตรใหม่พืชผล","owner":"นางสาวธัญพร จารุรัชกุล","displayRegistration":"3-9(1)-1/31ศก","province":"ศรีสะเกษ","district":"อุทุมพรพิสัย","subdistrict":"สำโรง","industryType":"สีข้าว กำลังสีสูงสุดของร้านสีข้าว 60 เกวียน/วัน","status":"ดำเนินกิจการ","lat":15.11288,"lon":104.13444},"10330001425304":{"id":"10330001425304","name":"ห้างหุ้นส่วนจำกัด โรงสี ต.ไทยเจริญ","owner":"ห้างหุ้นส่วนจำกัด โรงสี ต.ไทยเจริญ","displayRegistration":"3-9(1)-14/30ศก","province":"ศรีสะเกษ","district":"อุทุมพรพิสัย","subdistrict":"สำโรง","industryType":"สีข้าว กำลังสีสูงสุดของร้านสีข้าว 100 เกวียน/วัน","status":"ดำเนินกิจการ","lat":15.11868,"lon":104.13819},"10330000225267":{"id":"10330000225267","name":"โรงงานผลิตเส้นก๋วยเตี๋ยวชุนกี่","owner":"นายวรชาติ ฐิติสมบูรณ์","displayRegistration":"3-10(3)-2/26ศก","province":"ศรีสะเกษ","district":"เมืองศรีสะเกษ","subdistrict":"โพนข่า","industryType":"ทำเส้นก๋วยเตี๋ยว","status":"ดำเนินกิจการ","lat":15.07103,"lon":104.34503},"10330000125210":{"id":"10330000125210","name":"บริษัท กิจเจริญการ์เมนท์ (1993) จำกัด","owner":"บริษัท กิจเจริญการ์เมนท์ (1993) จำกัด","displayRegistration":"3-28(1)-1/21ศก","province":"ศรีสะเกษ","district":"เมืองศรีสะเกษ","subdistrict":"โพนข่า","industryType":"ตัดเย็บเสื้อผ้าสำเร็จรูป","status":"ดำเนินกิจการ","lat":15.0865,"lon":104.34308},"10330000125194":{"id":"10330000125194","name":"ห้างหุ้นส่วนจำกัด โรงเลื่อยจักรไทยรุ่งเรือง","owner":"ห้างหุ้นส่วนจำกัด โรงเลื่อยจักรไทยรุ่งเรือง","displayRegistration":"3-34(1)-1/19ศก","province":"ศรีสะเกษ","district":"เมืองศรีสะเกษ","subdistrict":"เมืองใต้","industryType":"เลื่อยไม้","status":"ดำเนินกิจการ","lat":15.10239,"lon":104.33293},"10330006025315":{"id":"10330006025315","name":"เก่งไมตรี","owner":"นางสาวอรนภา ส่งเจริญคุณวุฒิ","displayRegistration":"3-9(6)-60/31ศก","province":"ศรีสะเกษ","district":"ขุนหาญ","subdistrict":"สิ","industryType":"ทำมันเส้น","status":"ดำเนินกิจการ","lat":14.62412,"lon":104.45217},"10330016725227":{"id":"10330016725227","name":"ห้างหุ้นส่วนสามัญนิติบุคคล โรงสีไฟเต็กฮะฮง","owner":"ห้างหุ้นส่วนสามัญนิติบุคคล โรงสีไฟเต็กฮะฮง","displayRegistration":"3-9(1)-167/22ศก","province":"ศรีสะเกษ","district":"อุทุมพรพิสัย","subdistrict":"กำแพง","industryType":"สีข้าวชนิดแยกแกลบแยกรำ (กำลังสีสูงสุดของร้านสีข้าว 150 เกวียน/วัน)","status":"หยุดชั่วคราว","lat":15.10501,"lon":104.13888},"10330001125151":{"id":"10330001125151","name":"บริษัท โรงสีไฟชัยประสิทธิ์ จำกัด","owner":"บริษัท โรงสีไฟชัยประสิทธิ์ จำกัด","displayRegistration":"3-9(1)-11/15ศก","province":"ศรีสะเกษ","district":"เมืองศรีสะเกษ","subdistrict":"หนองครก","industryType":"สีข้าว กำลังสีสูงสุดของร้านสีข้าว 45 เกวียน/วัน (40 แรงม้า)","status":"ดำเนินกิจการ","lat":15.09127,"lon":104.33892},"10330000125301":{"id":"10330000125301","name":"ห้างหุ้นส่วนจำกัด สหสยามฟาร์ม","owner":"ห้างหุ้นส่วนจำกัด สหสยามฟาร์ม","displayRegistration":"3-6(2)-1/30ศก","province":"ศรีสะเกษ","district":"ขุนหาญ","subdistrict":"สิ","industryType":"ต้ม นึ่งหรืออบพืชและเมล็ดพืช การผสมแป้งและทำน้ำส้มสายชู","status":"ดำเนินกิจการ","lat":14.61913,"lon":104.42917},"20330100225413":{"id":"20330100225413","name":"ลานมันสวัสดี","owner":"นายธเนศ ธรรมธวัชชัย","displayRegistration":"จ3-9(6)-2/41ศก","province":"ศรีสะเกษ","district":"ขุนหาญ","subdistrict":"บักดอง","industryType":"ทำมันเส้น","status":"ดำเนินกิจการ","lat":14.55235,"lon":104.4544},"10330000125327":{"id":"10330000125327","name":"โรงสีสินทวีการเกษตร","owner":"ห้างหุ้นส่วนจำกัด สินทวีการเกษตร","displayRegistration":"3-9(1)-1/32ศก","province":"ศรีสะเกษ","district":"อุทุมพรพิสัย","subdistrict":"สำโรง","industryType":"สีข้าว กำลังสีสูงสุดของร้านสีข้าว 350 เกวียน/วัน","status":"ดำเนินกิจการ","lat":15.12938,"lon":104.14645},"20330000225380":{"id":"20330000225380","name":"NULL","owner":"นายสมศักดิ์ เจริญศรีสมบัติ","displayRegistration":"จ3-9(6)-2/38ศก","province":"ศรีสะเกษ","district":"กันทรลักษ์","subdistrict":"ละลาย","industryType":"ทำมันเส้น ได้เดือนละ 30 ตัน","status":"ดำเนินกิจการ","lat":14.50851,"lon":104.53631},"10330003825311":{"id":"10330003825311","name":"ศรีเพชรพืชผล","owner":"นายวิศักดิ์ ฐิติสมบูรณ์","displayRegistration":"3-9(6)-38/31ศก","province":"ศรีสะเกษ","district":"ขุนหาญ","subdistrict":"บักดอง","industryType":"ทำมันเส้น","status":"ดำเนินกิจการ","lat":14.56431,"lon":104.44805},"10330100125326":{"id":"10330100125326","name":"บริษัท ซีพีเอส สตาร์ช จำกัด","owner":"บริษัท ซีพีเอส สตาร์ช จำกัด","displayRegistration":"3-9(2)-1/32ศก","province":"ศรีสะเกษ","district":"กันทรลักษ์","subdistrict":"ตระกาจ","industryType":"ผลิตแป้งมันสำปะหลัง และแป้งมันสำปะหลังสำเร็จรูป","status":"ดำเนินกิจการ","lat":14.70367,"lon":104.59957},"10330000325323":{"id":"10330000325323","name":"โรงสีแสงเจริญรุ่งเรือง","owner":"บริษัท แสงเจริญรุ่งเรือง จำกัด","displayRegistration":"3-9(1)-3/32ศก","province":"ศรีสะเกษ","district":"กันทรลักษ์","subdistrict":"จานใหญ่","industryType":"สีข้าว กำลังสีสูงสุดของร้านสีข้าว 200 เกวียน/วัน","status":"ดำเนินกิจการ","lat":14.7448,"lon":104.65983},"10330011125266":{"id":"10330011125266","name":"บริษัท โรงสีราษีพาณิชย์ศรีสะเกษ (2004) จำกัด","owner":"บริษัท โรงสีราษีพาณิชย์ศรีสะเกษ (2004) จำกัด","displayRegistration":"3-9(1)-111/26ศก","province":"ศรีสะเกษ","district":"ราษีไศล","subdistrict":"เมืองคง","industryType":"สีข้าว กำลังสีสูงสุดของร้านสีข้าว 80 เกวียน/วัน","status":"ดำเนินกิจการ","lat":15.36103,"lon":104.15969},"20330100125399":{"id":"20330100125399","name":"ห้างหุ้นส่วนจำกัด เอส.แอล.คอนกรีต","owner":"ห้างหุ้นส่วนจำกัด เอส.แอล.คอนกรีต","displayRegistration":"จ3-58(1)-1/39ศก","province":"ศรีสะเกษ","district":"เมืองศรีสะเกษ","subdistrict":"โพนข่า","industryType":"ผลิต ผลิตภัณฑ์คอนกรีต เช่น แผ่นพื้นเรียบ, ท่อ, เสา","status":"ดำเนินกิจการ","lat":15.08116,"lon":104.34445},"20330000225406":{"id":"20330000225406","name":"บริษัท พ.ศ.ช.ผลิตภัณฑ์อาหาร จำกัด","owner":"บริษัท พ.ศ.ช.ผลิตภัณฑ์อาหาร จำกัด","displayRegistration":"จ3-9(2)-2/40ศก","province":"ศรีสะเกษ","district":"ขุนหาญ","subdistrict":"ไพร","industryType":"ทำแป้งขนมจีน","status":"ดำเนินกิจการ","lat":14.70847,"lon":104.482773},"20330000125416":{"id":"20330000125416","name":"สหกรณ์การเกษตรเมืองศรีสะเกษ จำกัด","owner":"สหกรณ์การเกษตรเมืองศรีสะเกษ จำกัด","displayRegistration":"จ3-9(1)-1/41ศก","province":"ศรีสะเกษ","district":"เมืองศรีสะเกษ","subdistrict":"โพธิ์","industryType":"สีข้าง กำลังสีสูงสุดของร้านสีข้าว 70 เกวียน/วัน","status":"ดำเนินกิจการ","lat":15.10513,"lon":104.38486},"20330200125406":{"id":"20330200125406","name":"ห้างหุ้นส่วนจำกัด เอส.แอล.คอนกรีต","owner":"ห้างหุ้นส่วนจำกัด เอส.แอล.คอนกรีต","displayRegistration":"จ3-58(1)-1/40ศก","province":"ศรีสะเกษ","district":"เมืองศรีสะเกษ","subdistrict":"หนองครก","industryType":"ผลิตภัณฑ์คอนกรีตผสมเสร็จ","status":"ดำเนินกิจการ","lat":15.10051,"lon":104.32415},"20330000125408":{"id":"20330000125408","name":"บริษัท จัสมินแมนูแฟคเจอริ่ง จำกัด","owner":"บริษัท จัสมินแมนูแฟคเจอริ่ง จำกัด","displayRegistration":"จ3-24-1/40ศก","province":"ศรีสะเกษ","district":"อุทุมพรพิสัย","subdistrict":"ขะยูง","industryType":"ปักผ้าลูกไม้","status":"ดำเนินกิจการ","lat":15.14982,"lon":104.21525},"20330100125415":{"id":"20330100125415","name":"ห้างหุ้นส่วนจำกัด ปิยภัทรค้าไม้","owner":"ห้างหุ้นส่วนจำกัด ปิยภัทรค้าไม้","displayRegistration":"จ3-34(2)-1/41ศก","province":"ศรีสะเกษ","district":"ขุขันธ์","subdistrict":"หนองฉลอง","industryType":"ทำวงกบ ทำประตู ขอบหน้าต่าง บานประตู บานหน้าต่าง หรือส่วนประกอบที่ทำด้วยไม้ของอาคารและเครื่องเรือนเครื่องใช้จากไม้ ไสและซอยไม้","status":"ดำเนินกิจการ","lat":14.66964,"lon":104.20348},"20330200125414":{"id":"20330200125414","name":"ห้างหุ้นส่วนจำกัด วีอาร์คอนกรีต","owner":"ห้างหุ้นส่วนจำกัด วีอาร์คอนกรีต","displayRegistration":"จ3-58(1)-1/41ศก","province":"ศรีสะเกษ","district":"ขุขันธ์","subdistrict":"หนองฉลอง","industryType":"ผลิตคอนกรีตผสมเสร็จ","status":"ดำเนินกิจการ","lat":14.68191,"lon":104.20395},"20330000225414":{"id":"20330000225414","name":"บริษัท โตมี จำกัด","owner":"บริษัท โตมี จำกัด","displayRegistration":"จ3-9(1)-2/41ศก","province":"ศรีสะเกษ","district":"ห้วยทับทัน","subdistrict":"ห้วยทับทัน","industryType":"สีข้าว กำลังสีสูงสุดของร้านสีข้าว 200 เกวียน/วัน","status":"ดำเนินกิจการ","lat":15.065786,"lon":104.052067},"20330300125413":{"id":"20330300125413","name":"อู่แสงเจริญการช่าง","owner":"นางสาววิภา จักษุคำ","displayRegistration":"จ3-95(1)-1/41ศก","province":"ศรีสะเกษ","district":"เมืองศรีสะเกษ","subdistrict":"หนองครก","industryType":"ซ่อม เคาะ พ่นสีรถยนต์","status":"ดำเนินกิจการ","lat":15.0842,"lon":104.29971},"20330000425428":{"id":"20330000425428","name":"บริษัท ศรีสะเกษพันธุ์ทอง จำกัด","owner":"บริษัท ศรีสะเกษพันธุ์ทอง จำกัด","displayRegistration":"จ3-95(1)-4/42ศก","province":"ศรีสะเกษ","district":"เมืองศรีสะเกษ","subdistrict":"โพนข่า","industryType":"ซ่อมรถยนต์","status":"ดำเนินกิจการ","lat":15.07801,"lon":104.34471},"20330100125423":{"id":"20330100125423","name":"สหกรณ์การเกษตรกันทรลักษ์ จำกัด","owner":"สหกรณ์การเกษตรกันทรลักษ์ จำกัด","displayRegistration":"จ3-9(1)-1/42ศก","province":"ศรีสะเกษ","district":"กันทรลักษ์","subdistrict":"หนองหญ้าลาด","industryType":"สีข้าว กำลังสีสูงสุดของร้านสีข้าว 24 เกวียน/วัน","status":"ดำเนินกิจการ","lat":14.66403,"lon":104.60524},"20330000125424":{"id":"20330000125424","name":"ห้างหุ้นส่วนจำกัด ป.จรูญท่าทราย","owner":"ห้างหุ้นส่วนจำกัด ป.สรียาท่าทราย","displayRegistration":"จ3-3(4)-1/42ศก","province":"ศรีสะเกษ","district":"ศิลาลาด","subdistrict":"หนองบัวดง","industryType":"ดูดทราย","status":"ดำเนินกิจการ","lat":15.41279,"lon":104.0223},"20330000325420":{"id":"20330000325420","name":"ลานมันศิริสมบัติ","owner":"นางสาวชญาดา สิทธิกาญจนะ","displayRegistration":"จ3-9(6)-3/42ศก","province":"ศรีสะเกษ","district":"ขุขันธ์","subdistrict":"ปรือใหญ่","industryType":"ทำมันเส้น","status":"ดำเนินกิจการ","lat":14.59571,"lon":104.26137},"20330400125438":{"id":"20330400125438","name":"ห้างหุ้นส่วนจำกัด เค.ที.เอส.ผลิตภัณฑ์คอนกรีต","owner":"ห้างหุ้นส่วนจำกัด เค.ที.เอส.ผลิตภัณฑ์คอนกรีต","displayRegistration":"จ3-58(1)-1/43ศก","province":"ศรีสะเกษ","district":"กันทรลักษ์","subdistrict":"หนองหญ้าลาด","industryType":"ผลิตคอนกรีตผสมเสร็จ","status":"ดำเนินกิจการ","lat":14.65193,"lon":104.63207},"20330000225430":{"id":"20330000225430","name":"ห้างหุ้นส่วนจำกัด ท่าทรายพนมศักดิ์ ราษีสิน พนมศักดิ์ผลิตภัณฑ์คอนกรีต (จึงจิ้นฮะ ราษีสิน)","owner":"ห้างหุ้นส่วนจำกัด ท่าทรายพนมศักดิ์ ราษีสิน พนมศักดิ์ผลิตภัณฑ์คอนกรีต (จึงจิ้นฮะ ราษีสิน)","displayRegistration":"จ3-58(1)-2/43ศก","province":"ศรีสะเกษ","district":"อุทุมพรพิสัย","subdistrict":"ตาเกษ","industryType":"ผลิตคอนกรีตผสมเสร็จและผลิตภัณฑ์คอนกรีตทุกชนิด","status":"ดำเนินกิจการ","lat":15.1635,"lon":104.16338},"20330000125432":{"id":"20330000125432","name":"ชัยอุดม","owner":"นางพรรณิภา อมรศักดิ์ชัย","displayRegistration":"จ3-2(1)-1/43ศก","province":"ศรีสะเกษ","district":"กันทรลักษ์","subdistrict":"หนองหญ้าลาด","industryType":"อบเมล็ดพืช","status":"ดำเนินกิจการ","lat":14.65888,"lon":104.62173},"20330100225439":{"id":"20330100225439","name":"ห้างหุ้นส่วนจำกัด สหชัยราษี","owner":"ห้างหุ้นส่วนจำกัด สหชัยราษี","displayRegistration":"จ3-95(1)-2/43ศก","province":"ศรีสะเกษ","district":"ราษีไศล","subdistrict":"เมืองคง","industryType":"ซ่อมและเคาะพ่นสีรถยนต์","status":"ดำเนินกิจการ","lat":15.35274,"lon":104.15724},"20330000425436":{"id":"20330000425436","name":"โรงสีราษีพาณิชย์","owner":"นายวีรวัฒน์ ทวีชัยนพรัตน์","displayRegistration":"จ3-2(1)-4/43ศก","province":"ศรีสะเกษ","district":"ราษีไศล","subdistrict":"เมืองคง","industryType":"อบลดความชื้นข้าวเปลือก","status":"ดำเนินกิจการ","lat":15.36103,"lon":104.15969},"20330100125449":{"id":"20330100125449","name":"เรือนจำอำเภอกันทรลักษ์","owner":"กรมราชทัณฑ์ กระทรวงมหาดไทย","displayRegistration":"จ3-37-1/44ศก","province":"ศรีสะเกษ","district":"กันทรลักษ์","subdistrict":"กระแชง","industryType":"ทำเครื่องเรือนจากไม้","status":"ดำเนินกิจการ","lat":14.68822,"lon":104.58102},"20330200225446":{"id":"20330200225446","name":"ห้างหุ้นส่วนจำกัด ที.เอส.วาย.คอนกรีตผสมเสร็จ","owner":"ห้างหุ้นส่วนจำกัด ที.เอส.วาย.คอนกรีตผสมเสร็จ","displayRegistration":"จ3-58(1)-2/44ศก","province":"ศรีสะเกษ","district":"เมืองศรีสะเกษ","subdistrict":"หนองแก้ว","industryType":"ผลิตคอนกรีตผสมเสร็จ","status":"ดำเนินกิจการ","lat":15.10382,"lon":104.40046},"20330100125456":{"id":"20330100125456","name":"ขุขันธ์น้ำทิพย์","owner":"นายปิยะพงษ์ รุ่งพัฒนาชัยกุล","displayRegistration":"จ3-14-1/45ศก","province":"ศรีสะเกษ","district":"ขุขันธ์","subdistrict":"ดองกำเม็ด","industryType":"ทำน้ำแข็งก้อนเล็ก (มีกำลังการผลิต 30 ตัน/วัน)","status":"ดำเนินกิจการ","lat":14.73975,"lon":104.19921},"20330000225455":{"id":"20330000225455","name":"ห้างหุ้นส่วนจำกัด โรงสีเจ็งย่งฮะฮวด","owner":"ห้างหุ้นส่วนจำกัด โรงสีเจ็งย่งฮะฮวด","displayRegistration":"จ3-9(1)-2/45ศก","province":"ศรีสะเกษ","district":"ห้วยทับทัน","subdistrict":"ห้วยทับทัน","industryType":"สีข้าว โดยมีกำลังการสีข้าวสูงสุด 300 เกวียน/วัน","status":"ดำเนินกิจการ","lat":15.03472,"lon":104.01902},"20330000225448":{"id":"20330000225448","name":"นายสมชาย แซ่จึง","owner":"นายสมชาย แซ่จึง","displayRegistration":"จ3-3(4)-2/44ศก","province":"ศรีสะเกษ","district":"ราษีไศล","subdistrict":"เมืองคง","industryType":"ดูดทราย","status":"ดำเนินกิจการ","lat":15.34225,"lon":104.15531},"20330100225454":{"id":"20330100225454","name":"ห้างหุ้นส่วนจำกัด แพรว-พีท-ที (2004)","owner":"ห้างหุ้นส่วนจำกัด แพรว-พีท-พี (2004)","displayRegistration":"จ3-14-2/45ศก","province":"ศรีสะเกษ","district":"ราษีไศล","subdistrict":"ส้มป่อย","industryType":"ผลิตน้ำแข็งหลอด","status":"ดำเนินกิจการ","lat":15.27955,"lon":104.2424},"20330100325452":{"id":"20330100325452","name":"โรงน้ำแข็งกันทรลักษ์ กิจวารี","owner":"นายอดิศร นิ่มพิศุทธิ์","displayRegistration":"จ3-14-3/45ศก","province":"ศรีสะเกษ","district":"กันทรลักษ์","subdistrict":"น้ำอ้อม","industryType":"ผลิตน้ำแข็งก้อนเล็ก","status":"ดำเนินกิจการ","lat":14.6664,"lon":104.65605},"20330100125407":{"id":"20330100125407","name":"ห้างหุ้นส่วนจำกัด ป.เลิศศิริ","owner":"ห้างหุ้นส่วนจำกัด ป.เลิศศิริ","displayRegistration":"จ3-57(3)-1/40ศก","province":"ศรีสะเกษ","district":"ราษีไศล","subdistrict":"เมืองคง","industryType":"คอนกรีตผสมเสร็จ","status":"ดำเนินกิจการ","lat":15.33849,"lon":104.16756},"20330000425444":{"id":"20330000425444","name":"บริษัท ข้าวหอมมะลิไทย จำกัด","owner":"บริษัท ข้าวหอมมะลิไทย จำกัด","displayRegistration":"จ3-9(1)-4/44ศก","province":"ศรีสะเกษ","district":"อุทุมพรพิสัย","subdistrict":"หัวช้าง","industryType":"สีข้าว โดยมีกำลังสีข้าวสูงสุด 100 เกวียน/วัน","status":"ดำเนินกิจการ","lat":15.26055,"lon":104.13787},"20330000325453":{"id":"20330000325453","name":"โรงสีข้าวจงเจริญ","owner":"ห้างหุ้นส่วนจำกัด โรงสีข้าวจงเจริญ","displayRegistration":"จ3-9(1)-3/45ศก","province":"ศรีสะเกษ","district":"กันทรารมย์","subdistrict":"คำเนียม","industryType":"สีข้าว โดยมีกำลังสีข้าวของร้านสีข้าวสูงสุด 300 เกวียน/วัน","status":"ดำเนินกิจการ","lat":15.098062,"lon":104.555425},"20330400125461":{"id":"20330400125461","name":"บริษัท เอกวิวัฒน์อุตสาหกรรม จำกัด","owner":"บริษัท เอกวิวัฒน์อุตสาหกรรม จำกัด","displayRegistration":"จ3-44-1/46ศก","province":"ศรีสะเกษ","district":"เมืองศรีสะเกษ","subdistrict":"หญ้าปล้อง","industryType":"ผลิตวัสดุเทอร์โมพลาสติก สำหรับทำเครื่องหมายจราจร","status":"ดำเนินกิจการ","lat":15.13278,"lon":104.3183},"10330000125467":{"id":"10330000125467","name":"ห้างหุ้นส่วนจำกัด โรงสีข้าวตั้งแซเยี้ยง","owner":"ห้างหุ้นส่วนจำกัด โรงสีข้าวตั้งแซเยี้ยง","displayRegistration":"3-9(1)-1/46ศก","province":"ศรีสะเกษ","district":"โนนคูณ","subdistrict":"โนนค้อ","industryType":"สีข้าว กำลังสีข้าวสูงสุดของร้านสี 400 เกวียน/วัน และอบข้าวเปลือก","status":"ดำเนินกิจการ","lat":14.89187,"lon":104.71207},"10330001025476":{"id":"10330001025476","name":"บริษัท ศรีต้นสน จำกัด","owner":"บริษัท ศรีต้นสน จำกัด","displayRegistration":"3-14-10/47ศก","province":"ศรีสะเกษ","district":"เมืองศรีสะเกษ","subdistrict":"โพนข่า","industryType":"ผลิตน้ำแข็งก้อนเล็ก กำลังการผลิต 150 ตันต่อวัน และผลิตน้ำดื่ม","status":"ดำเนินกิจการ","lat":15.066019,"lon":104.34623},"10330200125192":{"id":"10330200125192","name":"โรงกลึงรวมกิจ","owner":"ห้างหุ้นส่วนจำกัด ศรีสะเกษรวมกิจ","displayRegistration":"3-65-1/19ศก","province":"ศรีสะเกษ","district":"เมืองศรีสะเกษ","subdistrict":"เมืองใต้","industryType":"ซ่อมรถยนต์และเครื่องยนต์และกลึงโลหะทุกชนิด","status":"ดำเนินกิจการ","lat":15.10072,"lon":104.33277},"20330004025471":{"id":"20330004025471","name":"โรงสีข้าวจงเจริญ","owner":"นางสาวพรพิมล จงจรูญเกียรติ","displayRegistration":"จ3-2(1)-40/47ศก","province":"ศรีสะเกษ","district":"กันทรารมย์","subdistrict":"คำเนียม","industryType":"อบข้าวเปลือก","status":"ดำเนินกิจการ","lat":15.07478,"lon":104.56959},"20330005525479":{"id":"20330005525479","name":"NULL","owner":"นายฐิตพัฒน์ จึงมหากิจเจริญ","displayRegistration":"จ3-53(9)-55/47ศก","province":"ศรีสะเกษ","district":"ราษีไศล","subdistrict":"เมืองคง","industryType":"ล้าง บด ย่อยพลาสติก","status":"ดำเนินกิจการ","lat":15.3312,"lon":104.17347},"20330001425476":{"id":"20330001425476","name":"ไทยเฮง","owner":"นางแสงดารา เจริญศรี","displayRegistration":"จ3-2(5)-14/47ศก","province":"ศรีสะเกษ","district":"ขุขันธ์","subdistrict":"ห้วยเหนือ","industryType":"เก็บรักษาและลำเลียงข้าวเปลือกในโกดัง","status":"ดำเนินกิจการ","lat":14.70776,"lon":104.19988},"20330006425471":{"id":"20330006425471","name":"โรงน้ำแข็งขุนหาญกิจวารี","owner":"นางสุกัญญา นิ่มพิศุทธิ์","displayRegistration":"จ3-14-64/47ศก","province":"ศรีสะเกษ","district":"ขุนหาญ","subdistrict":"กระหวัน","industryType":"ผลิตนำแข็งก้อนเล็ก กำลังการผลิต 50 ตัน/วัน","status":"ดำเนินกิจการ","lat":14.64471,"lon":104.40926},"20330001225330":{"id":"20330001225330","name":"ห้างหุ้นส่วนจำกัด กอบเงินกำไรแท้","owner":"ห้างหุ้นส่วนจำกัด กอบเงินกำไรแท้","displayRegistration":"จ3-9(1)-12/33ศก","province":"ศรีสะเกษ","district":"พยุห์","subdistrict":"พยุห์","industryType":"สีข้าว กำลังสีสูงสุด 50 เกวียน/วัน","status":"ดำเนินกิจการ","lat":14.951332,"lon":104.395605},"20330101225479":{"id":"20330101225479","name":"นำดื่ม เอ เอ","owner":"นายอลงกฎ สุระนรากุล","displayRegistration":"จ3-14-12/47ศก","province":"ศรีสะเกษ","district":"ขุขันธ์","subdistrict":"สะเดาใหญ่","industryType":"ผลิตนำแข็งก้อนเล็กและน้ำดื่ม","status":"ดำเนินกิจการ","lat":14.71446,"lon":104.26506},"10330000325315":{"id":"10330000325315","name":"ห้างหุ้นส่วนจำกัด โรงสีเจ็งย่งฮะฮวด","owner":"ห้างหุ้นส่วนจำกัด โรงสีเจ็งย่งฮะฮวด","displayRegistration":"3-9(1)-3/31ศก","province":"ศรีสะเกษ","district":"ห้วยทับทัน","subdistrict":"ห้วยทับทัน","industryType":"สีข้าว กำลังสีสูงสุดของร้านสีข้าว 30 เกวียน/วัน","status":"ดำเนินกิจการ","lat":15.05571,"lon":104.0304},"10330000125475":{"id":"10330000125475","name":"บริษัท ชัยโย ซัพพลาย เชน จำกัด","owner":"บริษัท ชัยโย ซัพพลาย เชน จำกัด","displayRegistration":"3-34(4)-1/47ศก","province":"ศรีสะเกษ","district":"เบญจลักษ์","subdistrict":"ท่าคล้อ","industryType":"ผลิตชิ้นไม้สับจากไม้ที่ปลูกขึ้นโดยเฉพาะ 13 ชนิด ตามมติคณะรัฐมนตรี เพื่อจำหน่าย","status":"ดำเนินกิจการ","lat":14.78418,"lon":104.78588},"20330003825483":{"id":"20330003825483","name":"บริษัท ศรีสะเกษไรซ์ จำกัด","owner":"บริษัท ศิริภัทรไรซ์ จำกัด","displayRegistration":"จ3-9(1)-38/48ศก","province":"ศรีสะเกษ","district":"กันทรลักษ์","subdistrict":"หนองหญ้าลาด","industryType":"สีข้าว","status":"ดำเนินกิจการ","lat":14.66132,"lon":104.61477},"20330000925484":{"id":"20330000925484","name":"พิบูลย์พืชผล","owner":"นายพิบูลย์ วันศรี","displayRegistration":"จ3-2(2)-9/48ศก","province":"ศรีสะเกษ","district":"กันทรลักษ์","subdistrict":"ทุ่งใหญ่","industryType":"กะเทาะเมล็ดข้าวโพด","status":"ดำเนินกิจการ","lat":14.58555,"lon":104.60937},"20330001325486":{"id":"20330001325486","name":"บริษัท บุญศิริโฟรเซ่นโปรดักส์ จำกัด","owner":"บริษัท บุญศิริโฟรเซ่นโปรดักส์ จำกัด","displayRegistration":"จ3-92-13/48ศก","province":"ศรีสะเกษ","district":"เมืองศรีสะเกษ","subdistrict":"หนองไผ่","industryType":"ห้องเย็น","status":"ดำเนินกิจการ","lat":15.13154,"lon":104.27545},"20330002525480":{"id":"20330002525480","name":"บริษัท อิทม่า อิมเพ็กส์ จำกัด","owner":"บริษัท อิทม่า อิมเพ็กส์ จำกัด","displayRegistration":"จ3-28(1)-25/48ศก","province":"ศรีสะเกษ","district":"ศรีรัตนะ","subdistrict":"ศรีแก้ว","industryType":"ตัดเย็บเสื้อผ้าสำเร็จรูป","status":"ดำเนินกิจการ","lat":14.76369,"lon":104.45746},"20330004325483":{"id":"20330004325483","name":"บริษัท ไร่ทอง ออร์แกนิกส์ ฟาร์ม จำกัด","owner":"บริษัท ไร่ทอง ออร์แกนิกส์ ฟาร์ม","displayRegistration":"จ3-9(1)-43/48ศก","province":"ศรีสะเกษ","district":"เมืองศรีสะเกษ","subdistrict":"ทุ่ม","industryType":"สีข้าว กำลังสีสูงสุดร้านสี 46 เกวียน/วัน","status":"ดำเนินกิจการ","lat":14.97645,"lon":104.36129},"20330006225483":{"id":"20330006225483","name":"บริษัท ศรีสะเกษธัญญะกิจไรซ์ จำกัด","owner":"บริษัท ศรีสะเกษธัญญะกิจไรซ์ จำกัด","displayRegistration":"จ3-9(1)-62/48ศก","province":"ศรีสะเกษ","district":"เมืองศรีสะเกษ","subdistrict":"โพนค้อ","industryType":"สีข้าว ขนาดกำลังร้านสีสูงสุด 250 เกวียน/วัน","status":"ดำเนินกิจการ","lat":15.01344,"lon":104.36385},"20330000525482":{"id":"20330000525482","name":"อดุลย์พืชผล","owner":"นายไกรรัตน์ ศรีศุภร","displayRegistration":"จ3-2(2)-5/48ศก","province":"ศรีสะเกษ","district":"กันทรลักษ์","subdistrict":"กระแชง","industryType":"กระเทาะเมล็ดข้าวโพด","status":"ดำเนินกิจการ","lat":14.66733,"lon":104.59712},"20330002425483":{"id":"20330002425483","name":"บริษัท พาณิชย์เจริญคลังสินค้า จำกัด","owner":"บริษัท พาณิชย์เจริญคลังสินค้า จำกัด","displayRegistration":"จ3-2(5)-24/48ศก","province":"ศรีสะเกษ","district":"เมืองศรีสะเกษ","subdistrict":"โพนข่า","industryType":"เก็บรักษาและลำเลียงข้าวเปลือกในโกดัง","status":"ดำเนินกิจการ","lat":15.06964,"lon":104.34574},"20330002925482":{"id":"20330002925482","name":"นายจรูณ สาลีวัน","owner":"ห้างหุ้นส่วนจำกัด ท่าทรายรุ่งอรุณ","displayRegistration":"จ3-3(4)-29/48ศก","province":"ศรีสะเกษ","district":"ราษีไศล","subdistrict":"ด่าน","industryType":"ดูดทราย","status":"ดำเนินกิจการ","lat":15.40928,"lon":104.03066},"10330005425482":{"id":"10330005425482","name":"-","owner":"นางจำลอง จันทร์พันธ์","displayRegistration":"3-34(1)-54/48ศก","province":"ศรีสะเกษ","district":"ศิลาลาด","subdistrict":"คลีกลิ้ง","industryType":"แปรรูปไม้ยางพาราและไม้ที่ปลูกขึ้นโดยเฉพาะ 13 ชนิด ตามมติคณะรัฐมนตรี เพื่อจำหน่าย","status":"ดำเนินกิจการ","lat":15.53854,"lon":104.1037},"20330001125480":{"id":"20330001125480","name":"บริษัท โฟว์เซเว่นอินเตอร์ฟูดส์ จำกัด","owner":"บริษัท โฟว์เซเว่นอินเตอร์ฟูดส์ จำกัด","displayRegistration":"จ3-4(1)-11/48ศก","province":"ศรีสะเกษ","district":"กันทรารมย์","subdistrict":"ดู่","industryType":"ฆ่าสุกร","status":"ดำเนินกิจการ","lat":15.07975,"lon":104.48187},"20330009725489":{"id":"20330009725489","name":"ห้างหุ้นส่วนจำกัด วีระชัยค้าไม้ 2554","owner":"ห้างหุ้นส่วนจำกัด วีระชัยค้าไม้ 2554","displayRegistration":"จ3-37-97/48ศก","province":"ศรีสะเกษ","district":"กันทรารมย์","subdistrict":"ดู่","industryType":"ทำเครื่องจากไม้ยูคาลิปตัส","status":"ดำเนินกิจการ","lat":15.10395,"lon":104.58126},"10330000725225":{"id":"10330000725225","name":"ดาวรุ่งพืชผล","owner":"นายบุญศรี จิตสัมฤทธิ์","displayRegistration":"3-9(6)-7/22ศก","province":"ศรีสะเกษ","district":"ขุขันธ์","subdistrict":"ห้วยใต้","industryType":"ทำมันเส้น","status":"ดำเนินกิจการ","lat":14.65468,"lon":104.20438},"10330000125350":{"id":"10330000125350","name":"กิตติ","owner":"นายกิตติ แซ่อึง","displayRegistration":"3-9(6)-1/35ศก","province":"ศรีสะเกษ","district":"ขุนหาญ","subdistrict":"กันทรอม","industryType":"ทำมันเส้น","status":"ดำเนินกิจการ","lat":14.57411,"lon":104.31416},"10330000525542":{"id":"10330000525542","name":"การยางแห่งประเทศไทย","owner":"การยางแห่งประเทศไทย","displayRegistration":"3-52(3)-5/54ศก","province":"ศรีสะเกษ","district":"ขุนหาญ","subdistrict":"ไพร","industryType":"ผลิตยางแท่ง STR 20","status":"ดำเนินกิจการ","lat":14.703916,"lon":104.477431},"10330003825519":{"id":"10330003825519","name":"ห้างหุ้นส่วนจำกัด ศรีสะเกษขุนหาญ 2003","owner":"ห้างหุ้นส่วนจำกัด ศรีสะเกษขุนหาญ 2003","displayRegistration":"3-34(1)-38/51ศก","province":"ศรีสะเกษ","district":"ขุนหาญ","subdistrict":"สิ","industryType":"แปรรูปไม้ยางพาราและไม้ที่ปลูกขึ้นโดยเฉพาะ 13 ชนิด ตามมติคณะรัฐมนตรีเพื่อจำหน่าย","status":"ดำเนินกิจการ","lat":14.61506,"lon":104.43849},"20330009025518":{"id":"20330009025518","name":"NULL","owner":"นายมงคล อมรโรจน์วรวุฒิ","displayRegistration":"จ3-9(6)-90/51ศก","province":"ศรีสะเกษ","district":"กันทรลักษ์","subdistrict":"จานใหญ่","industryType":"ทำมันเส้น","status":"ดำเนินกิจการ","lat":14.75427,"lon":104.65128},"20330010125513":{"id":"20330010125513","name":"ไทยนต์พาณิชย์","owner":"นายโกสินทร์ แซ่เตีย","displayRegistration":"จ3-9(6)-101/51ศก","province":"ศรีสะเกษ","district":"กันทรลักษ์","subdistrict":"หนองหญ้าลาด","industryType":"ทำมันเส้นและกะเทาะเมล็ดข้าวโพด","status":"ดำเนินกิจการ","lat":14.64634,"lon":104.62646},"10330002325503":{"id":"10330002325503","name":"บริษัท สยาม ควอลิตี้ ไรซ์ จำกัด","owner":"บริษัท สยาม ควอลิตี้ ไรซ์ จำกัด","displayRegistration":"3-9(1)-23/50ศก","province":"ศรีสะเกษ","district":"โนนคูณ","subdistrict":"โนนค้อ","industryType":"ปรับปรุงคุณภาพข้าวสาร กำลังการผลิต 600 ตัน/วัน","status":"ดำเนินกิจการ","lat":14.8917,"lon":104.71181},"10330000125509":{"id":"10330000125509","name":"จำรัสเฟอร์นิเจอร์","owner":"นางพลอยนวพัชต์ เพชรศรี","displayRegistration":"3-34(1)-1/50ศก","province":"ศรีสะเกษ","district":"อุทุมพรพิสัย","subdistrict":"ขะยูง","industryType":"ทำวงกบ บานประตู หน้าต่างและเครื่องเรือนจากไม้","status":"ดำเนินกิจการ","lat":15.14709,"lon":104.23126},"20330001425518":{"id":"20330001425518","name":"ภัทรการเกษตร","owner":"นายศราวุธ เหรียญรักวงศ์","displayRegistration":"จ3-9(6)-14/51ศก","province":"ศรีสะเกษ","district":"กันทรลักษ์","subdistrict":"เมือง","industryType":"ทำมันเส้นและกระเทาะเมล็ดข้าวโพด","status":"ดำเนินกิจการ","lat":14.57509,"lon":104.65211},"10330000725506":{"id":"10330000725506","name":"บริษัท เอี่ยมศิริแป้งมัน จำกัด","owner":"บริษัท เอี่ยมศิริแป้งมัน จำกัด","displayRegistration":"3-9(2)-7/50ศก","province":"ศรีสะเกษ","district":"กันทรลักษ์","subdistrict":"จานใหญ่","industryType":"ผลิตแป้งมันสำปะหลัง กำลังการผลิต 250 ตันแป้ง/วัน","status":"ดำเนินกิจการ","lat":14.739875,"lon":104.671652},"10330002325511":{"id":"10330002325511","name":"นางณิชกมล ส่งเสริม","owner":"นางณิชกมล รัตนา","displayRegistration":"3-34(2)-23/51ศก","province":"ศรีสะเกษ","district":"ภูสิงห์","subdistrict":"ละลม","industryType":"ทำวงกบ บานประตู หน้าต่าง และเครื่องเรือนจากไม้","status":"ดำเนินกิจการ","lat":14.6039,"lon":104.07079},"20330021625501":{"id":"20330021625501","name":"อ.เจริญการช่างรีไชเคิล","owner":"นายสุระศักดิ์ โสระเวช","displayRegistration":"จ3-105-216/50ศก","province":"ศรีสะเกษ","district":"ห้วยทับทัน","subdistrict":"ห้วยทับทัน","industryType":"คัดแยกสิ่งปฏิกูลหรือวัสดุที่ไม่ใช้แล้วที่ไม่เป็นของเสียอันตราย , บดย่อยพลาสติก , อัดกระดาษและอัดเศษโลหะ","status":"ดำเนินกิจการ","lat":15.04044,"lon":104.03587},"20330010425509":{"id":"20330010425509","name":"โรงกลึงประเสริฐการช่าง","owner":"นายประเสริฐ ใสกระจ่าง","displayRegistration":"จ3-64(13)-104/50ศก","province":"ศรีสะเกษ","district":"กันทรลักษ์","subdistrict":"หนองหญ้าลาด","industryType":"กลึงเชื่อมโลหะ","status":"ดำเนินกิจการ","lat":14.64169,"lon":104.64088},"20330001825519":{"id":"20330001825519","name":"บริษัท สุนีย์กรุ๊ป จำกัด","owner":"บริษัท สุนีย์กรุ๊ป จำกัด","displayRegistration":"จ3-50(4)-18/51ศก","province":"ศรีสะเกษ","district":"กันทรารมย์","subdistrict":"ยาง","industryType":"ผลิตแอสฟัลท์ติคคอนกรีต","status":"ดำเนินกิจการ","lat":15.06701,"lon":104.50335},"20330000325495":{"id":"20330000325495","name":"ห้างหุ้นส่วนจำกัด ศิริสินโยธาการ","owner":"ห้างหุ้นส่วนจำกัด ภูเงินเอ็นจิเนียริ่ง","displayRegistration":"จ3-3(1)-3/49ศก","province":"ศรีสะเกษ","district":"ขุนหาญ","subdistrict":"พราน","industryType":"โรงโม่หิน","status":"ดำเนินกิจการ","lat":14.62511,"lon":104.49474},"20330100125506":{"id":"20330100125506","name":"ศูนย์บริการซ่อมสีมาตรฐาน","owner":"บริษัท ฐานซ่อมสี จำกัด","displayRegistration":"จ3-95(3)-1/50ศก","province":"ศรีสะเกษ","district":"เมืองศรีสะเกษ","subdistrict":"หนองครก","industryType":"ซ่อมสีรถยนต์","status":"ดำเนินกิจการ","lat":15.10282,"lon":104.32602},"20330001525499":{"id":"20330001525499","name":"นานาการเกษตร","owner":"ว่าที่ ร.ต.บารมี แซ่เตีย","displayRegistration":"จ3-9(6)-15/49ศก","province":"ศรีสะเกษ","district":"กันทรลักษ์","subdistrict":"กระแชง","industryType":"มันเส้นและเก็บรักษาลำเลียงพืชผลทางการเกษตร","status":"ดำเนินกิจการ","lat":14.67286,"lon":104.59328},"20330004125495":{"id":"20330004125495","name":"นางสาวปิยะธิดา โห้ไทย","owner":"นายสมชาย โห้ไทย","displayRegistration":"จ3-34(1)-41/49ศก","province":"ศรีสะเกษ","district":"ขุขันธ์","subdistrict":"นิคมพัฒนา","industryType":"แปรรูปไม้มะม่วง และไม้นอกประเภทหวงห้าม เพื่อจำหน่าย","status":"ดำเนินกิจการ","lat":14.62744,"lon":104.22729},"10330006725492":{"id":"10330006725492","name":"ห้างหุ้นส่วนจำกัด วีระชัยค้าไม้ 2554","owner":"ห้างหุ้นส่วนจำกัด วีระชัยค้าไม้ 2554","displayRegistration":"3-34(1)-67/49ศก","province":"ศรีสะเกษ","district":"กันทรารมย์","subdistrict":"ดู่","industryType":"แปรรูปไม้ยางพาราและไม้ที่ปลูกขึ้นโดยเฉพาะ 13 ชนิด ตามมติคณะรัฐมนตรีเพื่อจำหน่าย","status":"ดำเนินกิจการ","lat":15.0887,"lon":104.51878},"20330009925493":{"id":"20330009925493","name":"นายพร บุญราช","owner":"ห้างหุ้นส่วนจำกัด ป.สรียาท่าทราย","displayRegistration":"จ3-3(4)-99/49ศก","province":"ศรีสะเกษ","district":"ราษีไศล","subdistrict":"เมืองคง","industryType":"ดูดทราย","status":"ดำเนินกิจการ","lat":15.41277,"lon":104.02232},"20330000525490":{"id":"20330000525490","name":"เอ็มเบเกอรี่","owner":"นางสาวณัฐิภา พันธุ์ศักดิ์ศิริ","displayRegistration":"จ3-10(1)-5/49ศก","province":"ศรีสะเกษ","district":"กันทรลักษ์","subdistrict":"หนองหญ้าลาด","industryType":"ผลิตขนมปังปอนด์","status":"ดำเนินกิจการ","lat":14.63096,"lon":104.65072},"20330009825495":{"id":"20330009825495","name":"ท่าทรายพนมศักดิ์","owner":"นางปนัดดา แซ่จึง","displayRegistration":"จ3-3(4)-98/49ศก","province":"ศรีสะเกษ","district":"ราษีไศล","subdistrict":"ด่าน","industryType":"ดูดทราย","status":"ดำเนินกิจการ","lat":15.43713,"lon":104.01027},"20330004825490":{"id":"20330004825490","name":"ห้างหุ้นส่วนจำกัด แพรว พีท พี (2004)","owner":"ห้างหุ้นส่วนจำกัด แพรว พีท พี (2004)","displayRegistration":"จ3-14-48/49ศก","province":"ศรีสะเกษ","district":"เมืองศรีสะเกษ","subdistrict":"หนองไผ่","industryType":"ผลิตน้ำแข็งหลอด เพิ่มขึ้นอีก 80 ตัน/วัน รวมเป็น 240 ตัน/วัน","status":"ดำเนินกิจการ","lat":15.131,"lon":104.27474},"20330011225494":{"id":"20330011225494","name":"NULL","owner":"นายจุมพล สมทรัพย์","displayRegistration":"จ3-3(4)-112/49ศก","province":"ศรีสะเกษ","district":"ราษีไศล","subdistrict":"หนองแค","industryType":"ดูดทราย","status":"ดำเนินกิจการ","lat":15.41073,"lon":104.05989},"20330000425493":{"id":"20330000425493","name":"ห้างหุ้นส่วนจำกัด ศิลาภูฝ้าย","owner":"ห้างหุ้นส่วนจำกัด ศิลาภูฝ้าย","displayRegistration":"จ3-3(1)-4/49ศก","province":"ศรีสะเกษ","district":"ขุนหาญ","subdistrict":"พราน","industryType":"โม่หิน","status":"ดำเนินกิจการ","lat":14.571237,"lon":104.528937},"20330013225492":{"id":"20330013225492","name":"NULL","owner":"นายสมชาย แซ่จึง","displayRegistration":"จ3-3(4)-132/49ศก","province":"ศรีสะเกษ","district":"ราษีไศล","subdistrict":"เมืองคง","industryType":"ดูดทราย","status":"ดำเนินกิจการ","lat":15.35062,"lon":104.14061},"20330005725491":{"id":"20330005725491","name":"บริษัท ไทยสิริ เอเชีย จำกัด","owner":"บริษัท ไทยสิริ เอเชีย จำกัด","displayRegistration":"จ3-9(1)-57/49ศก","province":"ศรีสะเกษ","district":"ห้วยทับทัน","subdistrict":"ห้วยทับทัน","industryType":"สีข้าว กำลังสีสูงสุด 250 เกวียน/วัน","status":"ดำเนินกิจการ","lat":15.065703,"lon":104.057288},"20330000125507":{"id":"20330000125507","name":"บริษัท ท่าทรายรุ่งอรุณ จำกัด","owner":"บริษัท ท่าทรายรุ่งอรุณ จำกัด","displayRegistration":"จ3-3(4)-1/50ศก","province":"ศรีสะเกษ","district":"ราษีไศล","subdistrict":"ด่าน","industryType":"ดูดทราย","status":"ดำเนินกิจการ","lat":15.40834,"lon":104.03486},"20330012225543":{"id":"20330012225543","name":"ห้างหุ้นส่วนจำกัด โนนคูณ คอนกรีตผสมเสร็จ","owner":"ห้างหุ้นส่วนจำกัด โนนคูณ คอนกรีตผสมเสร็จ","displayRegistration":"จ3-58(1)-122/54ศก","province":"ศรีสะเกษ","district":"โนนคูณ","subdistrict":"โนนค้อ","industryType":"ผลิตคอนกรีตผสมเสร็จ","status":"ดำเนินกิจการ","lat":14.8857130300832,"lon":104.7093078759},"10330006825532":{"id":"10330006825532","name":"บริษัท เอสพีพี ทรี จำกัด","owner":"บริษัท เอสพีพี ทรี จำกัด","displayRegistration":"3-88(1)-68/53ศก","province":"ศรีสะเกษ","district":"เบญจลักษ์","subdistrict":"ท่าคล้อ","industryType":"ผลิตกระแสไฟฟ้าจากเซลล์แสงอาทิตย์ ขนาดกำลังการผลิต 8.847 เมกะวัตต์","status":"ดำเนินกิจการ","lat":14.793072,"lon":104.809904},"20330002525530":{"id":"20330002525530","name":"NULL","owner":"บริษัท เอี่ยมศิริแป้งมัน จำกัด","displayRegistration":"จ3-9(6)-25/53ศก","province":"ศรีสะเกษ","district":"เบญจลักษ์","subdistrict":"หนองหว้า","industryType":"ทำมันเส้น","status":"ดำเนินกิจการ","lat":14.772088,"lon":104.749489},"20330016025535":{"id":"20330016025535","name":"นายพรเลิศ มาทวี","owner":"นายพรเลิศ มาทวี","displayRegistration":"จ3-3(2)-160/53ศก","province":"ศรีสะเกษ","district":"กันทรลักษ์","subdistrict":"หนองหญ้าลาด","industryType":"ขุดตักทรายในที่ดินกรรมสิทธิ์","status":"ดำเนินกิจการ","lat":14.6823493704193,"lon":104.7842297134},"20330103325533":{"id":"20330103325533","name":"บริษัท ต.ไทยเจริญอุทุมพรก่อสร้าง จำกัด","owner":"บริษัท ต.ไทยเจริญอุทุมพรก่อสร้าง จำกัด","displayRegistration":"จ3-50(4)-33/53ศก","province":"ศรีสะเกษ","district":"อุทุมพรพิสัย","subdistrict":"สระกำแพงใหญ่","industryType":"ผลิตแอสฟัลท์ติกคอนกรีต","status":"ดำเนินกิจการ","lat":15.08564,"lon":104.11119},"20330001925533":{"id":"20330001925533","name":"บริษัท อิทม่า อิมเพ็กส์ จำกัด","owner":"บริษัท อิทม่า อิมเพ็กส์ จำกัด","displayRegistration":"จ3-28(1)-19/53ศก","province":"ศรีสะเกษ","district":"ขุนหาญ","subdistrict":"โพธิ์กระสังข์","industryType":"ตัดเย็บเสื้อผ้าสำเร็จรูป","status":"ดำเนินกิจการ","lat":13.6518653301092,"lon":100.427831011149},"20330003925549":{"id":"20330003925549","name":"พจน์เจริญ","owner":"นายนิทัศน์ ฮ้อปิยะกุล","displayRegistration":"จ3-9(6)-39/54ศก","province":"ศรีสะเกษ","district":"ขุขันธ์","subdistrict":"กันทรารมย์","industryType":"ทำมันเส้น","status":"ดำเนินกิจการ","lat":14.7212374833138,"lon":104.0819072419},"20330001925541":{"id":"20330001925541","name":"ร้านชัยสุดา","owner":"นางสาวศรีสุดา เควันดี","displayRegistration":"จ3-14-19/54ศก","province":"ศรีสะเกษ","district":"พยุห์","subdistrict":"โนนเพ็ก","industryType":"ทำน้ำแข็งหลอด กำลังการผลิต 100 ตัน/วัน (รวมของเดิมเป็น 140 ตัน/วัน)","status":"ดำเนินกิจการ","lat":14.9490678587796,"lon":104.330915374828},"20330016225549":{"id":"20330016225549","name":"ห้างหุ้นส่วนจำกัด ห้วยทับทัน อธิคม","owner":"ห้างหุ้นส่วนจำกัด ห้วยทับทัน อธิคม","displayRegistration":"จ3-58(1)-162/54ศก","province":"ศรีสะเกษ","district":"ห้วยทับทัน","subdistrict":"ห้วยทับทัน","industryType":"ผลิตคอนกรีตผสมเสร็จ","status":"ดำเนินกิจการ","lat":15.0592302251516,"lon":104.0398844267},"20330000725546":{"id":"20330000725546","name":"บริษัท ศรีสะเกษธัญญะกิจไรซ์ จำกัด","owner":"บริษัท ศรีสะเกษธัญญะกิจไรซ์ จำกัด","displayRegistration":"จ3-2(1)-7/54ศก","province":"ศรีสะเกษ","district":"เมืองศรีสะเกษ","subdistrict":"โพนค้อ","industryType":"อบลดความชื้นข้าวเปลือก","status":"ดำเนินกิจการ","lat":15.01344,"lon":104.36385},"20330002925540":{"id":"20330002925540","name":"ห้างหุ้นส่วนสามัญนิติบุคคล ทีเค.เจริญรุ่งเรือง","owner":"ห้างหุ้นส่วนสามัญนิติบุคคล ทีเค.เจริญรุ่งเรือง","displayRegistration":"จ3-52(3)-29/54ศก","province":"ศรีสะเกษ","district":"กันทรลักษ์","subdistrict":"ชำ","industryType":"ยางแผ่นรมควัน","status":"ดำเนินกิจการ","lat":14.53573,"lon":104.56915},"20330004625544":{"id":"20330004625544","name":"บริษัท โรงสีราษีพาณิชย์ศรีสะเกษ (2004) จำกัด","owner":"บริษัท โรงสีราษีพาณิชย์ศรีสะเกษ(2004) จำกัด","displayRegistration":"จ3-2(1)-46/54ศก","province":"ศรีสะเกษ","district":"ราษีไศล","subdistrict":"เมืองคง","industryType":"อบลดความชื้นข้าวเปลือก","status":"ดำเนินกิจการ","lat":15.36103,"lon":104.15969},"20330001025532":{"id":"20330001025532","name":"บริษัท สิริมงคลไรซ์ จำกัด","owner":"บริษัท สิริมงคลไรซ์ จำกัด","displayRegistration":"จ3-9(1)-10/53ศก","province":"ศรีสะเกษ","district":"เมืองศรีสะเกษ","subdistrict":"หมากเขียบ","industryType":"สีข้าว กำลังการผลิตของร้านสีข้าว 300 เกวียน/วัน","status":"ดำเนินกิจการ","lat":15.06072,"lon":104.27675},"20330000325537":{"id":"20330000325537","name":"ห้างหุ้นส่วนจำกัด รุ่งอรุณราษีการโยธา","owner":"ห้างหุ้นส่วนจำกัด รุ่งอรุณราษีการโยธา","displayRegistration":"จ3-3(4)-3/53ศก","province":"ศรีสะเกษ","district":"ศิลาลาด","subdistrict":"หนองบัวดง","industryType":"ดูดทราย","status":"ดำเนินกิจการ","lat":15.458,"lon":104.02889},"20330000525516":{"id":"20330000525516","name":"บริษัท เอี่ยมศิริ ไบโอ ก๊าซ จำกัด","owner":"บริษัท เอี่ยมศิริ ไบโอ ก๊าซ จำกัด","displayRegistration":"จ3-89-5/51ศก","province":"ศรีสะเกษ","district":"กันทรลักษ์","subdistrict":"จานใหญ่","industryType":"ผลิต ส่ง และจำหน่ายก๊าซชีวภาพ 36,000 ลบ.ม./วัน","status":"ดำเนินกิจการ","lat":14.74048,"lon":104.67126},"20330000125523":{"id":"20330000125523","name":"ท่าทรายพรเพชรทรายทอง","owner":"นางกชพร จารุรัชกุล","displayRegistration":"จ3-3(4)-1/52ศก","province":"ศรีสะเกษ","district":"ราษีไศล","subdistrict":"หนองแค","industryType":"ดูดทราย","status":"ดำเนินกิจการ","lat":15.36071,"lon":104.10394},"20330003025522":{"id":"20330003025522","name":"NULL","owner":"นายเอกไกร ธรสาธิตกุล","displayRegistration":"จ3-3(4)-30/52ศก","province":"ศรีสะเกษ","district":"เมืองศรีสะเกษ","subdistrict":"น้ำคำ","industryType":"ดูดทราย","status":"ดำเนินกิจการ","lat":15.18656,"lon":104.34912},"20330002225529":{"id":"20330002225529","name":"บริษัท เมืองทองคอนกรีต จำกัด","owner":"บริษัท เมืองทองคอนกรีต จำกัด","displayRegistration":"จ3-58(1)-22/52ศก","province":"ศรีสะเกษ","district":"กันทรลักษ์","subdistrict":"กระแชง","industryType":"ผลิตคอนกรีตผสมเสร็จ","status":"ดำเนินกิจการ","lat":14.67424,"lon":104.592},"20330103025521":{"id":"20330103025521","name":"บริษัท แซมรุ่งเรืองข้าวไทย จำกัด","owner":"บริษัท แซมรุ่งเรืองข้าวไทย จำกัด","displayRegistration":"จ3-9(1)-30/52ศก","province":"ศรีสะเกษ","district":"ขุขันธ์","subdistrict":"กันทรารมย์","industryType":"สีข้าว กำลังสีสูงสุดของร้านสีข้าว 150 เกวียน/วัน","status":"ดำเนินกิจการ","lat":14.72016,"lon":104.08527},"20330006825522":{"id":"20330006825522","name":"บริษัท มิตซูไทยยนต์ จำกัด","owner":"บริษัท มิตซูไทยยนต์ จำกัด","displayRegistration":"จ3-95(1)-68/52ศก","province":"ศรีสะเกษ","district":"เมืองศรีสะเกษ","subdistrict":"โพนข่า","industryType":"ซ่อมรถยนต์และเคาะพ่นสีรถยนต์","status":"ดำเนินกิจการ","lat":15.07742,"lon":104.34446},"20330002625520":{"id":"20330002625520","name":"ศรีสะเกษท่าทรายทอง","owner":"นางเฉลิมศรี ปาทาน","displayRegistration":"จ3-3(4)-26/52ศก","province":"ศรีสะเกษ","district":"เมืองศรีสะเกษ","subdistrict":"น้ำคำ","industryType":"ดูดทราย","status":"ดำเนินกิจการ","lat":15.18656,"lon":104.34912},"20330006525536":{"id":"20330006525536","name":"ห้างหุ้นส่วนจำกัด ศรีสะเกษลำดวนคอนกรีต","owner":"ห้างหุ้นส่วนจำกัด ศรีสะเกษลำดวนคอนกรีต","displayRegistration":"จ3-58(1)-65/53ศก","province":"ศรีสะเกษ","district":"เมืองศรีสะเกษ","subdistrict":"โพนข่า","industryType":"ทำคอนกรีตผสมเสร็จ","status":"ดำเนินกิจการ","lat":15.05305,"lon":104.37887},"20330000125531":{"id":"20330000125531","name":"บางกอกไอศกรีม","owner":"นายสนิท สายทอง","displayRegistration":"จ3-12(11)-1/53ศก","province":"ศรีสะเกษ","district":"เมืองศรีสะเกษ","subdistrict":"หนองครก","industryType":"ทำไอศกรีมแท่ง","status":"ดำเนินกิจการ","lat":15.09187,"lon":104.30758},"20330005425530":{"id":"20330005425530","name":"ห้างหุ้นส่วนจำกัด กันทรลักษ์คอนกรีต","owner":"ห้างหุ้นส่วนจำกัด กันทรลักษ์คอนกรีต","displayRegistration":"จ3-58(1)-54/53ศก","province":"ศรีสะเกษ","district":"กันทรลักษ์","subdistrict":"กระแชง","industryType":"ผลิตคอนกรีตผสมเสร็จ","status":"ดำเนินกิจการ","lat":14.66486,"lon":104.60302},"20330009225522":{"id":"20330009225522","name":"ก.พืชผล","owner":"นายนิวัฒน์ โชติวิวัฒนา","displayRegistration":"จ3-9(6)-92/52ศก","province":"ศรีสะเกษ","district":"กันทรลักษ์","subdistrict":"หนองหญ้าลาด","industryType":"ทำมันเส้น","status":"ดำเนินกิจการ","lat":14.62284,"lon":104.64884},"20330007425520":{"id":"20330007425520","name":"ปิติโชคสมหวังวัสดุ","owner":"นายปี แหวนหล่อ","displayRegistration":"จ3-34(2)-74/52ศก","province":"ศรีสะเกษ","district":"ราษีไศล","subdistrict":"หว้านคำ","industryType":"ทำวงกบประตูหน้าต่าง บานประตูหน้าต่าง , หน้าต่างเลื่อน ประตูเลื่อนและเครื่องเรือนเครื่องใช้จากไม้แปรรูป","status":"ดำเนินกิจการ","lat":15.39644,"lon":104.20412},"20330007025528":{"id":"20330007025528","name":"โรงสีข้าวสหกรณ์การเกษตรเพื่อการตลาดลูกค้า ธ.ก.ส.ศรีสะเกษ จำกัด","owner":"สหกรณ์การเกษตรเพื่อการตลาดลูกค้า ธ.ก.ส.ศรีสะเกษ จำกัด","displayRegistration":"จ3-9(1)-70/52ศก","province":"ศรีสะเกษ","district":"ราษีไศล","subdistrict":"หว้านคำ","industryType":"สีข้าว กำลังสีสูงสุดของร้านสีข้าว 80 เกวียน/วัน (เดิม 40 เกวียน/วัน)","status":"ดำเนินกิจการ","lat":15.41522,"lon":104.17398},"20330007325522":{"id":"20330007325522","name":"NULL","owner":"นายกรกฎ ไกรกังวาร","displayRegistration":"จ3-9(1)-73/52ศก","province":"ศรีสะเกษ","district":"กันทรารมย์","subdistrict":"โนนสัง","industryType":"สีข้าว กำลังสีสูงสุดของร้านสีข้าว 200 เกวียน/วัน","status":"ดำเนินกิจการ","lat":15.104506,"lon":104.649231},"20330004425523":{"id":"20330004425523","name":"โรงสีตั้งไพบูลย์","owner":"ห้างหุ้นส่วนจำกัด โรงสีตั้งไพบูลย์","displayRegistration":"จ3-2(1)-44/52ศก","province":"ศรีสะเกษ","district":"กันทรลักษ์","subdistrict":"หนองหญ้าลาด","industryType":"อบข้าวเปลือก กำลังการผลิต 200 ตัน/วัน","status":"ดำเนินกิจการ","lat":14.65175,"lon":104.63264},"20330010125562":{"id":"20330010125562","name":"ลานมันหนองปลาซิว","owner":"นายตติยะ หวังศุภกิจโกศล","displayRegistration":"จ3-9(6)-101/56ศก","province":"ศรีสะเกษ","district":"เบญจลักษ์","subdistrict":"หนองหว้า","industryType":"ทำมันเส้น","status":"ดำเนินกิจการ","lat":14.7677764231722,"lon":104.7099493996},"20330001125563":{"id":"20330001125563","name":"ห้างหุ้นส่วนจำกัด มูลริเวอร์เทรด","owner":"ห้างหุ้นส่วนจำกัด มูลริเวอร์เทรด","displayRegistration":"จ3-20(1)-11/56ศก","province":"ศรีสะเกษ","district":"กันทรารมย์","subdistrict":"โนนสัง","industryType":"ทำน้ำดื่มบรรจุขวด และขวดพลาสติกบรรจุน้ำดื่ม","status":"ดำเนินกิจการ","lat":15.1049265188175,"lon":104.6483024007},"20330019325577":{"id":"20330019325577","name":"ห้างหุ้นส่วนจำกัด ท่าทรายพนมศักดิ์ ราษีสิน พนมศักดิ์ผลิตภัณฑ์คอนกรีต (จึงจิ้นฮะ ราษีสิน)","owner":"ห้างหุ้นส่วนจำกัด ท่าทรายพนมศักดิ์ ราษีสิน พนมศักดิ์ผลิตภัณฑ์คอนกรีต (จึงจิ้นฮะ ราษีสิน)","displayRegistration":"จ3-58(1)-193/57ศก","province":"ศรีสะเกษ","district":"ขุขันธ์","subdistrict":"หนองฉลอง","industryType":"ผลิตภัณฑ์คอนกรีตผสมเสร็จ , ผลิตภัณฑ์คอนกรีตและท่ออัดแรงคอนกรีต","status":"ดำเนินกิจการ","lat":14.666234385925,"lon":104.2071358702},"20330000125564":{"id":"20330000125564","name":"ห้างหุ้นส่วนจำกัด ไทยเจริญศรีสะเกษ","owner":"ห้างหุ้นส่วนจำกัด ไทยเจริญศรีสะเกษ","displayRegistration":"จ3-50(1)-1/56ศก","province":"ศรีสะเกษ","district":"เมืองศรีสะเกษ","subdistrict":"หมากเขียบ","industryType":"ผลิตแอสฟัลต์ติคคอนกรีต","status":"ดำเนินกิจการ","lat":15.0524704549348,"lon":104.2743053697},"10330002225562":{"id":"10330002225562","name":"อุบลแสงทองไม้ชิพ","owner":"บริษัท อุบลแสงทอง วู๊ดชิพ จำกัด","displayRegistration":"3-34(4)-22/56ศก","province":"ศรีสะเกษ","district":"กันทรารมย์","subdistrict":"คำเนียม","industryType":"ผลิตชิ้นไม้สับจากไม้ที่ปลูกขึ้นโดยเฉพาะ 13 ชนิด ตามมติคณะรัฐมนตรีเพื่อจำหน่าย","status":"ดำเนินกิจการ","lat":15.0992515971169,"lon":104.5524252514},"20330018325560":{"id":"20330018325560","name":"ห้างหุ้นส่วนจำกัด ยูทีพี ผลิตภัณฑ์คอนกรีต","owner":"ห้างหุ้นส่วนจำกัด ยูทีพี ผลิตภัณฑ์คอนกรีต","displayRegistration":"จ3-58(1)-183/56ศก","province":"ศรีสะเกษ","district":"อุทุมพรพิสัย","subdistrict":"ตาเกษ","industryType":"ผลิตคอนกรีตผสมเสร็จและผลิตภัณฑ์คอนกรีต","status":"ดำเนินกิจการ","lat":15.1527928385082,"lon":104.1978882829},"20330005325573":{"id":"20330005325573","name":"บริษัท อีซูซุตังปักศรีสะเกษ จำกัด (สาขาขุขันธ์)","owner":"บริษัท อีซูซุตังปักศรีสะเกษ จำกัด","displayRegistration":"จ3-95(1)-53/57ศก","province":"ศรีสะเกษ","district":"ขุขันธ์","subdistrict":"ห้วยใต้","industryType":"ศูนย์บริการซ่อมรถยนต์","status":"ดำเนินกิจการ","lat":14.650565,"lon":104.20237},"20330026525565":{"id":"20330026525565","name":"นายปริญญา สาลีวัน","owner":"ห้างหุ้นส่วนจำกัด รุ่งอรุณ คอนกรีต","displayRegistration":"จ3-58(1)-265/56ศก","province":"ศรีสะเกษ","district":"เมืองศรีสะเกษ","subdistrict":"โพนเขวา","industryType":"ผลิตภัณฑ์คอนกรีตผสมเสร็จ และผลิตภัณฑ์คอนกรีต","status":"ดำเนินกิจการ","lat":15.100325398831,"lon":104.460538255408},"10330002625571":{"id":"10330002625571","name":"ห้างหุ้นส่วนจำกัด ตั้งแซเยี้ยงวู๊ดชิพ","owner":"ห้างหุ้นส่วนจำกัด ตั้งแซเยี้ยงวู๊ดชิพ","displayRegistration":"3-34(4)-26/57ศก","province":"ศรีสะเกษ","district":"โนนคูณ","subdistrict":"โนนค้อ","industryType":"ผลิตชิ้นไม้สับจากไม้ยูคาลิปตัสหรือไม้ที่ปลูกขึ้นโดยเฉพาะ 13 ชนิด ตามมติคณะรัฐมนตรีเพื่อจำหน่าย","status":"ดำเนินกิจการ","lat":14.8871803534432,"lon":104.710104578},"10330000125574":{"id":"10330000125574","name":"ไทยเทพนิมิตร","owner":"บริษัท ทีเอ็นที ซัพพลายเออร์ จำกัด","displayRegistration":"3-34(4)-1/57ศก","province":"ศรีสะเกษ","district":"ภูสิงห์","subdistrict":"ละลม","industryType":"ผลิตชิ้นไม้สับ จากไม้ยางพาราและไม้ที่ปลูกขึ้นโดยเฉพาะ 13 ชนิด ตามมติคณะรัฐมนตรีเพื่อจำหน่าย","status":"ดำเนินกิจการ","lat":14.606928111098,"lon":104.0701669042},"20330100825568":{"id":"20330100825568","name":"นครรีไซเคิล 2010","owner":"นายเจริญฤทธิ์ ลาภรัตน์","displayRegistration":"จ3-64(11)-8/56ศก","province":"ศรีสะเกษ","district":"อุทุมพรพิสัย","subdistrict":"สำโรง","industryType":"อัดเศษโลหะและอัดกระดาษ","status":"ดำเนินกิจการ","lat":15.1296541823609,"lon":104.1456317567},"20330010025564":{"id":"20330010025564","name":"ลานมันนนท์ศิริพืชผล","owner":"นางสาวมะยุรี นนท์ศิริ","displayRegistration":"จ3-9(6)-100/56ศก","province":"ศรีสะเกษ","district":"เบญจลักษ์","subdistrict":"หนองหว้า","industryType":"ทำมันเส้น","status":"ดำเนินกิจการ","lat":14.7545338386963,"lon":104.708494918},"20330001825568":{"id":"20330001825568","name":"ประยุทธการยาง","owner":"นายดิศทัต อ่อนทรวง","displayRegistration":"จ3-2(5)-18/56ศก","province":"ศรีสะเกษ","district":"เบญจลักษ์","subdistrict":"ท่าคล้อ","industryType":"ทำยางน้ำให้เป็นแผ่น ทำยางแผ่นรมควัน ยางก้อน ลำเลียงและเก็บรักษาในโกดัง","status":"ดำเนินกิจการ","lat":14.78539,"lon":104.790052},"20330000725561":{"id":"20330000725561","name":"-","owner":"นายยงค์ยุทธ แหวนหล่อ","displayRegistration":"จ3-34(2)-7/56ศก","province":"ศรีสะเกษ","district":"ราษีไศล","subdistrict":"หว้านคำ","industryType":"ทำวงกบประตูหน้าต่าง บานประตูหน้าต่าง และเครื่องเรือนเครื่องใช้จากไม้แปรรูป","status":"ดำเนินกิจการ","lat":15.3973899261507,"lon":104.209659046},"20330002025556":{"id":"20330002025556","name":"บริษัท แสงเจริญรุ่งเรือง จำกัด","owner":"บริษัท แสงเจริญรุ่งเรือง จำกัด","displayRegistration":"จ3-2(1)-20/55ศก","province":"ศรีสะเกษ","district":"กันทรลักษ์","subdistrict":"จานใหญ่","industryType":"อบลดความชื้นข้าวเปลือก กำลังการผลิต 200 ตัน/วัน","status":"ดำเนินกิจการ","lat":14.74237,"lon":104.66018},"20330102025555":{"id":"20330102025555","name":"ห้างหุ้นส่วนจำกัด โรงเลื่อยจักรกันทรลักษ์","owner":"ห้างหุ้นส่วนจำกัด โรงเลื่อยจักรกันทรลักษ์","displayRegistration":"จ3-34(2)-20/55ศก","province":"ศรีสะเกษ","district":"กันทรลักษ์","subdistrict":"น้ำอ้อม","industryType":"ทำวงกบ บานประตู-หน้าต่าง,และเครื่องเรือนจากไม้แปรรูป","status":"ดำเนินกิจการ","lat":14.64427,"lon":104.65794},"20330012325558":{"id":"20330012325558","name":"NULL","owner":"นายแสงชัย แหวนหล่อ","displayRegistration":"จ3-34(2)-123/55ศก","province":"ศรีสะเกษ","district":"ราษีไศล","subdistrict":"หว้านคำ","industryType":"ทำวงกบประตูหน้าต่าง บานประตูหน้าต่าง และส่วนประกอบของอาคารจากไม้แปรรูป","status":"ดำเนินกิจการ","lat":15.4178877716002,"lon":104.1884565017},"20330001525556":{"id":"20330001525556","name":"โรงน้ำแข็งโนนคูณกิจวารี","owner":"บริษัท โรงน้ำแข็งโนนคูณกิจวารี จำกัด","displayRegistration":"จ3-14-15/55ศก","province":"ศรีสะเกษ","district":"โนนคูณ","subdistrict":"บก","industryType":"ผลิตน้ำแข็งก้อนเล็ก ขนาดกำลังการผลิต 50 ตัน/วัน","status":"ดำเนินกิจการ","lat":14.9867522778136,"lon":104.630110905691},"20330013525552":{"id":"20330013525552","name":"-","owner":"นายไพทูรย์ แหวนหล่อ","displayRegistration":"จ3-34(2)-135/55ศก","province":"ศรีสะเกษ","district":"ราษีไศล","subdistrict":"หว้านคำ","industryType":"ทำวงกบประตูหน้าต่าง บานประตูหน้าต่างและเครื่องเรือนจากไม้แปรรูป","status":"ดำเนินกิจการ","lat":15.3946825826172,"lon":104.207157677},"10330002125556":{"id":"10330002125556","name":"บริษัท ยูนิเวอร์แซล โพรไวเดอร์ จำกัด","owner":"บริษัท ยูนิเวอร์แซล โพรไวเดอร์ จำกัด","displayRegistration":"3-88-21/55ศก","province":"ศรีสะเกษ","district":"เมืองศรีสะเกษ","subdistrict":"หญ้าปล้อง","industryType":"ผลิตกระแสไฟฟ้าจากเซลล์แสงอาทิตย์ ขนาดกำลังผลิต 2.99 เมกะวัตต์","status":"ดำเนินกิจการ","lat":15.0625051977738,"lon":104.3755297668},"20330007425553":{"id":"20330007425553","name":"บริษัท โรงสีหิรัณย์เจริญ จำกัด","owner":"บริษัท โรงสีหิรัญเจริญ จำกัด","displayRegistration":"จ3-9(1)-74/55ศก","province":"ศรีสะเกษ","district":"เบญจลักษ์","subdistrict":"ท่าคล้อ","industryType":"สีข้าว กำลังสีสูงสุดของร้านสีข้าวรวมเป็น 1200 ตัน/วัน และอบข้าวเปลือก","status":"ดำเนินกิจการ","lat":14.7711247620494,"lon":104.7524114352},"20330014925561":{"id":"20330014925561","name":"ห้างหุ้นส่วนจำกัด วีระคอนกรีต (2556)","owner":"ห้างหุ้นส่วนจำกัด วีระคอนกรีต (2556)","displayRegistration":"จ3-58(1)-149/56ศก","province":"ศรีสะเกษ","district":"ไพรบึง","subdistrict":"สำโรงพลัน","industryType":"ผลิตคอนกรีตผสมเสร็จ และผลิตภัณฑ์คอนกรีต","status":"ดำเนินกิจการ","lat":14.6875049185543,"lon":104.359560789273},"20330004525561":{"id":"20330004525561","name":"ห้างหุ้นส่วนจำกัด โรงสีรวมชัยขุขันธ์","owner":"ห้างหุ้นส่วนจำกัด โรงสีรวมชัยขุขันธ์","displayRegistration":"จ3-2(1)-45/56ศก","province":"ศรีสะเกษ","district":"ขุขันธ์","subdistrict":"โสน","industryType":"อบข้าวเปลือก","status":"ดำเนินกิจการ","lat":14.639008,"lon":104.137231},"20330007725580":{"id":"20330007725580","name":"สหกรณ์การเกษตรกันทรลักษ์ จำกัด","owner":"สหกรณ์การเกษตรกันทรลักษ์ จำกัด","displayRegistration":"จ3-52(3)-77/58ศก","province":"ศรีสะเกษ","district":"กันทรลักษ์","subdistrict":"หนองหญ้าลาด","industryType":"ทำยางแผ่นรมควัน ยางเครป และยางแท่ง","status":"ดำเนินกิจการ","lat":14.6683903190029,"lon":104.6075760917},"20330001325593":{"id":"20330001325593","name":"บุหลันพานิชย์","owner":"นางบุหลัน กลับสุข","displayRegistration":"จ3-9(6)-13/59ศก","province":"ศรีสะเกษ","district":"ศิลาลาด","subdistrict":"กุง","industryType":"ทำมันเส้น","status":"ดำเนินกิจการ","lat":15.446127,"lon":104.099315},"20330101125604":{"id":"20330101125604","name":"บริษัท วารีเทพ ขุขันธ์ จำกัด","owner":"บริษัท วารีเทพ ขุขันธ์ จำกัด","displayRegistration":"จ3-14-11/60ศก","province":"ศรีสะเกษ","district":"ภูสิงห์","subdistrict":"ห้วยตึ๊กชู","industryType":"ผลิตน้ำแข็งหลอด","status":"ดำเนินกิจการ","lat":14.633656425,"lon":104.137817403268},"20330017125573":{"id":"20330017125573","name":"หงษ์เพชรค้าไม้","owner":"นายหงษ์ทอง นันทสิงห์","displayRegistration":"จ3-34(2)-171/57ศก","province":"ศรีสะเกษ","district":"ขุนหาญ","subdistrict":"โพธิ์กระสังข์","industryType":"ทำพาเลทไม้ เครื่องเรือน เครื่องใช้จากไม้แปรรูป","status":"ดำเนินกิจการ","lat":14.6112731703452,"lon":104.3409903412},"20330023925594":{"id":"20330023925594","name":"บริษัท หงษ์ศิลา จำกัด","owner":"บริษัท หงษ์ศิลา จำกัด","displayRegistration":"จ3-58(1)-239/59ศก","province":"ศรีสะเกษ","district":"เมืองศรีสะเกษ","subdistrict":"โพนเขวา","industryType":"ผลิตคอนกรีตผสมเสร็จ และผลิตภัณฑ์คอนกรีตสำเร็จรูปทุกชนิด","status":"ดำเนินกิจการ","lat":15.099599,"lon":104.445096},"20330108625598":{"id":"20330108625598","name":"ห้างหุ้นส่วนจำกัด กันทรลักษ์ตั้งพูนผลสวัสดิ์","owner":"ห้างหุ้นส่วนจำกัด กันทรลักษ์ตั้งพูนผลสวัสดิ์","displayRegistration":"จ3-50(4)-86/59ศก","province":"ศรีสะเกษ","district":"กันทรลักษ์","subdistrict":"เวียงเหนือ","industryType":"ผลิตแอสฟัลท์ติกคอนกรีต","status":"ดำเนินกิจการ","lat":14.6405234348748,"lon":104.667212578},"20330003425581":{"id":"20330003425581","name":"บริษัท วี-ซิส รับเบอร์ อินเตอร์เนชั่นแนล จำกัด","owner":"บริษัท วี-ซิ รับเบอร์ อินเตอร์เนชั่นแนล จำกัด","displayRegistration":"จ3-9(6)-34/58ศก","province":"ศรีสะเกษ","district":"ไพรบึง","subdistrict":"ปราสาทเยอ","industryType":"ทำมันเส้น ลำเลียงและเก็บรักษาผลผลิตเกษตรในโกดัง","status":"ดำเนินกิจการ","lat":14.8050798058075,"lon":104.361938360139},"10330011225603":{"id":"10330011225603","name":"นายตติยะ หวังศุภกิจโกศล","owner":"นายตติยะ หวังศุภกิจโกศล","displayRegistration":"3-106-112/60ศก","province":"ศรีสะเกษ","district":"เบญจลักษ์","subdistrict":"หนองหว้า","industryType":"ลานตากกากมันสำปะหลัง","status":"ดำเนินกิจการ","lat":14.7677764231722,"lon":104.7099493996},"20330001825600":{"id":"20330001825600","name":"วิสาหกิจชุมชนศูนย์ข้าวชุมชนบ้านอุ่มแสง","owner":"วิสาหกิจชุมชนศูนย์ข้าวชุมชนบ้านอุ่มแสง","displayRegistration":"จ3-9(1)-18/60ศก","province":"ศรีสะเกษ","district":"ราษีไศล","subdistrict":"ดู่","industryType":"โรงสีข้าวอินทรีย์บ้านอุ่มแสง แปรรูปข้าวอินทรีย์","status":"ดำเนินกิจการ","lat":15.4469831485182,"lon":104.1742480935},"20330001425583":{"id":"20330001425583","name":"สหกรณ์การเกษตรยางชุมน้อย จำกัด","owner":"สหกรณ์การเกษตรยางชุมน้อย จำกัด","displayRegistration":"จ3-9(1)-14/58ศก","province":"ศรีสะเกษ","district":"ยางชุมน้อย","subdistrict":"ยางชุมน้อย","industryType":"สีข้าว และอบลดความชื้นข้าวเปลือก","status":"ดำเนินกิจการ","lat":15.2477998389003,"lon":104.3990247696},"20330008125582":{"id":"20330008125582","name":"ส.กันทรลักษ์","owner":"นางสุดารัตน์ สุธาสัตกุล","displayRegistration":"จ3-34(2)-81/58ศก","province":"ศรีสะเกษ","district":"กันทรลักษ์","subdistrict":"หนองหญ้าลาด","industryType":"ทำเครื่องเรือนเครื่องใช้ในบ้าน วงกบ ประตู หน้าต่าง ไม้คิว ไม้บัว ไม้ประดับ","status":"ดำเนินกิจการ","lat":14.6553080647288,"lon":104.627902458926},"20330000425618":{"id":"20330000425618","name":"NULL","owner":"นางสาวรำไพ บุรกรณ์","displayRegistration":"จ3-3(2)-4/61ศก","province":"ศรีสะเกษ","district":"ศรีรัตนะ","subdistrict":"เสื่องข้าว","industryType":"ขุดตักดินลูกรังในที่ดินกรรมสิทธิ์เพื่อนำไปใช้ในการก่อสร้าง และในการพาณิชย์","status":"ดำเนินกิจการ","lat":14.8417957955033,"lon":104.5445095483},"10330011425609":{"id":"10330011425609","name":"นางสาวมะยุรี นนท์ศิริ","owner":"นางสาวมะยุรี นนท์ศิริ","displayRegistration":"3-106-114/60ศก","province":"ศรีสะเกษ","district":"เบญจลักษ์","subdistrict":"หนองหว้า","industryType":"ลานตากกากมันสำปะหลัง","status":"ดำเนินกิจการ","lat":14.7545338386963,"lon":104.708494918},"20330003725618":{"id":"20330003725618","name":"นายพรเลิศ มาทวี","owner":"นายพรเลิศ มาทวี","displayRegistration":"จ3-3(2)-37/61ศก","province":"ศรีสะเกษ","district":"โนนคูณ","subdistrict":"เหล่ากวาง","industryType":"ขุดตักดินลูกรังในที่ดินกรรมสิทธิ์เพื่อนำไปใช้ในการก่อสร้าง และในการพานิชย์","status":"ดำเนินกิจการ","lat":14.8816292389716,"lon":104.6611862505},"20330001625612":{"id":"20330001625612","name":"NULL","owner":"นางเพ็ญศรี นารี","displayRegistration":"จ3-3(2)-16/61ศก","province":"ศรีสะเกษ","district":"ศรีรัตนะ","subdistrict":"เสื่องข้าว","industryType":"ขุดตักดินลูกรังในที่ดินกรรมสิทธิ์เพื่อนำไปใช้ในการก่อสร้าง และในการพาณิชย์","status":"ดำเนินกิจการ","lat":14.8445072893719,"lon":104.5449380764},"20330003125595":{"id":"20330003125595","name":"โรงอบข้าวเปลือกสหกรณ์การเกษตรเพื่อลูกค้า ธ.ก.ส.ศรีสะเกษ จำกัด","owner":"สหกรณ์การเกษตรเพื่อลูกค้า ธ.ก.ส.ศรีสะเกษ จำกัด","displayRegistration":"จ3-2(1)-31/59ศก","province":"ศรีสะเกษ","district":"ราษีไศล","subdistrict":"หว้านคำ","industryType":"อบลดความชื้นข้าวเปลือก กำลังการผลิต 300 ตัน/วัน","status":"ดำเนินกิจการ","lat":15.414030683672,"lon":104.174966207},"20330017725604":{"id":"20330017725604","name":"ห้างหุ้นส่วนจำกัด ชัยพรกันทรารมย์ก่อสร้าง","owner":"ห้างหุ้นส่วนจำกัด ชัยพรกันทรารมย์ก่อสร้าง","displayRegistration":"จ3-58(1)-177/60ศก","province":"ศรีสะเกษ","district":"กันทรารมย์","subdistrict":"ดูน","industryType":"ผลิตคอนกรีตผสมเสร็จ และผลิตภัณฑ์คอนกรีตทุกชนิด","status":"ดำเนินกิจการ","lat":15.1054706525487,"lon":104.5802337631},"10330009525592":{"id":"10330009525592","name":"บริษัท กิมชุนไอซ์ ศรีสะเกษ จำกัด","owner":"บริษัท กิมซุนไอซ์ ศรีสะเกษ จำกัด","displayRegistration":"3-14-95/59ศก","province":"ศรีสะเกษ","district":"เมืองศรีสะเกษ","subdistrict":"หมากเขียบ","industryType":"ผลิตน้ำแข็งหลอด","status":"ดำเนินกิจการ","lat":15.0354088962465,"lon":104.2601421087},"20330030825571":{"id":"20330030825571","name":"บริษัท เจริญชัยคอนกรีตแอนด์สตีล จำกัด","owner":"บริษัท เจริญชัยคอนกรีตแอนด์สตีล จำกัด","displayRegistration":"จ3-58(1)-308/57ศก","province":"ศรีสะเกษ","district":"เมืองศรีสะเกษ","subdistrict":"หนองไผ่","industryType":"ผลิตคอนกรีตผสมเสร็จและผลิตภัณฑ์คอนกรีตอื่น เช่น แผ่นพื้นคอนกรีต ท่อ เสาคอนกรีต","status":"ดำเนินกิจการ","lat":15.139546,"lon":104.26055},"20330007925602":{"id":"20330007925602","name":"ห้างหุ้นส่วนจำกัด สินประดิษฐ์","owner":"ห้างหุ้นส่วนจำกัด สินประดิษฐ์","displayRegistration":"จ3-58(1)-79/60ศก","province":"ศรีสะเกษ","district":"กันทรารมย์","subdistrict":"ดูน","industryType":"ผลิตคอนกรีตผสมเสร็จ","status":"ดำเนินกิจการ","lat":15.099772,"lon":104.594995},"20330201625586":{"id":"20330201625586","name":"เอิบอิ่ม","owner":"บริษัท เอิบอิ่ม จำกัด","displayRegistration":"จ3-10(3)-16/58ศก","province":"ศรีสะเกษ","district":"ขุนหาญ","subdistrict":"บักดอง","industryType":"การทำผลิตภัณฑ์อาหารจากแป้ง เป็นเส้น เม็ด และชิ้น","status":"ดำเนินกิจการ","lat":14.5676884156191,"lon":104.4559759304},"20330000925526":{"id":"20330000925526","name":"ห้างหุ้นส่วนจำกัด โรงสีรวมชัยขุขันธ์","owner":"ห้างหุ้นส่วนจำกัด โรงสีรวมชัยขุขันธ์","displayRegistration":"จ3-9(1)-9/52ศก","province":"ศรีสะเกษ","district":"ขุขันธ์","subdistrict":"โสน","industryType":"สีข้าว กำลังสีสูงสุดของร้านสีข้าว 300 เกวียน/วัน","status":"ดำเนินกิจการ","lat":14.63891,"lon":104.1376},"20330014825597":{"id":"20330014825597","name":"ห้างหุ้นส่วนจำกัด ไทยสงวนอุทุมพรก่อสร้าง","owner":"ห้างหุ้นส่วนจำกัด ไทยสงวนอุทุมพรก่อสร้าง","displayRegistration":"จ3-58(1)-148/59ศก","province":"ศรีสะเกษ","district":"อุทุมพรพิสัย","subdistrict":"สำโรง","industryType":"ผลิตคอนกรีตผสมเสร็จ และผลิตภัณฑ์คอนกรีตอัดแรงสำเร็จรูปทุกชนิด","status":"ดำเนินกิจการ","lat":15.1631256089985,"lon":104.154735449},"20330010025580":{"id":"20330010025580","name":"บริษัท เค.พี. รุ่งเรืองคอนกรีต จำกัด","owner":"บริษัท เค.พี. รุ่งเรืองคอนกรีต จำกัด","displayRegistration":"จ3-58(1)-100/58ศก","province":"ศรีสะเกษ","district":"กันทรารมย์","subdistrict":"ดูน","industryType":"ผลิตคอนกรีตสำเร็จรูป","status":"ดำเนินกิจการ","lat":15.1009348893931,"lon":104.5530883106},"20330002125588":{"id":"20330002125588","name":"ห้างหุ้นส่วนสามัญนิติบุคคล ส.สินทวี","owner":"ห้างหุ้นส่วนสามัญนิติบุคคล ส.สินทวี","displayRegistration":"จ3-2(1)-21/58ศก","province":"ศรีสะเกษ","district":"อุทุมพรพิสัย","subdistrict":"กำแพง","industryType":"อบข้าวเปลือก","status":"ดำเนินกิจการ","lat":15.1183325459549,"lon":104.1346193415},"20330000725538":{"id":"20330000725538","name":"บริษัท สิริมงคลไรซ์ จำกัด","owner":"บริษัท สิริมงคลไรซ์ จำกัด","displayRegistration":"จ3-2(1)-7/53ศก","province":"ศรีสะเกษ","district":"เมืองศรีสะเกษ","subdistrict":"หมากเขียบ","industryType":"อบข้าวเปลือก กำลังการผลิต 200 ตัน/วัน","status":"ดำเนินกิจการ","lat":15.05952,"lon":104.27579},"20330008625599":{"id":"20330008625599","name":"ท่าทรายกลอยใจ","owner":"นายสง่า มาหา","displayRegistration":"จ3-3(4)-86/59ศก","province":"ศรีสะเกษ","district":"กันทรลักษ์","subdistrict":"สังเม็ก","industryType":"ดูดทราย","status":"ดำเนินกิจการ","lat":14.7228482034042,"lon":104.688115243},"20330011025605":{"id":"20330011025605","name":"ห้างหุ้นส่วนจำกัด ธงไทย คอนกรีต","owner":"ห้างหุ้นส่วนจำกัด ธงไทย คอนกรีต","displayRegistration":"จ3-58(1)-110/60ศก","province":"ศรีสะเกษ","district":"กันทรลักษ์","subdistrict":"หนองหญ้าลาด","industryType":"ผลิตคอนกรีตผสมเสร็จ และผลิตภัณฑ์คอนกรีตทุกชนิด","status":"ดำเนินกิจการ","lat":14.660669,"lon":104.619915},"10330008325598":{"id":"10330008325598","name":"ห้างหุ้นส่วนจำกัด ประสงค์ทรัพย์ ศรีสะเกษ","owner":"ห้างหุ้นส่วนจำกัด ประสงค์ทรัพย์ ศรีสะเกษ","displayRegistration":"3-14-83/59ศก","province":"ศรีสะเกษ","district":"เมืองศรีสะเกษ","subdistrict":"น้ำคำ","industryType":"ผลิตน้ำแข็งหลอด กำลังการผลิต 230 ตัน/วัน","status":"ดำเนินกิจการ","lat":15.1371876736008,"lon":104.3356186399},"20330013425589":{"id":"20330013425589","name":"บริษัท ศรีสะเกษออกแบบและก่อสร้าง(2539) จำกัด","owner":"บริษัท ศรีสะเกษออกแบบและก่อสร้าง (2539) จำกัด","displayRegistration":"จ3-58(1)-134/58ศก","province":"ศรีสะเกษ","district":"เมืองศรีสะเกษ","subdistrict":"หญ้าปล้อง","industryType":"ผลิตคอนกรีตมวลเบาสำหรับงานก่อสร้าง","status":"ดำเนินกิจการ","lat":15.1719836720894,"lon":104.275562749661},"20330016125608":{"id":"20330016125608","name":"ห้างหุ้นส่วนจำกัด ศรีสะเกษสำเนียงชัย","owner":"ห้างหุ้นส่วนจำกัด ศรีสะเกษสำเนียงชัย","displayRegistration":"จ3-3(2)-161/60ศก","province":"ศรีสะเกษ","district":"โนนคูณ","subdistrict":"บก","industryType":"ขุดตักดินลูกรังในที่ดินกรรมสิทธิ์เพื่อนำไปใช้ในการก่อสร้าง และในการพาณิชย์","status":"ดำเนินกิจการ","lat":14.9822475287957,"lon":104.6505326122},"20330101625595":{"id":"20330101625595","name":"ห้างหุ้นส่วนจำกัด ปทุมลักษ์เมททอล","owner":"ห้างหุ้นส่วนจำกัด ปทุมลักษ์เมททอล","displayRegistration":"จ3-64(12)-16/59ศก","province":"ศรีสะเกษ","district":"เมืองศรีสะเกษ","subdistrict":"หนองแก้ว","industryType":"ตัด พับ รีด หรือม้วนโลหะ เช่น หลังคา ผนัง ฝ้า ส่วนประกอบเครื่องจักร ผลิตและประกอบเครื่องจักร เช่น เครื่องรีดโลหะ เครื่องติดฉนวน เครื่องเป่าลมหรือพัดลม","status":"ดำเนินกิจการ","lat":15.102344,"lon":104.420743},"20330000725611":{"id":"20330000725611","name":"NULL","owner":"นายสมับติ คลังพันธ์","displayRegistration":"จ3-3(2)-7/61ศก","province":"ศรีสะเกษ","district":"โนนคูณ","subdistrict":"เหล่ากวาง","industryType":"ขุดตักดินในที่ดินกรรมสิทธิ์เพื่อนำไปใช้ในการก่อสร้าง และในการพาณิชย์","status":"ดำเนินกิจการ","lat":14.878089722427,"lon":104.6728071839},"20330020525603":{"id":"20330020525603","name":"รวมทรัพย์คอนกรีต","owner":"บริษัท รวมทรัพย์ คอนกรีต จำกัด","displayRegistration":"จ3-58(1)-205/60ศก","province":"ศรีสะเกษ","district":"กันทรลักษ์","subdistrict":"จานใหญ่","industryType":"ผลิตคอนกรีตผสมเสร็จ และผลิตภัณฑ์คอนกรีตสำเร็จรูปทุกชนิด","status":"ดำเนินกิจการ","lat":14.704516,"lon":104.666258},"20330008025600":{"id":"20330008025600","name":"ห้างหุ้นส่วนจำกัด วีอาร์คอนกรีต","owner":"ห้างหุ้นส่วนจำกัด วีอาร์คอนกรีต","displayRegistration":"จ3-58(1)-80/60ศก","province":"ศรีสะเกษ","district":"ขุขันธ์","subdistrict":"หนองฉลอง","industryType":"ผลิตคอนกรีตผสมเสร็จ และผลิตภัณฑ์คอนกรีตทุกชนิด","status":"ดำเนินกิจการ","lat":14.6906395995605,"lon":104.2003707313},"20330001325601":{"id":"20330001325601","name":"พรประเสริฐ ฟู้ด","owner":"นายอรรถสิทธิ์ ม่วงประเสริฐ","displayRegistration":"จ3-4(3)-13/60ศก","province":"ศรีสะเกษ","district":"กันทรลักษ์","subdistrict":"น้ำอ้อม","industryType":"ผลิตลูกชิ้นและไส้กรอก","status":"ดำเนินกิจการ","lat":14.6629503224446,"lon":104.6509590639},"20330000625589":{"id":"20330000625589","name":"สหกรณ์การเกษตรกันทรลักษ์ จำกัด","owner":"สหกรณ์การเกษตรกันทรลักษ์ จำกัด","displayRegistration":"จ3-2(1)-6/58ศก","province":"ศรีสะเกษ","district":"กันทรลักษ์","subdistrict":"หนองหญ้าลาด","industryType":"อบลดความชื้นข้าวเปลือก ข้าวโพด","status":"ดำเนินกิจการ","lat":14.6673345461372,"lon":104.6055226546},"20330015225607":{"id":"20330015225607","name":"ห้างหุ้นส่วนจำกัด ประจวบกิจชัยคอนสตรั๊คชั่น","owner":"ห้างหุ้นส่วนจำกัด ประจวบกิจชัยคอนสตั้คชั่น","displayRegistration":"จ3-58(1)-152/60ศก","province":"ศรีสะเกษ","district":"กันทรลักษ์","subdistrict":"จานใหญ่","industryType":"ผลิตคอนกรีตผสมเสร็จ และผลิตภัณฑ์คอนกรีตทุกชนิด","status":"ดำเนินกิจการ","lat":14.744226,"lon":104.658977},"20330000725595":{"id":"20330000725595","name":"ลานมันอภิศักดิ์","owner":"นายอภิศักดิ์ อดิพัฒน์ตระกูล","displayRegistration":"จ3-9(6)-7/59ศก","province":"ศรีสะเกษ","district":"ขุนหาญ","subdistrict":"สิ","industryType":"ทำมันเส้น","status":"ดำเนินกิจการ","lat":14.6039571237803,"lon":104.4356467399},"20330018625605":{"id":"20330018625605","name":"บริษัท กันทรารมย์ทรายทอง จำกัด","owner":"บริษัท กันทรารมย์ทรายทอง จำกัด","displayRegistration":"จ3-3(2)-186/60ศก","province":"ศรีสะเกษ","district":"เมืองศรีสะเกษ","subdistrict":"น้ำคำ","industryType":"ขุดตัก ดูดทรายในที่ดินกรรมสิทธิ์ และผลิตทรายเพื่อจำหน่าย","status":"ดำเนินกิจการ","lat":15.1712392678653,"lon":104.3799446052},"10330011125605":{"id":"10330011125605","name":"นายตติยะ หวังศุภกิจโกศล","owner":"นายตติยะ หวังศุภกิจโกศล","displayRegistration":"3-106-111/60ศก","province":"ศรีสะเกษ","district":"เบญจลักษ์","subdistrict":"หนองหว้า","industryType":"ลานตากกากมันสำปะหลัง","status":"ดำเนินกิจการ","lat":14.7729491515945,"lon":104.7482767767},"20330013425613":{"id":"20330013425613","name":"ห้างหุ้นส่วนจำกัด กิจภัทรรุ่งเรือง","owner":"ห้างหุ้นส่วนจำกัด กิจภัทรรุ่งเรือง","displayRegistration":"จ3-3(2)-134/61ศก","province":"ศรีสะเกษ","district":"โนนคูณ","subdistrict":"บก","industryType":"ขุดตักดินลูกรังในที่ดินกรรมสิทธิ์เพื่อนำไปใช้ในการก่อสร้าง และในการพาณิชย์","status":"ดำเนินกิจการ","lat":14.987983663636,"lon":104.6558290118},"20330012425580":{"id":"20330012425580","name":"ห้างหุ้นส่วนจำกัด กันทรลักษ์รุ่งเรืองคอนกรีต","owner":"ห้างหุ้นส่วนจำกัด กันทรลักษืรุ่งเรืองคอนกรีต","displayRegistration":"จ3-58(1)-124/58ศก","province":"ศรีสะเกษ","district":"กันทรลักษ์","subdistrict":"กระแชง","industryType":"ผลิตคอนกรีตผสมเสร็จ และผลิตภัณฑ์คอนกรีตอื่นๆ","status":"ดำเนินกิจการ","lat":14.6963766550869,"lon":104.5763530257},"20330010225594":{"id":"20330010225594","name":"ห้างหุ้นส่วนจำกัด วีอาร์คอนกรีต","owner":"ห้างหุ้นส่วนจำกัด วีอาร์คอนกรีต","displayRegistration":"จ3-58(1)-102/59ศก","province":"ศรีสะเกษ","district":"ขุขันธ์","subdistrict":"หนองฉลอง","industryType":"ผลิตผลิตภัณฑ์คอนกรีตผสมเสร็จ และผลิตภัณฑ์คอนกรีตสำเร็จรูปทุกชนิด","status":"ดำเนินกิจการ","lat":14.690807,"lon":104.200729},"10330003025607":{"id":"10330003025607","name":"บริษัท ซีพีเอฟ (ประเทศไทย) จำกัด (มหาชน)","owner":"บริษัท ซีพีเอฟ (ประเทศไทย) จำกัด (มหาชน)","displayRegistration":"3-4(1)-30/60ศก","province":"ศรีสะเกษ","district":"เบญจลักษ์","subdistrict":"ท่าคล้อ","industryType":"ฆ่าและชำแหละไก่","status":"ดำเนินกิจการ","lat":14.785523,"lon":104.774479},"20330000725603":{"id":"20330000725603","name":"NULL","owner":"ห้างหุ้นส่วนจำกัด วีเนียร์ศรีสะเกษ","displayRegistration":"จ3-34(3)-7/60ศก","province":"ศรีสะเกษ","district":"น้ำเกลี้ยง","subdistrict":"รุ่งระวี","industryType":"ทำไม้วีเนียร์ และไม้อัดทุกชนิด","status":"ดำเนินกิจการ","lat":14.8748369201374,"lon":104.535416271},"20330009725612":{"id":"20330009725612","name":"ห้างหุ้นส่วนจำกัด ก.กรุ๊ป คอนกรีต 2018","owner":"ห้างหุ้นส่วนจำกัด ก.กรุ๊ป คอนกรีต 2018","displayRegistration":"จ3-58(1)-97/61ศก","province":"ศรีสะเกษ","district":"พยุห์","subdistrict":"พยุห์","industryType":"ผลิตคอนกรีตผสมเสร็จ และผลิตภัณฑ์คอนกรีตสำเร็จรูปทุกชนิด","status":"ดำเนินกิจการ","lat":14.9230158403216,"lon":104.4051096241},"20330000425592":{"id":"20330000425592","name":"บริษัท ดีมาฟูดส์ จำกัด","owner":"บริษัท ดีมาฟูดส์ จำกัด","displayRegistration":"จ3-9(4)-4/59ศก","province":"ศรีสะเกษ","district":"ยางชุมน้อย","subdistrict":"ยางชุมน้อย","industryType":"ผลิตอาหารสำเร็จรูปจากเมล็ดพืชหรือหัวพืช เช่น หอมเจียว กระเทียมเจียว พริกป่น ข้าวคั่ว ถั่วทอด","status":"ดำเนินกิจการ","lat":15.266017,"lon":104.388231},"20330027425575":{"id":"20330027425575","name":"NULL","owner":"บริษัท คิงส์คอนกรีต อินดัสทรี จำกัด","displayRegistration":"จ3-58(1)-274/57ศก","province":"ศรีสะเกษ","district":"เมืองศรีสะเกษ","subdistrict":"หมากเขียบ","industryType":"ผลิตคอนกรีตผสมเสร็จ ผลิตภัณฑ์คอนกรีต แผ่นพื้น เสาเข็ม ท่อคอนกรีตอัดแรง และคอนกรีตบล็อค","status":"ดำเนินกิจการ","lat":15.04972,"lon":104.270591},"20330025425585":{"id":"20330025425585","name":"ห้างหุ้นส่วนจำกัด ไทยเจริญศรีสะเกษ","owner":"ห้างหุ้นส่วนจำกัด ไทยเจริญศรีสะเกษ","displayRegistration":"จ3-58(1)-254/58ศก","province":"ศรีสะเกษ","district":"อุทุมพรพิสัย","subdistrict":"สำโรง","industryType":"ผลิตคอนกรีตผสมเสร็จ และผลิตภัณฑ์เกี่ยวกับคอนกรีต","status":"ดำเนินกิจการ","lat":15.1655664315415,"lon":104.156868314},"10330003425591":{"id":"10330003425591","name":"บริษัท สหมิตร วู๊ดชิพ จำกัด","owner":"บริษัท สหมิตร วู๊ดชิพ จำกัด","displayRegistration":"3-34(4)-34/59ศก","province":"ศรีสะเกษ","district":"ไพรบึง","subdistrict":"ปราสาทเยอ","industryType":"ผลิตชิ้นไม้สับจากไม้ที่ปลูกขึ้นโดยเฉพาะ 13 ชนิด ตามมติคณะรัฐมนตรี เพื่อจำหน่าย","status":"ดำเนินกิจการ","lat":14.7944076044199,"lon":104.3544380546},"20330007625590":{"id":"20330007625590","name":"โรงงานน้ำแข็งวารีเทพยางชุมน้อย","owner":"บริษัท วารีเทพ ยางชุมน้อย จำกัด","displayRegistration":"จ3-14-76/59ศก","province":"ศรีสะเกษ","district":"ยางชุมน้อย","subdistrict":"บึงบอน","industryType":"ผลิตน้ำแข็งหลอด ขนาดกำลังการผลิต 80 ตัน/วัน","status":"ดำเนินกิจการ","lat":15.2617469116602,"lon":104.4181483028},"20330000925583":{"id":"20330000925583","name":"ห้างหุ้นส่วนจำกัด ที.เจ.เอ็น.เทรดดิ้ง","owner":"ห้างหุ้นส่วนจำกัด ที.เจ.เอ็น.เทรดดิ้ง","displayRegistration":"จ3-50(4)-9/58ศก","province":"ศรีสะเกษ","district":"อุทุมพรพิสัย","subdistrict":"แขม","industryType":"ผลิตแอสฟัลท์ติกคอนกรีต","status":"ดำเนินกิจการ","lat":15.1814850302528,"lon":104.1372976691},"10330002125580":{"id":"10330002125580","name":"ธนัชญา","owner":"นายธีระวัฒน์ รัตนะโสภา","displayRegistration":"3-34(4)-21/58ศก","province":"ศรีสะเกษ","district":"ราษีไศล","subdistrict":"หนองแค","industryType":"ผลิตชิ้นไม้สับจากไม้ยางพาราและไม้ที่ปลูกขึ้นโดยเฉพาะ 13 ชนิด ตามมติคณะรัฐมนตรีเพื่อจำหน่าย","status":"ดำเนินกิจการ","lat":15.3623777325556,"lon":104.1286276205},"20330001625588":{"id":"20330001625588","name":"ห้างหุ้นส่วนจำกัด สินทวีการเกษตร","owner":"บริษัท สินทวีการเกษตร จำกัด","displayRegistration":"จ3-2(1)-16/58ศก","province":"ศรีสะเกษ","district":"อุทุมพรพิสัย","subdistrict":"สำโรง","industryType":"อบข้าวเปลือก","status":"ดำเนินกิจการ","lat":15.1724395883416,"lon":104.162291525838},"10330001725588":{"id":"10330001725588","name":"บริษัท ไพรบึงพืชผล จำกัด","owner":"บริษัท ไพรบึงไรซ์ จำกัด","displayRegistration":"3-9(1)-17/58ศก","province":"ศรีสะเกษ","district":"ไพรบึง","subdistrict":"สำโรงพลัน","industryType":"สีข้าว กำลังการสีสูงสุดของร้านสีข้าว 1,000 ตัน/วัน นึ่ง อบข้าวเปลือก และการเก็บรักษา ลำเลียงในไซโลและโกดัง","status":"ดำเนินกิจการ","lat":14.6852156713663,"lon":104.3783343752},"20330014925595":{"id":"20330014925595","name":"ห้างหุ้นส่วนจำกัด ขุขันธ์ผลิตภัณฑ์คอนกรีต","owner":"ห้างหุ้นส่วนจำกัด ขุขันธ์ผลิตภัณฑ์คอนกรีต","displayRegistration":"จ3-58(1)-149/59ศก","province":"ศรีสะเกษ","district":"ขุขันธ์","subdistrict":"หัวเสือ","industryType":"ผลิตคอนกรีตผสมเสร็จ และผลิตภัณฑ์คอนกรีต","status":"ดำเนินกิจการ","lat":14.809433508343,"lon":104.1853057988},"20330001325478":{"id":"20330001325478","name":"ฮกฮวดพืชผล","owner":"นายวิชัย จิตสัมฤทธิ์","displayRegistration":"จ3-2(5)-13/47ศก","province":"ศรีสะเกษ","district":"ขุขันธ์","subdistrict":"ห้วยเหนือ","industryType":"เก็บรักษาและลำเลียงข้าวเปลือกในโกดัง","status":"ดำเนินกิจการ","lat":14.733715,"lon":104.199047},"20330003725584":{"id":"20330003725584","name":"ศ.ศวัสค้าไม้","owner":"นายณัฐภัทร ธุวดาราตระกูล","displayRegistration":"จ3-36(1)-37/58ศก","province":"ศรีสะเกษ","district":"กันทรลักษ์","subdistrict":"น้ำอ้อม","industryType":"ทำแผ่นรองรับสินค้าจากไม้ยางพารา","status":"ดำเนินกิจการ","lat":14.6653520602858,"lon":104.6761202869},"20330000925401":{"id":"20330000925401","name":"อู่ชัยเจริญ","owner":"นายปรีชา โค้วสิรภัค","displayRegistration":"จ3-95(1)-9/40ศก","province":"ศรีสะเกษ","district":"เมืองศรีสะเกษ","subdistrict":"โพธิ์","industryType":"ซ่อมและเคาะพ่นสีรถยนต์","status":"ดำเนินกิจการ","lat":15.11406,"lon":104.34523},"20330000525425":{"id":"20330000525425","name":"ห้างหุ้นส่วนจำกัด ราชา ทวีพร 2018","owner":"ห้างหุ้นส่วนจำกัด ราชา ทวีพร 2018","displayRegistration":"จ3-95(1)-5/42ศก","province":"ศรีสะเกษ","district":"เมืองศรีสะเกษ","subdistrict":"โพนข่า","industryType":"ซ่อมรถยนต์","status":"ดำเนินกิจการ","lat":15.06565,"lon":104.34592},"20330000325438":{"id":"20330000325438","name":"เรือนแสงไทย","owner":"นายมงคล อมรโรจน์วรวุฒิ","displayRegistration":"จ3-2(1)-3/43ศก","province":"ศรีสะเกษ","district":"กันทรลักษ์","subdistrict":"น้ำอ้อม","industryType":"อบเมล็ดพืช","status":"ดำเนินกิจการ","lat":14.65659,"lon":104.64982},"20330004125511":{"id":"20330004125511","name":"บริษัท โตมี จำกัด","owner":"บริษัท โตมี จำกัด","displayRegistration":"จ3-2(1)-41/51ศก","province":"ศรีสะเกษ","district":"ห้วยทับทัน","subdistrict":"ห้วยทับทัน","industryType":"อบข้าวเปลือก","status":"ดำเนินกิจการ","lat":15.05458,"lon":104.03445},"20330006025602":{"id":"20330006025602","name":"โชคทวีทรัพย์การช่าง","owner":"นางสาวจุฑามาศ ทวีโรจน์","displayRegistration":"จ3-34(2)-60/60ศก","province":"ศรีสะเกษ","district":"ราษีไศล","subdistrict":"หว้านคำ","industryType":"ทำวงกบประตูหน้าต่าง บานประตูหน้าต่าง และเครื่องเรือนจากไม้แปรรูป","status":"ดำเนินกิจการ","lat":15.3940732745372,"lon":104.20598325397},"10330001325512":{"id":"10330001325512","name":"บริษัท เอสบีเอส อินเตอร์กรุ๊ป จำกัด","owner":"บริษัท เอสบีเอส อินเตอร์กรุ๊ป จำกัด","displayRegistration":"3-34(4)-13/51ศก","province":"ศรีสะเกษ","district":"ขุนหาญ","subdistrict":"กันทรอม","industryType":"ผลิตชิ้นไม้สับจากไม้ที่ปลูกขึ้นโดยเฉพาะ 13 ชนิด ตามมติคณะรัฐมนตรีเพื่อจำหน่าย","status":"ดำเนินกิจการ","lat":14.5846,"lon":104.34189},"20330100225447":{"id":"20330100225447","name":"โรงสีข้าวสหกรณ์การเกษตรศรีกันทรารมย์ จำกัด","owner":"สหกรณ์การเกษตรศรีกันทรารมย์ จำกัด","displayRegistration":"จ3-9(1)-2/44ศก","province":"ศรีสะเกษ","district":"กันทรารมย์","subdistrict":"ดูน","industryType":"สีข้าว","status":"หยุดชั่วคราว","lat":15.10461,"lon":104.58023},"20330012025521":{"id":"20330012025521","name":"สหกรณ์การเกษตรห้วยทับทัน จำกัด","owner":"สหกรณ์การเกษตรห้วยทับทัน จำกัด","displayRegistration":"จ3-43(1)-120/52ศก","province":"ศรีสะเกษ","district":"ห้วยทับทัน","subdistrict":"ผักไหม","industryType":"ผลิตปุ๋ยอินทรีย์และผลิตปุ๋ยอินทรีย์เคมี","status":"ดำเนินกิจการ","lat":14.948545,"lon":104.031998},"20330000825619":{"id":"20330000825619","name":"กฤษฎาฟาร์ม","owner":"นางสาวศิรดา ทองสุ","displayRegistration":"จ3-15(2)-8/61ศก","province":"ศรีสะเกษ","district":"เบญจลักษ์","subdistrict":"เสียว","industryType":"บด พืช เมล็ดพืช กากพืช เพื่อผสมเป็นอาหารสำเร็จรูปสำหรับเลี้ยงสัตว์","status":"ดำเนินกิจการ","lat":14.817732452494,"lon":104.6798435119},"20330009925485":{"id":"20330009925485","name":"บริษัท อีซูซุตังปักศรีสะเกษ","owner":"บริษัท อีซูซุตังปักศรีสะเกษ จำกัด","displayRegistration":"จ3-95(1)-99/48ศก","province":"ศรีสะเกษ","district":"เมืองศรีสะเกษ","subdistrict":"หนองครก","industryType":"ตรวจเช็ค - ซ่อมรถยนต์","status":"ดำเนินกิจการ","lat":15.09351,"lon":104.33815},"20330020525611":{"id":"20330020525611","name":"บริษัท ดอนเมือง การช่าง จำกัด","owner":"บริษัท ดอนเมือง การช่าง จำกัด","displayRegistration":"จ3-3(2)-205/61ศก","province":"ศรีสะเกษ","district":"เบญจลักษ์","subdistrict":"หนองหว้า","industryType":"ขุดตักดินลูกรังในที่ดินกรรมสิทธิ์เพื่อนำไปใช้ในการก่อสร้าง และในการพาณิชย์","status":"ดำเนินกิจการ","lat":14.7591190602386,"lon":104.7491975616},"20330001225587":{"id":"20330001225587","name":"บริษัท ยิ่งดี 99 จำกัด","owner":"บริษัท ยิ่งดี 99 จำกัด","displayRegistration":"จ3-9(1)-12/58ศก","province":"ศรีสะเกษ","district":"ราษีไศล","subdistrict":"จิกสังข์ทอง","industryType":"สีข้าว และอบข้าวเปลือก","status":"ดำเนินกิจการ","lat":15.4478762611752,"lon":104.1414891495},"20330271525625":{"id":"20330271525625","name":"บริษัท สินรวมชัย 99 จำกัด","owner":"บริษัท สินรวมชัย 99 จำกัด","displayRegistration":"จ3-58(1)-171/62ศก","province":"ศรีสะเกษ","district":"ปรางค์กู่","subdistrict":"พิมาย","industryType":"ผลิตคอนกรีตผสมเสร็จ","status":"ดำเนินกิจการ","lat":14.8576687435795,"lon":104.045147197},"20330012925621":{"id":"20330012925621","name":"NULL","owner":"นางสาวรำไพ บุรกรณ์","displayRegistration":"จ3-3(2)-8/62ศก","province":"ศรีสะเกษ","district":"โนนคูณ","subdistrict":"เหล่ากวาง","industryType":"ขุดตักดินลูกรังในที่ดินกรรมสิทธิ์เพื่อนำไปใช้ในการก่อสร้าง และในการพาณิชย์","status":"ดำเนินกิจการ","lat":14.8777803310378,"lon":104.6540338362},"20330219525620":{"id":"20330219525620","name":"ห้างหุ้นส่วนจำกัด ที.เอ็น.บี.คอนกรีต","owner":"ห้างหุ้นส่วนจำกัด ที.เอ็น.บี.คอนกรีต","displayRegistration":"จ3-58(1)-133/62ศก","province":"ศรีสะเกษ","district":"ขุขันธ์","subdistrict":"โสน","industryType":"ผลิตคอนกรีตผสมเสร็จ และผลิตภัณฑ์คอนกรีตอื่นๆ","status":"ดำเนินกิจการ","lat":14.6861480722614,"lon":104.1405290414},"20330014025610":{"id":"20330014025610","name":"ห้างหุ้นส่วนจำกัด ไพรบึงมังกรทอง","owner":"ห้างหุ้นส่วนจำกัด ไพรบึงมังกรทอง","displayRegistration":"จ3-58(1)-140/61ศก","province":"ศรีสะเกษ","district":"ไพรบึง","subdistrict":"ไพรบึง","industryType":"ผลิตคอนกรีตผสมเสร็จ และผลิตภัณฑ์คอนกรีตสำเร็จรูปทุกชนิด","status":"ดำเนินกิจการ","lat":14.763169,"lon":104.355706},"20330193325625":{"id":"20330193325625","name":"บริษัท ทวีชัย คอนกรีต โปรดักส์ จำกัด","owner":"บริษัท ทวีชัย คอนกรีต โปรดักส์ จำกัด","displayRegistration":"จ3-58(1)-116/62ศก","province":"ศรีสะเกษ","district":"ราษีไศล","subdistrict":"บัวหุ่ง","industryType":"ผลิตคอนกรีตผสมเสร็จ และผลิตภัณฑ์เกี่ยวกับคอนกรีต","status":"ดำเนินกิจการ","lat":15.2969325365384,"lon":104.1433886415},"20330079525637":{"id":"20330079525637","name":"ห้างหุ้นส่วนจำกัด ชมัยพรก่อสร้าง","owner":"ห้างหุ้นส่วนจำกัด ชมัยพรก่อสร้าง","displayRegistration":"จ3-58(1)-46/63ศก","province":"ศรีสะเกษ","district":"โนนคูณ","subdistrict":"โนนค้อ","industryType":"ผลิตคอนกรีตผสมเสร็จ และผลิตภัณฑ์เกี่ยวกับคอนกรีตอื่นๆ","status":"ดำเนินกิจการ","lat":14.9138215443281,"lon":104.7223421288},"20330093125638":{"id":"20330093125638","name":"สหกรณ์โคนมวังน้ำเย็น จำกัด","owner":"สหกรณ์โคนมวังน้ำเย็น จำกัด","displayRegistration":"จ3-5(1)-13/63ศก","province":"ศรีสะเกษ","district":"ขุขันธ์","subdistrict":"นิคมพัฒนา","industryType":"ผลิตนมพาสเจอร์ไรส์ และนมสเตอริไลส์","status":"ดำเนินกิจการ","lat":14.653084,"lon":104.210619},"20330101425624":{"id":"20330101425624","name":"บริษัท คิงส์คอนกรีต อินดัสทรี จำกัด","owner":"บริษัท คิงส์คอนกรีต อินดัสทรี จำกัด","displayRegistration":"จ3-64(12)-14/62ศก","province":"ศรีสะเกษ","district":"เมืองศรีสะเกษ","subdistrict":"หมากเขียบ","industryType":"ผลิตหลังคาเหล็กรีดลอน","status":"ดำเนินกิจการ","lat":15.04984,"lon":104.270256},"20330159225645":{"id":"20330159225645","name":"ห้างหุ้นส่วนจำกัด กันทรลักษ์ไทยนต์","owner":"ห้างหุ้นส่วนจำกัด กันทรลักษ์ไทยนต์","displayRegistration":"จ3-50(4)-13/64ศก","province":"ศรีสะเกษ","district":"เบญจลักษ์","subdistrict":"หนองหว้า","industryType":"ผลิตแอสฟัลต์ติกคอนกรีต","status":"ดำเนินกิจการ","lat":14.7593794449246,"lon":104.7133712991},"20330189925628":{"id":"20330189925628","name":"บี-ควิก สาขาโลตัส ศรีสะเกษ","owner":"บริษัท บี-ควิก จำกัด","displayRegistration":"จ3-95(1)-112/62ศก","province":"ศรีสะเกษ","district":"เมืองศรีสะเกษ","subdistrict":"โพธิ์","industryType":"ศูนย์บริการซ่อมแซมรถยนต์","status":"ดำเนินกิจการ","lat":15.1070571471752,"lon":104.3692758494},"20330017825610":{"id":"20330017825610","name":"ร้าน ส.เจริญวัสดุภัณฑ์","owner":"นางสมพร คุ้มชนม์","displayRegistration":"จ3-58(1)-178/61ศก","province":"ศรีสะเกษ","district":"ยางชุมน้อย","subdistrict":"คอนกาม","industryType":"ผลิตคอนกรีตผสมเสร็จ และผลิตภัณฑ์คอนกรีตสำเร็จรูปทุกชนิด","status":"ดำเนินกิจการ","lat":15.2579772264275,"lon":104.3657271345},"20330019925616":{"id":"20330019925616","name":"ห้างหุ้นส่วนจำกัด พีเค คอนกรีต 2561","owner":"ห้างหุ้นส่วนจำกัด พีเค คอนกรีต 2561","displayRegistration":"จ3-58(1)-199/61ศก","province":"ศรีสะเกษ","district":"ปรางค์กู่","subdistrict":"พิมายเหนือ","industryType":"ผลิตคอนกรีตผสมเสร็จ และผลิตภัณฑ์คอนกรีตสำเร็จรูปทุกชนิด","status":"ดำเนินกิจการ","lat":14.8712419185345,"lon":104.0415009406},"20330159325643":{"id":"20330159325643","name":"บริษัท เจริญพรชัย ค้าเหล็ก จำกัด","owner":"บริษัท เจริญพรชัย ค้าเหล็ก จำกัด","displayRegistration":"จ3-64(12)-6/64ศก","province":"ศรีสะเกษ","district":"ปรางค์กู่","subdistrict":"พิมาย","industryType":"ผลิตหลังคาเหล็กเมทัลชีท และแปหลังคาสำเร็จรูป","status":"ดำเนินกิจการ","lat":14.8481884562648,"lon":104.0365973945},"20330205325621":{"id":"20330205325621","name":"น้ำดื่มโกลด์บอล ราษีไศล","owner":"นายอธิพัฒน์ สุชานิธิกุล","displayRegistration":"จ3-20(1)-17/62ศก","province":"ศรีสะเกษ","district":"ราษีไศล","subdistrict":"เมืองคง","industryType":"ผลิตน้ำบรรจุขวด และขวดบรรจุน้ำดื่ม","status":"ดำเนินกิจการ","lat":15.3749882002861,"lon":104.1491977381},"10330000225333":{"id":"10330000225333","name":"บริษัท บางซื่อโรงสีไฟเจียเม้ง จำกัด","owner":"บริษัท บางซื่อโรงสีไฟเจียเม้ง จำกัด","displayRegistration":"3-9(1)-2/33ศก","province":"ศรีสะเกษ","district":"เมืองศรีสะเกษ","subdistrict":"โพนข่า","industryType":"สีข้าว กำลังสีสูงสุดของร้านสีข้าว 400 เกวียน/วัน","status":"ดำเนินกิจการ","lat":15.07353,"lon":104.34566},"10330082325654":{"id":"10330082325654","name":"บริษัท ทีเอ็นที ซัพพลายเออร์ จำกัด","owner":"บริษัท ทีเอ็นที ซัพพลายเออร์ จำกัด","displayRegistration":"3-34(4)-28/65ศก","province":"ศรีสะเกษ","district":"ภูสิงห์","subdistrict":"ห้วยตึ๊กชู","industryType":"ผลิตชิ้นไม้สับบจากไม้ยางพาราและจากไม้ที่ปลูกขึ้นโดยเฉพาะ 13 ชนิด ตามมติคณะรัฐมนตรี","status":"ดำเนินกิจการ","lat":14.635704,"lon":104.13948},"10330006725476":{"id":"10330006725476","name":"บริษัท วารีเทพ จำกัด","owner":"บริษัท วารีเทพ จำกัด","displayRegistration":"3-14-67/47ศก","province":"ศรีสะเกษ","district":"อุทุมพรพิสัย","subdistrict":"ขะยูง","industryType":"ทำน้ำแข็งก้อนเล็ก ได้วันละ 320 ตัน","status":"ดำเนินกิจการ","lat":15.14521,"lon":104.2484},"10330124525659":{"id":"10330124525659","name":"-","owner":"นายอดิเรก ศรีผกาแก้ว","displayRegistration":"3-34(4)-32/65ศก","province":"ศรีสะเกษ","district":"ปรางค์กู่","subdistrict":"พิมาย","industryType":"ผลิตชิ้นไม้สับจากไม้ยางพารา และจากไม้ที่ปลูกขึ้นโดยเฉพาะ 13 ชนิด ตามมติคณะรัฐมนตรี","status":"ดำเนินกิจการ","lat":14.855192,"lon":104.024579},"20330000325446":{"id":"20330000325446","name":"ห้างหุ้นส่วนจำกัด โรงสีตั้งไพบูลย์","owner":"ห้างหุ้นส่วนจำกัด โรงสีตั้งไพบูลย์","displayRegistration":"จ3-9(1)-3/44ศก","province":"ศรีสะเกษ","district":"กันทรลักษ์","subdistrict":"หนองหญ้าลาด","industryType":"สีข้าว โดยมีกำลังการสีข้าวสูงสุด 240 เกวียน/วัน","status":"ดำเนินกิจการ","lat":14.65175,"lon":104.63241},"20330006125592":{"id":"20330006125592","name":"บริษัท กรเดช ยางชุมน้อย จำกัด","owner":"บริษัท กรเดช ยางชุมน้อย จำกัด","displayRegistration":"จ3-14-61/59ศก","province":"ศรีสะเกษ","district":"ยางชุมน้อย","subdistrict":"ยางชุมน้อย","industryType":"ผลิตน้ำแข็งหลอด","status":"ดำเนินกิจการ","lat":15.2614077506892,"lon":104.4151646458},"10330005825186":{"id":"10330005825186","name":"ห้างหุ้นส่วนสามัญนิติบุคคล ส.สินทวี","owner":"ห้างหุ้นส่วนสามัญนิติบคคล ส.สินทวี","displayRegistration":"3-9(1)-58/18ศก","province":"ศรีสะเกษ","district":"อุทุมพรพิสัย","subdistrict":"สำโรง","industryType":"สีข้าว กำลังสีสูงสุดของร้านสีข้าว 120 เกวียน/วัน","status":"ดำเนินกิจการ","lat":15.10788,"lon":104.14369},"10330002125515":{"id":"10330002125515","name":"ยืนยงการช่าง","owner":"นายยงค์ยุทธ แหวนหล่อ","displayRegistration":"3-34(1)-21/51ศก","province":"ศรีสะเกษ","district":"ราษีไศล","subdistrict":"หว้านคำ","industryType":"แปรรูปไม้ยางพาราและไม้ที่ปลูกขึ้นโดยเฉพาะ 13 ชนิด ตามมติคณะรัฐมนตรีเพื่อจำหน่าย","status":"ดำเนินกิจการ","lat":15.39633,"lon":104.20448},"10330100125300":{"id":"10330100125300","name":"เรือนจำจังหวัดศรีสะเกษ","owner":"กรมราชทัณฑ์ กระทรวงมหาดไทย","displayRegistration":"3-37-1/30ศก","province":"ศรีสะเกษ","district":"เมืองศรีสะเกษ","subdistrict":"โพธิ์","industryType":"ทำเครื่องเรือนจากไม้","status":"ดำเนินกิจการ","lat":15.1235,"lon":104.31925},"10330012425541":{"id":"10330012425541","name":"บริษัท พ.ศ.ช.ผลิตภัณฑ์อาหาร จำกัด","owner":"บริษัท พ.ศ.ช.ผลิตภัณฑ์อาหาร จำกัด","displayRegistration":"3-88-124/54ศก","province":"ศรีสะเกษ","district":"ขุนหาญ","subdistrict":"ไพร","industryType":"ผลิตกระแสไฟฟ้าจากแก๊สชีวภาพ","status":"ดำเนินกิจการ","lat":14.708013,"lon":104.482473},"20330000325479":{"id":"20330000325479","name":"ห้างหุ้นส่วนจำกัด โรงสีเจ็งย่งฮะฮวด","owner":"ห้างหุ้นส่วนจำกัด โรงสีเจ็งย่งฮะฮวด","displayRegistration":"จ3-2(1)-3/47ศก","province":"ศรีสะเกษ","district":"ห้วยทับทัน","subdistrict":"ห้วยทับทัน","industryType":"อบข้าวเปลือก","status":"ดำเนินกิจการ","lat":15.05575,"lon":104.03136},"20330000825577":{"id":"20330000825577","name":"ชัยอุดมพืชผล","owner":"นายพินิจ ชัยรัตนวานิช","displayRegistration":"จ3-2(1)-8/57ศก","province":"ศรีสะเกษ","district":"กันทรลักษ์","subdistrict":"กระแชง","industryType":"อบลดความชื้นเมล็ดข้าวโพด","status":"ดำเนินกิจการ","lat":14.6944631265395,"lon":104.5894745332},"20330000625613":{"id":"20330000625613","name":"NULL","owner":"นายสมบัติ คลังพันธ์","displayRegistration":"จ3-3(2)-6/61ศก","province":"ศรีสะเกษ","district":"โนนคูณ","subdistrict":"เหล่ากวาง","industryType":"ขุดตักดินลูกรังในที่ดินกรรมสิทธิ์เพื่อนำไปใช้ในการก่อสร้าง และในการพาณิชย์","status":"ดำเนินกิจการ","lat":14.8805312181285,"lon":104.6717737656},"20330009225530":{"id":"20330009225530","name":"นายพรเลิศ มาทวี","owner":"นายพรเลิศ มาทวี","displayRegistration":"จ3-3(2)-92/53ศก","province":"ศรีสะเกษ","district":"กันทรลักษ์","subdistrict":"หนองหญ้าลาด","industryType":"ขุดตักทรายในที่ดินกรรมสิทธิ์","status":"ดำเนินกิจการ","lat":14.77287,"lon":104.66266},"20330009325496":{"id":"20330009325496","name":"ห้างหุ้นส่วนจำกัด รุ่งจรัลทรัพย์","owner":"ห้างหุ้นส่วนจำกัด รุ่งจรัสทรัพย์","displayRegistration":"จ3-3(4)-93/49ศก","province":"ศรีสะเกษ","district":"ราษีไศล","subdistrict":"หนองแค","industryType":"ดูดทราย","status":"ดำเนินกิจการ","lat":15.3471,"lon":104.13151},"20330000125465":{"id":"20330000125465","name":"โรงงานแปรรูปผลิตภัณฑ์นม วิทยาลัยเกษตรและเทคโนโลยีศรีสะเกษ","owner":"วิทยาลัยเกษตรและเทคโนโลยีศรีสะเกษ","displayRegistration":"จ3-5(1)-1/46ศก","province":"ศรีสะเกษ","district":"เมืองศรีสะเกษ","subdistrict":"หนองครก","industryType":"ผลิตนมพร้อมดื่มพาสเจอร์ไรส์","status":"ดำเนินกิจการ","lat":15.10687,"lon":104.316},"20330002125489":{"id":"20330002125489","name":"บริษัท โรงสีราษีพาณิชย์ศรีสะเกษ (2004) จำกัด","owner":"บริษัท โรงสีราษีพาณิชย์ศรีสะเกษ (2004) จำกัด","displayRegistration":"จ3-9(1)-21/48ศก","province":"ศรีสะเกษ","district":"ราษีไศล","subdistrict":"เมืองคง","industryType":"สีข้าว กำลังสีสูงสุดของร้านสีข้าวรวมเป็น 400 เกวียน/วัน","status":"ดำเนินกิจการ","lat":15.36103,"lon":104.15969},"20330005925356":{"id":"20330005925356","name":"โรงสีบุญฟ้า","owner":"นายณัฏฐ์ ภูมิศักดิ์ธนสาร","displayRegistration":"จ3-9(1)-59/35ศก","province":"ศรีสะเกษ","district":"อุทุมพรพิสัย","subdistrict":"กำแพง","industryType":"ขัดข้าวขาว","status":"หยุดชั่วคราว","lat":15.10501,"lon":104.13888},"20330100125431":{"id":"20330100125431","name":"ชนนิยมพืชผล","owner":"นายสถิต โรจนวรเกียรติ","displayRegistration":"จ3-9(6)-1/43ศก","province":"ศรีสะเกษ","district":"ภูสิงห์","subdistrict":"ดงรัก","industryType":"ทำมันเส้น","status":"ดำเนินกิจการ","lat":14.50357,"lon":104.18867},"20330003825517":{"id":"20330003825517","name":"ห้างหุ้นส่วนจำกัด แพรว-พีท-พี (2004)","owner":"ห้างหุ้นส่วนจำกัด แพรว-พีท-พี (2004)","displayRegistration":"จ3-14-38/51ศก","province":"ศรีสะเกษ","district":"กันทรลักษ์","subdistrict":"น้ำอ้อม","industryType":"ผลิตน้ำแข็งก้อนเล็ก กำลังการผลิตเพิ่มขึ้น 50 ตัน/วัน รวมเป็น 180 ตัน/วัน","status":"ดำเนินกิจการ","lat":14.67612,"lon":104.66243},"20330200225594":{"id":"20330200225594","name":"บริษัท วินโพลีดีไซน์ เทรดดิ้ง จำกัด","owner":"บริษัท วินโพลีดีไซน์ เทรดดิ้ง จำกัด","displayRegistration":"จ3-23(1)-2/59ศก","province":"ศรีสะเกษ","district":"อุทุมพรพิสัย","subdistrict":"ทุ่งไชย","industryType":"ผลิตเส้นใยจากเศษผ้า ทำปุยใยเป็นใยแผ่น สำหรับทำไส้ที่นอน , หมอน , ผ้าห่ม และทำที่นอน , หมอน , ผ้าห่ม","status":"ดำเนินกิจการ","lat":15.018894,"lon":104.105478},"20330002225552":{"id":"20330002225552","name":"บริษัท ภูมิปัญญาไทยการยาง จำกัด","owner":"บริษัท ภูมิปัญญาไทยการยาง จำกัด","displayRegistration":"จ3-52(3)-22/55ศก","province":"ศรีสะเกษ","district":"กันทรารมย์","subdistrict":"จาน","industryType":"ผลิตยางอัดแท่ง","status":"ดำเนินกิจการ","lat":14.9833499687765,"lon":104.5452402831},"20330204425570":{"id":"20330204425570","name":"ห้างหุ้นส่วนจำกัด ส.ไพศาลคอนกรีต โปรดักชั่น","owner":"ห้างหุ้นส่วนจำกัด ส.ไพศาลคอนกรีต โปรดักชั่น","displayRegistration":"จ3-58(1)-44/57ศก","province":"ศรีสะเกษ","district":"อุทุมพรพิสัย","subdistrict":"สระกำแพงใหญ่","industryType":"ผลิตคอนกรีตผสมเสร็จ และผลิตภัณฑ์คอนกรีต","status":"ดำเนินกิจการ","lat":15.0936484129234,"lon":104.1206068246},"20330002925615":{"id":"20330002925615","name":"บริษัท ธงชัยอุตสาหกรรม(2015) จำกัด","owner":"บริษัท ธงชัยอุตสาหกรรม(2015) จำกัด","displayRegistration":"จ3-70-29/61ศก","province":"ศรีสะเกษ","district":"อุทุมพรพิสัย","subdistrict":"ตาเกษ","industryType":"ผลิต ประกอบ ตู้แช่น้ำแข็ง ตู้เย็น และเครื่องทำความเย็น","status":"ดำเนินกิจการ","lat":15.1483247369066,"lon":104.2211211918},"20330003725519":{"id":"20330003725519","name":"ห้างหุ้นส่วนจำกัด ธงชัยอุตสาหกรรม 2010","owner":"ห้างหุ้นส่วนจำกัด ธงชัยอุตสาหกรรม 2010","displayRegistration":"จ3-70-37/51ศก","province":"ศรีสะเกษ","district":"เมืองศรีสะเกษ","subdistrict":"หญ้าปล้อง","industryType":"ผลิต ประกอบ ตู้แช่น้ำแข็ง ตู้เย็นและเครื่องทำความเย็น","status":"ดำเนินกิจการ","lat":15.12168,"lon":104.30931},"20330023825471":{"id":"20330023825471","name":"อู่น้อยการช่าง","owner":"นายปิยะวัฒน์ พลศักดิ์","displayRegistration":"จ3-95(1)-238/47ศก","province":"ศรีสะเกษ","district":"กันทรารมย์","subdistrict":"ดูน","industryType":"เคาะพ่นสีรถยนต์","status":"ดำเนินกิจการ","lat":15.07478,"lon":104.57336},"10330124625657":{"id":"10330124625657","name":"-","owner":"นายพรชัย ห่อทรัพย์","displayRegistration":"3-34(4)-33/65ศก","province":"ศรีสะเกษ","district":"น้ำเกลี้ยง","subdistrict":"ตองปิด","industryType":"ผลิตชิ้นไม้สับจากไม้ยางพารา และจากไม้ที่ปลูกขึ้นโดยเฉพาะ 13 ชนิด ตามมติคณะรัฐมนตรี","status":"ดำเนินกิจการ","lat":14.990138,"lon":104.483804},"10330002125564":{"id":"10330002125564","name":"บริษัท พัฒนกิจ วู๊ดชิพ จำกัด","owner":"บริษัท พัฒนกิจ วู๊ดชิพ จำกัด","displayRegistration":"3-34(4)-21/56ศก","province":"ศรีสะเกษ","district":"ไพรบึง","subdistrict":"ดินแดง","industryType":"ผลิตชิ้นไม้สับจากไม้ยูคาลิปตัสเพื่อจำหน่าย","status":"ดำเนินกิจการ","lat":14.8250780515612,"lon":104.289472283396},"20330004425572":{"id":"20330004425572","name":"ลานมันใจดีพืชผล","owner":"นายเทวัน จันภักดี","displayRegistration":"จ3-9(6)-44/57ศก","province":"ศรีสะเกษ","district":"ขุขันธ์","subdistrict":"ใจดี","industryType":"ทำมันเส้น","status":"ดำเนินกิจการ","lat":14.753912049652,"lon":104.1669666313},"20330009925592":{"id":"20330009925592","name":"บริษัท กรเดช พยุห์ จำกัด","owner":"บริษัท กรเดช พยุห์ จำกัด","displayRegistration":"จ3-14-99/59ศก","province":"ศรีสะเกษ","district":"พยุห์","subdistrict":"พยุห์","industryType":"ผลิตน้ำแข็งหลอด","status":"ดำเนินกิจการ","lat":14.9562461176706,"lon":104.3935099897},"20330118025656":{"id":"20330118025656","name":"บริษัท ท่าทรายรุ่งอรุณ จำกัด","owner":"บริษัท ท่าทรายรุ่งอรุณ จำกัด","displayRegistration":"จ3-58(1)-120/65ศก","province":"ศรีสะเกษ","district":"ศรีรัตนะ","subdistrict":"ศรีแก้ว","industryType":"ผลิตคอนกรีตผสมเสร็จ","status":"ดำเนินกิจการ","lat":14.774362,"lon":104.486936},"10330100225332":{"id":"10330100225332","name":"บริษัท โตโยต้าศรีสะเกษ (1993) ผู้จำหน่ายโตโยต้า จำกัด","owner":"บริษัท โตโยต้าศรีสะเกษ (1993) ผู้จำหน่ายโตโยต้า จำกัด","displayRegistration":"3-95(1)-2/33ศก","province":"ศรีสะเกษ","district":"เมืองศรีสะเกษ","subdistrict":"โพนข่า","industryType":"ซ่อมและเคาะพ่นสีรถยนต์","status":"ดำเนินกิจการ","lat":15.08688,"lon":104.34351}}