{"20540200125376":{"id":"20540200125376","name":"NULL","owner":"บริษัท หน่ำฮัยหลี จำกัด","displayRegistration":"จ3-14-1/37พร","province":"แพร่","district":"เด่นชัย","subdistrict":"เด่นชัย","industryType":"ทำน้ำแข็งก้อนเล็กได้ 70 ตัน/วัน","status":"ดำเนินกิจการ","lat":17.9937235442624,"lon":100.028066039085},"10540000125362":{"id":"10540000125362","name":"NULL","owner":"นางสาวนิรมล ภัทรชัยพร","displayRegistration":"3-59-1/36พร","province":"แพร่","district":"เมืองแพร่","subdistrict":"ทุ่งกวาว","industryType":"หลอมหล่อเหล็ก เช่น หัวเตาแก๊ส","status":"ดำเนินกิจการ","lat":18.15949,"lon":100.16353},"00540000125349":{"id":"00540000125349","name":"บริษัท เฮ้าส์แวร์ อินดัสเตรียล จำกัด","owner":"ห้างหุ้นส่วนจำกัด แพร่พาราวู้ดโปรดักส์","displayRegistration":"ศ3-36(1)-1/34พร","province":"แพร่","district":"เมืองแพร่","subdistrict":"ป่าแดง","industryType":"ทำเครื่องใช้ในครัวเรือน อุปกรณ์การกีฬา","status":"ดำเนินกิจการ","lat":18.088956,"lon":100.2087},"20540100125369":{"id":"20540100125369","name":"บริษัท ธนาวัฒน์คอนกรีต จำกัด","owner":"บริษัท ธนาวัฒน์คอนกรีต จำกัด","displayRegistration":"จ3-58(1)-1/36พร","province":"แพร่","district":"สูงเม่น","subdistrict":"ร่องกาศ","industryType":"ทำคอนกรีตผสมเสร็จ","status":"ดำเนินกิจการ","lat":18.08096,"lon":100.12743},"10540000125289":{"id":"10540000125289","name":"ท่าทรายวินัย","owner":"นางกัลยารัตน์ กุมรัมย์","displayRegistration":"3-3(3)-1/28พร","province":"แพร่","district":"เมืองแพร่","subdistrict":"ทุ่งกวาว","industryType":"เกี่ยวกับกรวด ทราย (ร่อนและคัดกรวดทราย) ได้เดือนละ 3,000 ลูกบาศก์เมตร","status":"ดำเนินกิจการ","lat":18.1569795402047,"lon":100.147483348846},"10540000125313":{"id":"10540000125313","name":"วินัยท่าทราย 2","owner":"นางกัลยารัตน์ กุมรัมย์","displayRegistration":"3-3(4)-1/31พร","province":"แพร่","district":"เมืองแพร่","subdistrict":"ในเวียง","industryType":"ดูดทราย (ใบอนุญาตใช้เรือเลขที่ 305000761)","status":"ดำเนินกิจการ","lat":18.1802675684128,"lon":100.142097473145},"20540100325365":{"id":"20540100325365","name":"NULL","owner":"นางถนอมศรี อินทร์วิรุฬห์","displayRegistration":"จ2-35-3/36พร","province":"แพร่","district":"เมืองแพร่","subdistrict":"ป่าแมต","industryType":"ทำตะเกียบ ไม้เสียบอาหาร และผลิตภัณฑ์จากไม้ไผ่","status":"ดำเนินกิจการ","lat":18.15044,"lon":100.12083},"20540000225368":{"id":"20540000225368","name":"ท่าทรายท่าขวัญทอง","owner":"นางสาวสุจินดา วันมหาใจ","displayRegistration":"จ3-3(4)-2/36พร","province":"แพร่","district":"เมืองแพร่","subdistrict":"แม่ยม","industryType":"ดูดทราย","status":"ดำเนินกิจการ","lat":18.2125,"lon":100.15944},"20540002625359":{"id":"20540002625359","name":"อภิเษก","owner":"นายอภิเษก มณีกาศ","displayRegistration":"จ3-37-26/35พร","province":"แพร่","district":"สูงเม่น","subdistrict":"บ้านเหล่า","industryType":"ทำเครื่องเรือนจากไม้ฉำฉา","status":"ดำเนินกิจการ","lat":18.0669,"lon":100.14042},"10540000125271":{"id":"10540000125271","name":"วินัยท่าทราย","owner":"นางกัลยารัตน์ กุมรัมย์","displayRegistration":"3-3(4)-1/27พร","province":"แพร่","district":"","subdistrict":"","industryType":"ดูดทราย ใบอนุญาตให้ใช้เรือเลขที่ พร.0002","status":"ดำเนินกิจการ","lat":18.156852107563,"lon":100.146807432175},"20540000425240":{"id":"20540000425240","name":"สถานีบ่มใบยายางโพธิ์","owner":"ห้างหุ้นส่วนจำกัด แพร่เกษตรทอง","displayRegistration":"จ3-1-4/24พร","province":"แพร่","district":"ร้องกวาง","subdistrict":"แม่ยางฮ่อ","industryType":"บ่มใบยาสูบ","status":"ดำเนินกิจการ","lat":18.35548,"lon":100.28218},"10540003225201":{"id":"10540003225201","name":"แสวงชัยเฟอร์นิเจอร์","owner":"นางสีดา เรือนคำ","displayRegistration":"3-34(2)-32/20พร","province":"แพร่","district":"เด่นชัย","subdistrict":"ไทรย้อย","industryType":"ทำวงประตู-หน้าต่าง บานประตู-หน้าต่าง และทำเครื่องเรือนจากไม้","status":"ดำเนินกิจการ","lat":17.98727,"lon":100.00001},"10540100225229":{"id":"10540100225229","name":"โรงเลื่อยจักรเด่นชัยพนา","owner":"โรงเลื่อยจักรเด่นชัยพนา","displayRegistration":"3-34(1)-2/22พร","province":"แพร่","district":"เด่นชัย","subdistrict":"เด่นชัย","industryType":"เลื่อยไม้","status":"ดำเนินกิจการ","lat":17.97972,"lon":100.04589},"10540000125222":{"id":"10540000125222","name":"บริษัท หน่ำฮับหลี จำกัด","owner":"บริษัท หน่ำฮับหลี จำกัด","displayRegistration":"3-14-1/22พร","province":"แพร่","district":"เด่นชัย","subdistrict":"เด่นชัย","industryType":"ทำน้ำแข็ง ได้วันละ 154 ซอง","status":"ดำเนินกิจการ","lat":17.9938715035426,"lon":100.028173327446},"10540000225220":{"id":"10540000225220","name":"โรงอบใบยาเด่นชัย","owner":"โรงงานยาสูบ กระทรวงการคลัง","displayRegistration":"3-21(1)-2/22พร","province":"แพร่","district":"เด่นชัย","subdistrict":"เด่นชัย","industryType":"อบใบยาสูบ","status":"ดำเนินกิจการ","lat":17.9803250620364,"lon":100.06342291832},"10540000125321":{"id":"10540000125321","name":"บริษัท วัฒนาไซโล จำกัด","owner":"บริษัท วัฒนาไซโล จำกัด","displayRegistration":"3-2(5)-1/32พร","province":"แพร่","district":"เด่นชัย","subdistrict":"แม่จั๊วะ","industryType":"อบเมล็ดพืช","status":"ดำเนินกิจการ","lat":17.97835,"lon":100.07185},"10540000125347":{"id":"10540000125347","name":"แพร่บริการแก๊ส","owner":"นายชัยรัตน์ ภัทรชัยพร","displayRegistration":"3-62-1/34พร","province":"แพร่","district":"เมืองแพร่","subdistrict":"ทุ่งกวาว","industryType":"ทำโครงเตาแก๊ส","status":"ดำเนินกิจการ","lat":18.14141,"lon":100.14834},"00540000125331":{"id":"00540000125331","name":"บริษัท เอ็ม.ที.อินเตอร์เนชั่นเนล คอร์ปอเรชั่น จำกัด","owner":"บริษัท เอ็ม.ที.อินเตอร์เนชั่นเนล คอร์ปอเรชั่น จำกัด","displayRegistration":"ศ3-36(1)-1/33พร","province":"แพร่","district":"เมืองแพร่","subdistrict":"ป่าแดง","industryType":"ทำไม้ประสาน ขัดกลึงไม้ ทำเครื่องเรือน และเครื่องใช้ในบ้านเรื","status":"ดำเนินกิจการ","lat":18.0971524496251,"lon":100.202050209045},"20540000125352":{"id":"20540000125352","name":"บริษัท มิตรรุ่งเรืองพืชผล จำกัด","owner":"บริษัท มิตรรุ่งเรืองพืชผล จำกัด","displayRegistration":"จ3-2(2)-1/35พร","province":"แพร่","district":"ร้องกวาง","subdistrict":"แม่ยางตาล","industryType":"กะเทาะเปลือกถั่ว สีข้าวโพด นึ่งถั่ว","status":"ดำเนินกิจการ","lat":18.29303,"lon":100.26776},"10540100125387":{"id":"10540100125387","name":"บริษัท แพร่ เปเปอร์ จำกัด","owner":"บริษัท แพร่เปเปอร์ จำกัด","displayRegistration":"3-38(2)-1/38พร","province":"แพร่","district":"วังชิ้น","subdistrict":"นาพูน","industryType":"ผลิตกระดาษจากไม้ไผ่ เช่น กระดาษไหว้เจ้า ได้ปีละ 250,000 ลูกบาศก์เมตร","status":"ดำเนินกิจการ","lat":17.77307,"lon":99.77051},"20540000225384":{"id":"20540000225384","name":"แพร่บุญดำรง","owner":"ห้างหุ้นส่วนจำกัด ลุ่มทรายทอง88","displayRegistration":"จ3-3(4)-2/38พร","province":"แพร่","district":"สอง","subdistrict":"ห้วยหม้าย","industryType":"ดูดทราย","status":"ดำเนินกิจการ","lat":18.44372,"lon":100.16644},"20540200125384":{"id":"20540200125384","name":"บริษัท แพร่วิศวกรรม จำกัด","owner":"ห้างหุ้นส่วนจำกัด แพร่วิศวกรรม","displayRegistration":"จ3-58(1)-1/38พร","province":"แพร่","district":"เมืองแพร่","subdistrict":"แม่คำมี","industryType":"ทำผลิตภัณฑ์คอนกรีต เช่น ท่อขนาดต่าง ๆ เสาไฟฟ้า คอนกรีตอัดแรง เสาเข็มคอนกรีตอัดแรง ฯลฯ","status":"หยุดชั่วคราว","lat":18.23423,"lon":100.21333},"20540000125378":{"id":"20540000125378","name":"ผลสมบูรณ์","owner":"นายวทัญญู สมบูรณ์เถกิง","displayRegistration":"จ3-2(1)-1/37พร","province":"แพร่","district":"เด่นชัย","subdistrict":"ไทรย้อย","industryType":"เกี่ยวกับผลิตผลเกษตรกรรม เช่น ต้นหน่อไม้อัดปี๊บ บดย่อยหัวพืชเก็บรักษาผลิตผลจากพืช กระเทาะเมล็ดพืช ร่อนล้างแยกขนาด ฯลฯ","status":"ดำเนินกิจการ","lat":17.92301,"lon":99.92767},"20540100125377":{"id":"20540100125377","name":"ทองเจริญ","owner":"นางสาวกัลยา อ่อนน้อม","displayRegistration":"จ3-9(1)-1/37พร","province":"แพร่","district":"เมืองแพร่","subdistrict":"ทุ่งโฮ้ง","industryType":"สีข้าว กำลังสีสูงสุดของร้านสีข้าว 8 เกวียน/วัน","status":"ดำเนินกิจการ","lat":18.17574,"lon":100.16169},"20540000125386":{"id":"20540000125386","name":"บริษัท ไทยเอเซียไรซ์โปรดักส์ จำกัด","owner":"บริษัท ไทยเอเซียไรซ์โปรดักส์ จำกัด","displayRegistration":"จ3-9(2)-1/38พร","province":"แพร่","district":"เมืองแพร่","subdistrict":"ป่าแมต","industryType":"ผลิตแป้งเหลวสำเร็จรูป สำหรับทำก๋วยเตี๋ยวจากข้าวจ้าว","status":"ดำเนินกิจการ","lat":18.147677,"lon":100.129148},"20540000525395":{"id":"20540000525395","name":"ท่าทรายนิติ(หวิง)","owner":"นายเวียน กาศเจริญ","displayRegistration":"จ3-3(4)-5/39พร","province":"แพร่","district":"เด่นชัย","subdistrict":"ปงป่าหวาย","industryType":"ดูดทราย","status":"ดำเนินกิจการ","lat":18.01631,"lon":100.04461},"20540100125385":{"id":"20540100125385","name":"ห้างหุ้นส่วนจำกัด แม่หล่าย","owner":"ห้างหุ้นส่วนจำกัด แม่หล่าย","displayRegistration":"จ3-14-1/38พร","province":"แพร่","district":"เมืองแพร่","subdistrict":"แม่หล่าย","industryType":"ผลิตน้ำแข็งก้อนเล็ก กำลังผลิตวันละ 30ตัน","status":"ดำเนินกิจการ","lat":18.2294379565648,"lon":100.210075378418},"20540100225409":{"id":"20540100225409","name":"ห้างหุ้นส่วนจำกัด โกศัยคอนกรีต","owner":"ห้างหุ้นส่วนจำกัด โกศัยคอนกรีต","displayRegistration":"จ3-58(1)-2/40พร","province":"แพร่","district":"เมืองแพร่","subdistrict":"นาจักร","industryType":"ทำคอนกรีตผสมเสร็จ, ผลิตแผ่นพื้นคอนกรีตสำเร็จ","status":"ดำเนินกิจการ","lat":18.1204127562549,"lon":100.156018137932},"20540100125393":{"id":"20540100125393","name":"NULL","owner":"นายเอกชัย กาญจนะ","displayRegistration":"จ3-53(9)-1/39พร","province":"แพร่","district":"สอง","subdistrict":"แดนชุมพล","industryType":"บดล้าง พลาสติก","status":"ดำเนินกิจการ","lat":18.38333,"lon":100.19674},"10540000125404":{"id":"10540000125404","name":"บริษัท แพร่วนาวรรณ จำกัด","owner":"บริษัท แพร่วนาวรรณ จำกัด","displayRegistration":"3-38(2)-1/40พร","province":"แพร่","district":"ลอง","subdistrict":"ปากกาง","industryType":"ทำกระดาษไหว้เจ้า","status":"ดำเนินกิจการ","lat":18.02854,"lon":99.78947},"20540300125409":{"id":"20540300125409","name":"บริษัท แพร่ธำรงวิทย์ จำกัด","owner":"บริษัท แพร่ธำรงวิทย์ จำกัด","displayRegistration":"จ3-50(4)-1/40พร","province":"แพร่","district":"ร้องกวาง","subdistrict":"แม่ยางฮ่อ","industryType":"ผสมยางแอสฟัลท์","status":"ดำเนินกิจการ","lat":18.32352,"lon":100.28203},"20540000125402":{"id":"20540000125402","name":"สหกรณ์การเกษตรหนวงม่วงไข่ จำกัด","owner":"สหกรณ์การเกษตรหนวงม่วงไข่ จำกัด","displayRegistration":"จ3-2(1)-1/40พร","province":"แพร่","district":"หนองม่วงไข่","subdistrict":"หนองม่วงไข่","industryType":"อบ ร่อน คัด เมล็ดพืช","status":"ดำเนินกิจการ","lat":18.2617537157357,"lon":100.19896030426},"20540200125426":{"id":"20540200125426","name":"โรงสีชัยเจริญ","owner":"นายฤทธิ์ชัย อ่อนน้อม","displayRegistration":"จ3-9(1)-1/42พร","province":"แพร่","district":"เมืองแพร่","subdistrict":"ทุ่งโฮ้ง","industryType":"สีข้าว กำลังสีสูงสุด 20 เกวียน/วัน","status":"ดำเนินกิจการ","lat":18.19734,"lon":100.19239},"20540100125427":{"id":"20540100125427","name":"ท่าทรายพงษ์สวัสดิ์","owner":"นายสวัสดิ์ แนวณรงค์","displayRegistration":"จ3-3(4)-1/42พร","province":"แพร่","district":"เมืองแพร่","subdistrict":"แม่ยม","industryType":"ดูดกรวด ทราย","status":"ดำเนินกิจการ","lat":18.19658,"lon":100.14473},"20540200225432":{"id":"20540200225432","name":"บริษัท วี กรุ๊ป พี เอ็น ออโตเซลส์ จำกัด","owner":"บริษัท วี กรุ๊ป พี เอ็น ออโตเซลส์ จำกัด","displayRegistration":"จ3-95(1)-2/43พร","province":"แพร่","district":"สูงเม่น","subdistrict":"เวียงทอง","industryType":"ซ่อมรถยนต์ ตั้งศูนย์ถ่วงล้อและล้างอัดฉีดรถยนต์","status":"ดำเนินกิจการ","lat":18.11235,"lon":100.13768},"20540000225392":{"id":"20540000225392","name":"บริษัท ธนาวัฒน์คอนกรีต จำกัด","owner":"บริษัท ธนาวัฒน์คอนกรีต จำกัด","displayRegistration":"จ3-58(1)-2/39พร","province":"แพร่","district":"สูงเม่น","subdistrict":"ร่องกาศ","industryType":"ทำผลิตภัณฑ์คอนกรีต เช่น แผ่นพื้นสำเร็จรูป ท่อ คอนกรีตบล๊อค วงส้วม ฯลฯ","status":"ดำเนินกิจการ","lat":18.08096,"lon":100.12743},"20540000325424":{"id":"20540000325424","name":"NULL","owner":"นายกุลธวัช พรมเสนา","displayRegistration":"จ3-34(2)-3/42พร","province":"แพร่","district":"สูงเม่น","subdistrict":"เวียงทอง","industryType":"ทำเครื่องเรือนเครื่องใช้ในครัวเรือนหรือเครื่องตบแต่งภายในอาคาร(โต๊ะ เตียง เก้าอี้ ตู้) ทำเครื่องประกอบอาคารบ้านเรือน(ไม้พื้นเซาะร่อง ปาร์เกต์ โมเสด เสากลึง ลูกก","status":"ดำเนินกิจการ","lat":18.112,"lon":100.11822},"20540100125435":{"id":"20540100125435","name":"นางสาวมาลา เรือนคำ","owner":"นางสาวมาลา เรือนคำ","displayRegistration":"จ3-3(4)-1/43พร","province":"แพร่","district":"เด่นชัย","subdistrict":"ปงป่าหวาย","industryType":"ดูดทราย-กรวด","status":"ดำเนินกิจการ","lat":18.01073,"lon":100.03603},"20540100325423":{"id":"20540100325423","name":"ห้างหุ้นส่วนจำกัด เอส แอนด์ เอส คิทเช่นแวร์","owner":"ห้างหุ้นส่วนจำกัด เอส แอนด์ เอส คิทเช่นแวร์","displayRegistration":"จ3-36(1)-3/42พร","province":"แพร่","district":"เมืองแพร่","subdistrict":"วังธง","industryType":"ทำและอบเครื่องใช้หรือภาชนะบรรจุ เช่น เขียง ขัน โอ ช้อน จาน และผลิตภัณฑ์เครื่องใช้ในครัวเรือน จากไม้นอกประเภทหวงห้ามของทางราชการทุกชนิด","status":"ดำเนินกิจการ","lat":18.1920505649524,"lon":100.127806663513},"20540000125444":{"id":"20540000125444","name":"บริษัท เวสต์ อินดัสตรี้ คอร์ปอเรชั่น จำกัด","owner":"บริษัท เวสต์ อินดัสตรี้ คอร์ปอเรชั่น จำกัด","displayRegistration":"จ3-28(1)-1/44พร","province":"แพร่","district":"เมืองแพร่","subdistrict":"ทุ่งกวาว","industryType":"ตัดเย็บเสื้อผ้าส่งออก (จำนวนจักรเย็บผ้า 100 เครื่อง) และปักผ้า","status":"ดำเนินกิจการ","lat":18.15153,"lon":100.16946},"20540000125436":{"id":"20540000125436","name":"ข้าวทิพย์","owner":"นายนิวัฒน์ วิวัฒน์ศานติ","displayRegistration":"จ3-2(1)-1/43พร","province":"แพร่","district":"เมืองแพร่","subdistrict":"ทุ่งโฮ้ง","industryType":"อบเมล็ดพืช และเก็บรักษาเมล็ดพืชในไซโล","status":"ดำเนินกิจการ","lat":18.1881365782774,"lon":100.183081626892},"20540500125464":{"id":"20540500125464","name":"รุ่งกิตต์รีไซเคิล","owner":"นายอรุณกิตต์ โฆษิตานนท์","displayRegistration":"จ3-53(9)-1/46พร","province":"แพร่","district":"ร้องกวาง","subdistrict":"แม่ยางร้อง","industryType":"อัดกระดาษ บดล้าง พลาสติก ตัดอัดโลหะ","status":"ดำเนินกิจการ","lat":18.33577,"lon":100.23211},"30540000125400":{"id":"30540000125400","name":"บริษัท คชาธารก่อสร้าง จำกัด","owner":"บริษัท คชาธารก่อสร้าง จำกัด","displayRegistration":"ธ3-3(1)-1/40พร","province":"แพร่","district":"ร้องกวาง","subdistrict":"ร้องกวาง","industryType":"โม่ บด ย่อยหิน","status":"ดำเนินกิจการ","lat":18.34934,"lon":100.33202},"30540000225416":{"id":"30540000225416","name":"บริษัท ศักดาพร จำกัด","owner":"บริษัท ศักดาพร จำกัด","displayRegistration":"ธ3-3(1)-2/41พร","province":"แพร่","district":"ลอง","subdistrict":"แม่ปาน","industryType":"โม่ บดและย่อยหิน","status":"ดำเนินกิจการ","lat":18.016439,"lon":99.95058},"20540100125468":{"id":"20540100125468","name":"ห้างหุ้นส่วนจำกัด เอส เอส แพร่ฟอกย้อม","owner":"ห้างหุ้นส่วนจำกัด เอส เอส แพร่ฟอกย้อม","displayRegistration":"จ3-24-1/46พร","province":"แพร่","district":"ร้องกวาง","subdistrict":"แม่ยางฮ่อ","industryType":"ฟอก ย้อมสี เครื่องนุ่งห่ม เช่น เสื้อกางเกง","status":"ดำเนินกิจการ","lat":18.31522,"lon":100.28155},"20540400125374":{"id":"20540400125374","name":"บริษัท มาเจสติก โปรดักส์ จำกัด","owner":"บริษัท มาเจสติก โปรดักท์ จำกัด","displayRegistration":"จ3-28(1)-1/37พร","province":"แพร่","district":"เมืองแพร่","subdistrict":"นาจักร","industryType":"ตัดเย็บเสื้อผ้าสำเร็จรูป","status":"ดำเนินกิจการ","lat":18.1145495330011,"lon":100.149704217911},"20540010725472":{"id":"20540010725472","name":"บริษัท ข้าวทิพย์ แพร่ จำกัด","owner":"บริษัท ข้าวทิพย์ แพร่ จำกัด","displayRegistration":"จ3-9(1)-107/47พร","province":"แพร่","district":"เมืองแพร่","subdistrict":"ทุ่งโฮ้ง","industryType":"สีข้าว( กำลังการผลิต 60 เกวียน/วัน)","status":"ดำเนินกิจการ","lat":18.1876677093979,"lon":100.183382034302},"20540000225467":{"id":"20540000225467","name":"วังหงษ์ท่าทราย","owner":"นางศรีพูน นรรัตน์","displayRegistration":"จ3-3(4)-2/46พร","province":"แพร่","district":"เมืองแพร่","subdistrict":"วังหงส์","industryType":"ดูดทราย","status":"ดำเนินกิจการ","lat":18.24527,"lon":100.17414},"20540002025477":{"id":"20540002025477","name":"ห้างหุ้นส่วนจำกัด แพร่รัตนไชย","owner":"ห้างหุ้นส่วนจำกัด แพร่รัตนไชย","displayRegistration":"จ3-2(1)-20/47พร","province":"แพร่","district":"ร้องกวาง","subdistrict":"ร้องเข็ม","industryType":"อบพืช เมล็ดพืช และเก็บรักษาในโกดัง","status":"ดำเนินกิจการ","lat":18.2914913312856,"lon":100.272613763809},"20540018825472":{"id":"20540018825472","name":"สหกรณ์บริการผลิตภัณฑ์ไม้พัฒนาเวียงทอง จำกัด","owner":"สหกรณ์บริการผลิตภัณฑ์ไม้พัฒนาเวียงทอง จำกัด","displayRegistration":"จ3-34(2)-188/47พร","province":"แพร่","district":"สูงเม่น","subdistrict":"เวียงทอง","industryType":"แปรรูปไม้เพื่อประดิษฐกรรมจากไม้ เช่น ส่วนประกอบอาคาร เครื่องเรือน เครื่องใช้จากไม้","status":"ดำเนินกิจการ","lat":18.12171,"lon":100.11508},"20540000125485":{"id":"20540000125485","name":"-","owner":"นางสาวกัลยา อ่อนน้อม","displayRegistration":"จ3-2(1)-1/48พร","province":"แพร่","district":"เมืองแพร่","subdistrict":"ทุ่งโฮ้ง","industryType":"อบพืช เมล็ดพืช และเก็บรักษาในโกดัง","status":"ดำเนินกิจการ","lat":18.17574,"lon":100.16169},"20540000225459":{"id":"20540000225459","name":"สหกรณ์บริการผลิตภัณฑ์ไม้ดอนมูล จำกัด","owner":"สหกรณ์บริการผลิตภัณฑ์ไม้ดอนมูล จำกัด","displayRegistration":"จ3-37-2/45พร","province":"แพร่","district":"สูงเม่น","subdistrict":"ดอนมูล","industryType":"ทำเครื่องเรือน เครื่องตกแต่งภายในอาคารวงกบฯลฯ","status":"ดำเนินกิจการ","lat":18.0719409517889,"lon":100.127613544464},"10540000225238":{"id":"10540000225238","name":"ห้างหุ้นส่วนจำกัด รัตนพาณิชย์เด่นชัย","owner":"ห้างหุ้นส่วนจำกัด รัตนพาณิชย์เด่นชัย","displayRegistration":"3-8(1)-2/23พร","province":"แพร่","district":"เด่นชัย","subdistrict":"เด่นชัย","industryType":"ผลิตผลไม้บรรจุกระป๋องหรือปี๊บ เช่น ลูกตาว มะม่วง ลิ้นจี่","status":"ดำเนินกิจการ","lat":17.9809628650922,"lon":100.052216649055},"20540000425356":{"id":"20540000425356","name":"บริษัท สปาทีม จำกัด","owner":"บริษัท สปาทีม จำกัด","displayRegistration":"จ3-58(1)-4/35พร","province":"แพร่","district":"เมืองแพร่","subdistrict":"ทุ่งโฮ้ง","industryType":"ผลิตคอนกรีตผสมเสร็จ และผลิตภัณฑ์คอนกรีต เช่น ท่อคอนกรีตเสริมเหล็ก","status":"ดำเนินกิจการ","lat":18.19203,"lon":100.18875},"20540008525488":{"id":"20540008525488","name":"-","owner":"นายผ่อน สวนดอก","displayRegistration":"จ3-34(2)-85/48พร","province":"แพร่","district":"เด่นชัย","subdistrict":"แม่จั๊วะ","industryType":"ทำเครื่องเรือน เครื่องใช้ เครื่องประดับตบแต่งภายในอาคารจากไม้ ส่วนประกอบอาคารที่ทำด้วยไม้","status":"ดำเนินกิจการ","lat":17.98989,"lon":100.08991},"20540007325484":{"id":"20540007325484","name":"-","owner":"นางทองศรี สีขาว","displayRegistration":"จ3-34(2)-73/48พร","province":"แพร่","district":"สูงเม่น","subdistrict":"น้ำชำ","industryType":"ทำวงกบ ประตู-หน้าต่าง เครื่องเรือนและเครื่องตกแต่งภายในอาคารจากไม้","status":"ดำเนินกิจการ","lat":18.03541,"lon":100.09595},"20540023525489":{"id":"20540023525489","name":"NULL","owner":"นางสาวจิตตรานุช พานพบ","displayRegistration":"จ3-37-235/48พร","province":"แพร่","district":"สูงเม่น","subdistrict":"บ้านปง","industryType":"แปรรูปไม้เพื่อผลิตสิ่งประดิษฐ์ในครัวเรือน","status":"ดำเนินกิจการ","lat":18.03964,"lon":100.06835},"20540000525486":{"id":"20540000525486","name":"โรงงานปรับปรุงสภาพเมล็ดพันธุ์","owner":"ศูนย์เมล็ดพันธุ์ข้าวแพร่","displayRegistration":"จ3-2(9)-5/48พร","province":"แพร่","district":"ร้องกวาง","subdistrict":"แม่ยางฮ่อ","industryType":"คัด ร่อน แยกขนาด คุณภาพของผลิตผลทางการเกษตรและเก็บรักษาในโกดัง","status":"ดำเนินกิจการ","lat":18.336269,"lon":100.266249},"20540002525484":{"id":"20540002525484","name":"บริษัท บ้านประทับใจ จำกัด","owner":"นางหล่าน วัฒนาโกศัย","displayRegistration":"จ3-2(5)-25/48พร","province":"แพร่","district":"ร้องกวาง","subdistrict":"ร้องกวาง","industryType":"รับซื้อ-ขายสินค้าพืชไร่","status":"ดำเนินกิจการ","lat":18.30362,"lon":100.28794},"20540041725483":{"id":"20540041725483","name":"NULL","owner":"นางสงกรานต์ ดวงจันทร์","displayRegistration":"จ3-37-417/48พร","province":"แพร่","district":"สูงเม่น","subdistrict":"หัวฝาย","industryType":"ทำเฟอร์นิเจอร์ส่วนประกอบอาคารบ้านเรือนเครื่องใช้จากไม้","status":"ดำเนินกิจการ","lat":18.04693,"lon":100.11682},"20540042525486":{"id":"20540042525486","name":"NULL","owner":"นายประสิทธิ์ ชอบธรรม","displayRegistration":"จ3-37-425/48พร","province":"แพร่","district":"สูงเม่น","subdistrict":"หัวฝาย","industryType":"ทำเฟอร์นิเจอร์ ส่วนประกอบอาคาร เครื่องใช้จากไม้","status":"ดำเนินกิจการ","lat":18.04639,"lon":100.11441},"20540006425475":{"id":"20540006425475","name":"ห้างหุ้นส่วนจำกัด แพร่เริงชัยก่อสร้าง","owner":"ห้างหุ้นส่วนจำกัด แพร่เริงชัยก่อสร้าง","displayRegistration":"จ3-3(4)-64/47พร","province":"แพร่","district":"หนองม่วงไข่","subdistrict":"หนองม่วงไข่","industryType":"ดูดทราย","status":"ดำเนินกิจการ","lat":18.28195,"lon":100.19838},"20540033125486":{"id":"20540033125486","name":"อัจฉราค้าไม้","owner":"นายอลงกรณ์ กอบกำ","displayRegistration":"จ3-34(2)-331/48พร","province":"แพร่","district":"สูงเม่น","subdistrict":"น้ำชำ","industryType":"ทำบานประตู หน้าต่าง ส่วนประกอบอาคารจากไม้","status":"ดำเนินกิจการ","lat":18.03363,"lon":100.09156},"20540000725490":{"id":"20540000725490","name":"NULL","owner":"นายพัฒนศักดิ์ โห่ล์เพ็ขร์","displayRegistration":"จ3-2(1)-7/49พร","province":"แพร่","district":"ร้องกวาง","subdistrict":"ร้องเข็ม","industryType":"อบพืช เมล็ดพืช","status":"ดำเนินกิจการ","lat":18.2873860302963,"lon":100.3062915802},"20540000125360":{"id":"20540000125360","name":"ห้างหุ้นส่วนจำกัด โทเบโก้","owner":"บริษัท ดีฟ เอสแอลจี จำกัด","displayRegistration":"จ3-31-1/36พร","province":"แพร่","district":"ร้องกวาง","subdistrict":"ร้องกวาง","industryType":"ทำกระเป๋า รองเท้า เข็มขัด ด้วยหนังสัตว์และหนังเทียม","status":"ดำเนินกิจการ","lat":18.34543,"lon":100.31452},"20540000325515":{"id":"20540000325515","name":"สถานีบ่มใบยาแม่คำมี","owner":"นายมงคล กันทาธรรม","displayRegistration":"จ3-1-3/51พร","province":"แพร่","district":"หนองม่วงไข่","subdistrict":"ตำหนักธรรม","industryType":"บ่มใบยาสูบ และอบพืชหรือเมล็ดพืช","status":"ดำเนินกิจการ","lat":18.27383,"lon":100.24428},"20540001425512":{"id":"20540001425512","name":"แพร่ค้าของเก่า","owner":"นางรุ่งทิพย์ ทนันไชย","displayRegistration":"จ3-53(9)-14/51พร","province":"แพร่","district":"เมืองแพร่","subdistrict":"วังหงส์","industryType":"บด ล้างพลาสติก","status":"ดำเนินกิจการ","lat":18.23269,"lon":100.17263},"20540004725512":{"id":"20540004725512","name":"โรงงานน้ำแข็ง เอส.ที","owner":"นายสุเทน กระสาย","displayRegistration":"จ3-14-47/51พร","province":"แพร่","district":"สูงเม่น","subdistrict":"สูงเม่น","industryType":"ทำน้ำแข็งหลอด(กำลังการผลิต 70 ตัน/วัน)","status":"ดำเนินกิจการ","lat":18.0613330905147,"lon":100.083968639374},"20540003925519":{"id":"20540003925519","name":"บริษัท ข้าวทิพย์ แพร่ จำกัด","owner":"บริษัท ข้าวทิพย์ แพร่ จำกัด","displayRegistration":"จ3-2(1)-39/51พร","province":"แพร่","district":"เมืองแพร่","subdistrict":"ทุ่งโฮ้ง","industryType":"อบพืชหรือเมล็ดพืช","status":"ดำเนินกิจการ","lat":18.1874,"lon":100.18493},"20540027825513":{"id":"20540027825513","name":"สหกรณ์บริการผลิตภัณฑ์ไม้น้ำชำ-หัวฝาย จำกัด","owner":"สหกรณ์บริการผลิตภัณฑ์ไม้น้ำชำ-หัวฝาย จำกัด","displayRegistration":"จ3-37-278/51พร","province":"แพร่","district":"สูงเม่น","subdistrict":"น้ำชำ","industryType":"ทำเครื่องเรือน เฟอร์นิเจอร์ จากไม้ เช่น โต๊ะ เก้าอี้ ตู้ เตียง และอบไม้","status":"ดำเนินกิจการ","lat":18.0384,"lon":100.10252},"20540001025502":{"id":"20540001025502","name":"โรงสีสุรศักดิ์ (หนานอุ๊) วงศ์ศิริ","owner":"นายสุรศักดิ์ วงศ์ศิริ","displayRegistration":"จ3-9(1)-10/50พร","province":"แพร่","district":"เมืองแพร่","subdistrict":"แม่ยม","industryType":"สีข้าว (กำลังสีสูงสุด 100 เกวียน/วัน)","status":"ดำเนินกิจการ","lat":18.1824489098188,"lon":100.163179636002},"20540101025501":{"id":"20540101025501","name":"บริษัท ศักดาพร จำกัด","owner":"บริษัท ศักดาพร จำกัด","displayRegistration":"จ3-50(1)-10/50พร","province":"แพร่","district":"ลอง","subdistrict":"แม่ปาน","industryType":"ผสมยางมะตอยผลิตแอสฟัลท์ติกคอนกรีต","status":"ดำเนินกิจการ","lat":18.018908,"lon":99.950918},"20540009225500":{"id":"20540009225500","name":"ดอนมูลค้าไม้","owner":"นายเอกพงศ์ เสียงเพราะ","displayRegistration":"จ3-34(1)-92/50พร","province":"แพร่","district":"สูงเม่น","subdistrict":"ดอนมูล","industryType":"ไส-ซอย เซาะร่องรางลิ้น ไม้แปรรูป เพื่อบริการลูกค้าฯ","status":"ดำเนินกิจการ","lat":18.0690187539422,"lon":100.124507546425},"20540000225491":{"id":"20540000225491","name":"ห้างหุ้นส่วนจำกัด แพร่ธนัตถ์กิจ","owner":"ห้างหุ้นส่วนจำกัด แพร่ธนัตถ์กิจ","displayRegistration":"จ3-35-2/49พร","province":"แพร่","district":"เด่นชัย","subdistrict":"แม่จั๊วะ","industryType":"ทำผลิตภัณฑ์จากไม้ไผ่ ด้วยการอบและตบแต่ง","status":"ดำเนินกิจการ","lat":17.9989020452231,"lon":100.091119408607},"20540109925504":{"id":"20540109925504","name":"บริษัท ศักดาพร จำกัด","owner":"บริษัท ศักดาพร จำกัด","displayRegistration":"จ3-58(1)-99/50พร","province":"แพร่","district":"ลอง","subdistrict":"แม่ปาน","industryType":"ผสมคอนกรีต ทำผลิตภัณฑ์คอนกรีต","status":"ดำเนินกิจการ","lat":18.01878,"lon":99.950878},"20540019625509":{"id":"20540019625509","name":"สนั่นเฟอร์นิเจอร์","owner":"นายสนั่น ใจกล้า","displayRegistration":"จ3-37-196/50พร","province":"แพร่","district":"สูงเม่น","subdistrict":"ดอนมูล","industryType":"ทำเฟอร์นิเจอร์ ส่วนประกอบอาคาร และเครื่องใช้จากไม้","status":"ดำเนินกิจการ","lat":18.05295,"lon":100.12682},"10540000825516":{"id":"10540000825516","name":"บริษัท แพร่รุ่งเรือง อินเตอร์ไรซ์ 2007 จำกัด","owner":"บริษัท แพร่รุ่งเรือง อินเตอร์ไรซ์ 2007 จำกัด","displayRegistration":"3-9(1)-8/51พร","province":"แพร่","district":"เมืองแพร่","subdistrict":"แม่หล่าย","industryType":"สีข้าว กำลังสีสูงสุดของร้านสีข้าว 400 เกวียน/วัน และอบเมล็ดพืช เช่น ข้าวเปลือก ฯลฯ","status":"ดำเนินกิจการ","lat":18.2029358783239,"lon":100.20827293396},"20540005325502":{"id":"20540005325502","name":"ห้างหุ้นส่วนจำกัด น้ำแข็งทิพย์ (ลอง)","owner":"ห้างหุ้นส่วนจำกัด น้ำแข็งทิพย์ (ลอง)","displayRegistration":"จ3-14-53/50พร","province":"แพร่","district":"ลอง","subdistrict":"ปากกาง","industryType":"ผลิตน้ำแข็งหลอด (กำลังการผลิตสูงสุด 40 ตัน/วัน)","status":"ดำเนินกิจการ","lat":18.05341,"lon":99.80274},"20540000225517":{"id":"20540000225517","name":"NULL","owner":"นายอุทัย สิทธิหาญ","displayRegistration":"จ3-1-2/51พร","province":"แพร่","district":"ร้องกวาง","subdistrict":"ร้องเข็ม","industryType":"บ่มใบยาสูบ อบพืช และเมล็ดพืช","status":"ดำเนินกิจการ","lat":18.30019,"lon":100.29834},"20540104525515":{"id":"20540104525515","name":"บริษัท ศักดาพร จำกัด","owner":"บริษัท ศักดาพรจำกัด","displayRegistration":"จ3-58(1)-45/51พร","province":"แพร่","district":"เด่นชัย","subdistrict":"แม่จั๊วะ","industryType":"ผสมคอนกรีตสำเร็จ และทำผลิตภัณฑ์คอนกรีต","status":"ดำเนินกิจการ","lat":17.971391,"lon":100.075405},"20540001725507":{"id":"20540001725507","name":"บริษัท ซุ่นเฮงหลีรุ่งเรืองทรัพย์ จำกัด","owner":"บริษัท ซุนเฮงหลีรุ่งเรืองทรัพย์ จำกัด","displayRegistration":"จ3-2(1)-17/50พร","province":"แพร่","district":"ร้องกวาง","subdistrict":"ร้องเข็ม","industryType":"อบ เก็บรักษาเมล็ดพืช ในไซโลโกดัง","status":"ดำเนินกิจการ","lat":18.2915015180157,"lon":100.271980762482},"20540012825494":{"id":"20540012825494","name":"สหกรณ์บริการผลิตภัณฑ์รากไม้ไทยจำกัด","owner":"สหกรณ์บริการผลิตภัณฑ์รากไม้ไทยจำกัด","displayRegistration":"จ3-34(2)-128/49พร","province":"แพร่","district":"เด่นชัย","subdistrict":"ไทรย้อย","industryType":"ทำส่วนประกอบที่ทำด้วยไม้ของอาคาร ทำเครื่องเรือนและเครื่องตบแต่งภายในอาคารจากไม้","status":"ดำเนินกิจการ","lat":17.91764,"lon":99.90676},"20540009025496":{"id":"20540009025496","name":"NULL","owner":"นายภูวุตม์ศรัณย์ วันชัย","displayRegistration":"จ3-34(2)-90/49พร","province":"แพร่","district":"เด่นชัย","subdistrict":"แม่จั๊วะ","industryType":"ทำบานประตู หน้าต่าง ส่วนประกอบอาคารจากไม้","status":"ดำเนินกิจการ","lat":17.99005,"lon":100.08789},"20540007325492":{"id":"20540007325492","name":"-","owner":"นายนิยม การินตา","displayRegistration":"จ3-3(4)-73/49พร","province":"แพร่","district":"สอง","subdistrict":"แดนชุมพล","industryType":"ดูดกรวด ทราย","status":"ดำเนินกิจการ","lat":18.36886,"lon":100.20664},"20540007025472":{"id":"20540007025472","name":"สหกรณ์บริการผลิตภัณฑ์ไม้บ้านวังวน","owner":"สหกรณ์บริการผลิตภัณฑ์ไม้บ้านวังวน","displayRegistration":"จ3-36(1)-70/47พร","province":"แพร่","district":"สูงเม่น","subdistrict":"สบสาย","industryType":"ทำบานหน้าต่าง บานประตู ส่วนประกอบที่ทำด้วยไม้ของอาคาร เครื่องใช้ และเครื่องเรือน จากไม้","status":"ดำเนินกิจการ","lat":18.08782,"lon":100.09154},"20540012125473":{"id":"20540012125473","name":"สหกรณ์บริการผลิตภัณฑ์ไม้เวียงทอง","owner":"สหกรณ์บริการผลิตภัณฑ์ไม้เวียงทอง","displayRegistration":"จ3-34(2)-121/47พร","province":"แพร่","district":"สูงเม่น","subdistrict":"เวียงทอง","industryType":"ทำเครื่องเรือน เครื่องตบแต่งในอาคารจากไม้- เครื่องใช้ ส่วนประกอบของอาคาร จากไม้","status":"ดำเนินกิจการ","lat":18.11364,"lon":100.12418},"20540029025492":{"id":"20540029025492","name":"สหกรณ์บริการผลิตภัณฑ์ไม้นาพูน จำกัด","owner":"สหกรณ์บริการผลิตภัณฑ์ไม้นาพูน จำกัด","displayRegistration":"จ3-37-290/49พร","province":"แพร่","district":"วังชิ้น","subdistrict":"นาพูน","industryType":"ทำเฟอร์นิเจอร์ และเครื่องใช้จากไม้","status":"ดำเนินกิจการ","lat":17.82697,"lon":99.76465},"20540003825495":{"id":"20540003825495","name":"บริษัท ชุนเฮงหลี จำกัด","owner":"บริษัท ชุนเฮงหลี จำกัด","displayRegistration":"จ3-2(1)-38/49พร","province":"แพร่","district":"เด่นชัย","subdistrict":"แม่จั๊วะ","industryType":"อบ ตาก เก็บรักษาเมล็ดพืชในไซโลโกดัง","status":"ดำเนินกิจการ","lat":17.9750388616294,"lon":100.071941614151},"20540001525501":{"id":"20540001525501","name":"บริษัท ผลิตภัณฑ์และวัตถุก่อสร้าง จำกัด","owner":"ห้างหุ้นส่วนจำกัด เอ็นพี วัสดุก่อสร้าง","displayRegistration":"จ3-58(1)-15/50พร","province":"แพร่","district":"ร้องกวาง","subdistrict":"แม่ยางฮ่อ","industryType":"ทำคอนกรีตผสมเสร็จ","status":"ดำเนินกิจการ","lat":18.33957,"lon":100.27753},"20540020425493":{"id":"20540020425493","name":"เรือนต้นเพชร","owner":"นายอารักษ์ พงศ์พุฒิ","displayRegistration":"จ3-34(2)-204/49พร","province":"แพร่","district":"สูงเม่น","subdistrict":"หัวฝาย","industryType":"ทำส่วนประกอบอาคาร เครื่องใช้ จากไม้","status":"ดำเนินกิจการ","lat":18.01825,"lon":100.10947},"20540001225524":{"id":"20540001225524","name":"บริษัท แพร่วิศวกรรม จำกัด","owner":"ห้างหุ้นส่วนจำกัด แพร่วิศวกรรม","displayRegistration":"จ3-50(4)-12/52พร","province":"แพร่","district":"เมืองแพร่","subdistrict":"แม่คำมี","industryType":"ผลิตแอสฟัลท์ติกคอนกรีต","status":"ดำเนินกิจการ","lat":18.23442,"lon":100.21367},"20540300225530":{"id":"20540300225530","name":"สุภาภรณ์รีไซเคิล","owner":"นางสุภาภรณ์ ถิ่นจอม","displayRegistration":"จ3-53(9)-2/53พร","province":"แพร่","district":"เมืองแพร่","subdistrict":"บ้านถิ่น","industryType":"บด ย่อย และล้างพลาสติก","status":"ดำเนินกิจการ","lat":18.15354,"lon":100.22498},"20540012225521":{"id":"20540012225521","name":"อภิรัชต์","owner":"นางปิยะรัตน์ มณีกาศ","displayRegistration":"จ3-37-122/52พร","province":"แพร่","district":"สูงเม่น","subdistrict":"บ้านเหล่า","industryType":"ทำเครื่องเรือนจากไม้ฉำฉา","status":"ดำเนินกิจการ","lat":18.06768,"lon":100.14076},"20540001725523":{"id":"20540001725523","name":"สังคมพืชผล","owner":"นายสังคม โนจักร","displayRegistration":"จ3-2(5)-17/52พร","province":"แพร่","district":"เมืองแพร่","subdistrict":"ทุ่งโฮ้ง","industryType":"กระเทาะเปลือกเมล็ดพืช ตากเมล็ดพืช และเก็บรักษาในโกดัง","status":"ดำเนินกิจการ","lat":18.17839,"lon":100.17479},"20540017725525":{"id":"20540017725525","name":"NULL","owner":"บริษัท ทีเอฟ อินดัสทรี จำกัด","displayRegistration":"จ3-37-177/52พร","province":"แพร่","district":"สูงเม่น","subdistrict":"พระหลวง","industryType":"ทำเครื่องเรือน เครื่องตบแต่งภายในอาคาร จากไม้","status":"ดำเนินกิจการ","lat":18.06489,"lon":100.10622},"10540001025520":{"id":"10540001025520","name":"บริษัท ไนน์ตี้ไนน์ นูดเดิ้ล จำกัด","owner":"บริษัท ไนน์ตี้ไนน์ นูดเดิ้ล จำกัด","displayRegistration":"3-10(3)-10/52พร","province":"แพร่","district":"เมืองแพร่","subdistrict":"ป่าแดง","industryType":"ผลิตเส้นก๋วยเตี๋ยวอบแห้ง","status":"ดำเนินกิจการ","lat":18.12254,"lon":100.21312},"20540003225522":{"id":"20540003225522","name":"โชคนิรันดร์","owner":"นายพีรณัฐ นิทัศนโยธิน","displayRegistration":"จ3-3(3)-32/52พร","province":"แพร่","district":"สูงเม่น","subdistrict":"น้ำชำ","industryType":"ล้าง แยก กรวด ทราย","status":"ดำเนินกิจการ","lat":18.02801,"lon":100.07395},"20540024025521":{"id":"20540024025521","name":"ศักดิ์ทวีเฟอร์นิเจอร์","owner":"นายศักดิ์ศรี รอบเมือง","displayRegistration":"จ3-37-240/52พร","province":"แพร่","district":"สูงเม่น","subdistrict":"ดอนมูล","industryType":"ทำสิ่งประดิษฐ์ เครื่องเรือน เครื่องใช้ และส่วนประกอบอาคาร จากไม้","status":"ดำเนินกิจการ","lat":18.05545,"lon":100.12314},"20540025225567":{"id":"20540025225567","name":"บริษัท เอสดีพีไออินดัสตรี้ จำกัด","owner":"บริษัท เอสดีพีไออินดัสตรี้ จำกัด","displayRegistration":"จ3-58(1)-252/56พร","province":"แพร่","district":"เด่นชัย","subdistrict":"ไทรย้อย","industryType":"ผลิตหมอนคอนกรีตรถไฟ","status":"ดำเนินกิจการ","lat":17.991083943135,"lon":100.013940346436},"20540000325564":{"id":"20540000325564","name":"ห้างหุ้นส่วนจำกัด แพร่ปิโตรเลียม","owner":"ห้างหุ้นส่วนจำกัด แพร่ปิโตรเลียม","displayRegistration":"จ3-3(1)-3/56พร","province":"แพร่","district":"ลอง","subdistrict":"แม่ปาน","industryType":"โม่ บด ย่อยหิน","status":"ดำเนินกิจการ","lat":18.014920431825,"lon":99.9507351688797},"20540008525512":{"id":"20540008525512","name":"บริษัท ทรัพย์ไพศาล (โดโลไมท์) จำกัด","owner":"บริษัท ทรัพย์ไพศาล (โดโลไมท์) จำกัด","displayRegistration":"จ3-43(1)-85/51พร","province":"แพร่","district":"เมืองแพร่","subdistrict":"นาจักร","industryType":"ผลิตปุ๋ยเคมี","status":"ดำเนินกิจการ","lat":18.1191,"lon":100.15854},"20540016225501":{"id":"20540016225501","name":"บริษัท โตโยต้าแพร่หล่อตระกูล ผู้จำหน่ายโตโยต้า จำกัด","owner":"บริษัท โตโยต้าแพร่หล่อตระกูล ผู้จำหน่ายโตโยต้า จำกัด","displayRegistration":"จ3-95(1)-162/50พร","province":"แพร่","district":"สูงเม่น","subdistrict":"ร่องกาศ","industryType":"ซ่อมแซมรถยนต์ เคาะพ่นสี และพ่นสีกันสนิมรถยนต์","status":"ดำเนินกิจการ","lat":18.09211,"lon":100.13045},"20540100225466":{"id":"20540100225466","name":"น้ำทองฟาร์ม","owner":"สิบตรี ประดิษฐ์ ศศิภัทรกุล","displayRegistration":"จ3-4(1)-2/46พร","province":"แพร่","district":"เมืองแพร่","subdistrict":"แม่หล่าย","industryType":"ฆ่าสัตว์ ชำแหละสุกร","status":"ดำเนินกิจการ","lat":18.2053003883411,"lon":100.209989547729},"20540005225504":{"id":"20540005225504","name":"บริษัท ชนธัญรุ่งเรืองกิจ จำกัด","owner":"บริษัท ชนธัญรุ่งเรืองกิจ จำกัด","displayRegistration":"จ3-14-52/50พร","province":"แพร่","district":"ร้องกวาง","subdistrict":"ทุ่งศรี","industryType":"ผลิตน้ำแข็งหลอด 70 ตัน/วัน","status":"ดำเนินกิจการ","lat":18.3126835279184,"lon":100.301168560982},"20540200125392":{"id":"20540200125392","name":"ห้างหุ้นส่วนจำกัด แพร่วัฒนกิจ","owner":"ห้างหุ้นส่วนจำกัด แพร่วัฒนกิจ","displayRegistration":"จ3-64(13)-1/39พร","province":"แพร่","district":"เมืองแพร่","subdistrict":"ทุ่งกวาว","industryType":"กลึง-เชื่อมโลหะ ทำโครงเหล็ก อุปกรณ์ใช้ในการจราจร เช่น แผ่นป้าย เสาไฟทางแยก เหล็กกันทางโค้ง แผ่นป้ายฯลฯ","status":"ดำเนินกิจการ","lat":18.1519,"lon":100.15413},"20540107325491":{"id":"20540107325491","name":"ชูไกรทองคอนกรีต","owner":"บริษัท ชูไกรทองพาณิชย์ จำกัด","displayRegistration":"จ3-58(1)-73/49พร","province":"แพร่","district":"เมืองแพร่","subdistrict":"แม่คำมี","industryType":"ทำผลิตภัณฑ์คอนกรีต เช่น คอนกรีตบล๊อค ท่อระบายน้ำ เสา แผ่นพื้นสำเร็จ วงส้วม","status":"ดำเนินกิจการ","lat":18.26498,"lon":100.23738},"20540013125514":{"id":"20540013125514","name":"สหกรณ์บริการผลิตภัณฑ์ไม้แม่พุง จำกัด","owner":"สหกรณ์บริการผลิตภัณฑ์ไม้แม่พุง จำกัด","displayRegistration":"จ3-37-131/51พร","province":"แพร่","district":"วังชิ้น","subdistrict":"แม่พุง","industryType":"ทำเฟอร์นิเจอร์ เครื่องตกแต่งภายในอาคาร เครื่องใช้ในครัวเรือน ส่วนประกอบของอาคาร บ้านถอดประกอบ และซ้อมถอดประกอบ จากไม้","status":"ดำเนินกิจการ","lat":17.87973,"lon":99.55532},"20540000225343":{"id":"20540000225343","name":"บริษัท คชาธารก่อสร้าง จำกัด","owner":"บริษัท คชาธารก่อสร้าง จำกัด","displayRegistration":"จ3-3(4)-2/34พร","province":"แพร่","district":"เมืองแพร่","subdistrict":"แม่หล่าย","industryType":"ดูด, ขุดลอก, ร่อนคัด, ลำเลียงทรายและกรวด ใบอนุญาตใช้เรือเลขที่ 3454, 00654","status":"ดำเนินกิจการ","lat":18.2182689511068,"lon":100.184363722801},"10540000125206":{"id":"10540000125206","name":"บริษัท น้ำแข็งทองธานี จำกัด","owner":"บริษัท น้ำแข็งทองธานี จำกัด","displayRegistration":"3-14-1/20พร","province":"แพร่","district":"เมืองแพร่","subdistrict":"ทุ่งกวาว","industryType":"ทำน้ำแข็งได้วันละ 437 ซอง และทำน้ำแข็งก้อนเล็ก 158.51 ตัน","status":"ดำเนินกิจการ","lat":18.1574994644194,"lon":100.163544416428},"20540000125428":{"id":"20540000125428","name":"สหกรณ์การเกษตรร้องกวาง จำกัด","owner":"สหกรณ์การเกษตรร้องกวาง จำกัด","displayRegistration":"จ3-2(1)-1/42พร","province":"แพร่","district":"ร้องกวาง","subdistrict":"น้ำเลา","industryType":"อบ ร่อน คัด และแยกคุณภาพผลิตผลทางการเกษตร","status":"ดำเนินกิจการ","lat":18.2623497406035,"lon":100.308448076248},"20540001425520":{"id":"20540001425520","name":"ตลาดกลางสหกรณ์การเกษตรร้องกวาง จำกัด","owner":"สหกรณ์การเกษตรร้องกวาง จำกัด","displayRegistration":"จ3-2(1)-14/52พร","province":"แพร่","district":"ร้องกวาง","subdistrict":"ร้องกวาง","industryType":"อบพืชหรือเมล็ดพืช","status":"ดำเนินกิจการ","lat":18.35472,"lon":100.32757},"20540000125451":{"id":"20540000125451","name":"เกษตรสิน","owner":"นายเอกภาพ อู่โชตนานนท์","displayRegistration":"จ3-2(5)-1/45พร","province":"แพร่","district":"เมืองแพร่","subdistrict":"แม่หล่าย","industryType":"เก็บรักษา ลำเลียงเมล็ดพืช หรือผลิตผลจากพืชในโกดัง และร่อนคัดแยกขนาดของผลิตผลเกษตรกรรม","status":"ดำเนินกิจการ","lat":18.1993329964084,"lon":100.191890001297},"20540001425538":{"id":"20540001425538","name":"บริษัท ลิงโก้ จัมพ์ จำกัด","owner":"บริษัท ลิงโก้ จั๊มพ์ จำกัด","displayRegistration":"จ3-36(1)-14/53พร","province":"แพร่","district":"เมืองแพร่","subdistrict":"แม่ยม","industryType":"ทำเครื่องเรือน สิ่งตกแต่งภายในอาคารบ้านเรือน จากไม้","status":"ดำเนินกิจการ","lat":18.32542,"lon":100.54212},"20540001825356":{"id":"20540001825356","name":"บุญมาก","owner":"นางทองวาส บุญมาก","displayRegistration":"จ3-37-18/35พร","province":"แพร่","district":"สูงเม่น","subdistrict":"บ้านเหล่า","industryType":"ทำเครื่องเรือนจากไม้ฉำฉา","status":"ดำเนินกิจการ","lat":18.06561,"lon":100.14158}}