{"00560000125362":{"id":"00560000125362","name":"เรือนจำจังหวัดพะเยา","owner":"กรมราชทัณฑ์ กระทรวงมหาดไทย","displayRegistration":"ศ3-37-1/36พย","province":"พะเยา","district":"เมืองพะเยา","subdistrict":"บ้านต๋อม","industryType":"ทำเครื่องเรือนจากไม้","status":"ดำเนินกิจการ","lat":19.20231,"lon":99.88584},"20560004025366":{"id":"20560004025366","name":"บริษัท พะเยาคอนกรีต(1993) จำกัด","owner":"บริษัท พะเยาคอนกรีต 1993 จำกัด","displayRegistration":"จ3-58(1)-40/36พย","province":"พะเยา","district":"เมืองพะเยา","subdistrict":"บ้านต๋อม","industryType":"ทำผลิตภัณฑ์คอนกรีต เช่น คอนกรีตผสมเสร็จ แผ่นพื้นคอนกรีตสำเร็จรูป และเสาเข็มคอนกรีต","status":"ดำเนินกิจการ","lat":19.19501,"lon":99.8784},"10560000125261":{"id":"10560000125261","name":"โรงน้ำแข็งพะเยาเกรียงชัย","owner":"ห้างหุ้นส่วนจำกัด น้ำแข็งเกรียงชัย","displayRegistration":"3-14-1/26พย","province":"พะเยา","district":"เมืองพะเยา","subdistrict":"บ้านต๋อม","industryType":"ทำน้ำแข็งซอง ได้วันละ 300 ซอง ทำน้ำแข็งก้อนเล็ก ได้วันละ 70 ตัน และน้ำดื่ม","status":"ดำเนินกิจการ","lat":19.18458,"lon":99.88101},"10560000225327":{"id":"10560000225327","name":"อุตสาหกรรมอิฐอารีย์","owner":"นายอารีย์ รุ่งอภิญญา","displayRegistration":"3-56-2/32พย","province":"พะเยา","district":"ภูซาง","subdistrict":"เชียงแรง","industryType":"ทำอิฐดินเผา","status":"ดำเนินกิจการ","lat":19.58355,"lon":100.2991},"10560001225201":{"id":"10560001225201","name":"ห้างหุ้นส่วนจำกัด โรงสีพะเยาธัญกิจ","owner":"ห้างหุ้นส่วนจำกัด โรงสีพะเยาธัญกิจ","displayRegistration":"3-9(1)-12/20พย","province":"พะเยา","district":"ดอกคำใต้","subdistrict":"ดอกคำใต้","industryType":"สีข้าว กำลังสีสูงสุดของร้านสีข้าว 40 เกวียน/วัน","status":"ดำเนินกิจการ","lat":19.15092,"lon":99.93393},"10560001625269":{"id":"10560001625269","name":"ห้างหุ้นส่วนจำกัด โรงสียงกิจ","owner":"ห้างหุ้นส่วนจำกัด โรงสียงกิจ","displayRegistration":"3-9(1)-16/26พย","province":"พะเยา","district":"ดอกคำใต้","subdistrict":"ดอกคำใต้","industryType":"สีข้าว กำลังสีสูงสุดของร้านสีข้าว 40 เกวียน/วัน","status":"ดำเนินกิจการ","lat":19.14417,"lon":99.92507},"10560000125311":{"id":"10560000125311","name":"สถานีบ่มใบยาสันกลาง","owner":"บริษัท เทพวงศ์ จำกัด","displayRegistration":"3-1-1/31พย","province":"พะเยา","district":"ปง","subdistrict":"งิม","industryType":"บ่มใบยาสูบ","status":"ดำเนินกิจการ","lat":19.27523,"lon":100.36916},"10560000125360":{"id":"10560000125360","name":"โรงสีสหกรณ์การเกษตรแม่ใจ จำกัด","owner":"สหกรณ์การเกษตรแม่ใจ จำกัด","displayRegistration":"3-9(1)-1/36พย","province":"พะเยา","district":"แม่ใจ","subdistrict":"แม่ใจ","industryType":"สีข้าว กำลังสีสูงสุดของร้านสีข้าว 60 เกวียน/วัน","status":"ดำเนินกิจการ","lat":19.33716,"lon":99.81837},"10560000125253":{"id":"10560000125253","name":"ศรีสยาม","owner":"ห้างหุ้นส่วนจำกัด โรงแป้งศรีสยาม","displayRegistration":"3-9(2)-1/25พย","province":"พะเยา","district":"เมืองพะเยา","subdistrict":"แม่ต๋ำ","industryType":"โม่แป้ง และทำเส้นหมี่","status":"ดำเนินกิจการ","lat":19.15375,"lon":99.91421},"00560000225337":{"id":"00560000225337","name":"NULL","owner":"นายวิโรจน์ สกุลเจียมใจ","displayRegistration":"ศ3-4(3)-2/33พย","province":"พะเยา","district":"เมืองพะเยา","subdistrict":"เวียง","industryType":"ทำลูกชิ้นเนื้อ-หมู","status":"ดำเนินกิจการ","lat":19.17093,"lon":99.89947},"10560100125252":{"id":"10560100125252","name":"NULL","owner":"นายวิชิต กอเจริญกิจกุล","displayRegistration":"3-15(2)-1/25พย","province":"พะเยา","district":"เมืองพะเยา","subdistrict":"แม่กา","industryType":"โม่กระดูกสัตว์สำหรับทำอาหารสัตว์","status":"ดำเนินกิจการ","lat":19.03751,"lon":99.9542},"20560000125392":{"id":"20560000125392","name":"บริษัท พิบูลธัมไอซิ่ง จำกัด","owner":"บริษัท พิบูลธัมไอซิ่ง จำกัด","displayRegistration":"จ3-14-1/39พย","province":"พะเยา","district":"ภูซาง","subdistrict":"สบบง","industryType":"ผลิตน้ำแข็งหลอด","status":"ดำเนินกิจการ","lat":19.55992,"lon":100.29722},"00560000125388":{"id":"00560000125388","name":"ห้างหุ้นส่วนจำกัด น้ำแข็งเชียงคำ","owner":"ห้างหุ้นส่วนจำกัด น้ำแข็งเชียงคำ","displayRegistration":"ศ3-14-1/38พย","province":"พะเยา","district":"เชียงคำ","subdistrict":"หย่วน","industryType":"ทำน้ำแข็งซองและน้ำแข็งก้อนเล็ก ได้วันละ 15 ตัน","status":"ดำเนินกิจการ","lat":19.53518,"lon":100.29995},"20560000225390":{"id":"20560000225390","name":"มรกต","owner":"นายพีรพันธ์ ยาระนะ","displayRegistration":"จ3-14-2/39พย","province":"พะเยา","district":"เมืองพะเยา","subdistrict":"แม่กา","industryType":"ผลิตน้ำแข็งหลอด","status":"ดำเนินกิจการ","lat":19.09158,"lon":99.90524},"20560100125391":{"id":"20560100125391","name":"ห้างหุ้นส่วนจำกัดอู่ เอส.พี.เซอร์วิสพะเยา","owner":"ห้างหุ้นส่วนจำกัดอู่ เอส.พี.เซอร์วิส พะเยา","displayRegistration":"จ3-95(1)-1/39พย","province":"พะเยา","district":"เมืองพะเยา","subdistrict":"แม่ต๋ำ","industryType":"เคาะพ่นสีรถยนต์","status":"ดำเนินกิจการ","lat":19.15425,"lon":99.91185},"20560100325397":{"id":"20560100325397","name":"NULL","owner":"นายประสงค์ เชื้อสะอาด","displayRegistration":"จ3-37-3/39พย","province":"พะเยา","district":"เชียงคำ","subdistrict":"หย่วน","industryType":"ทำเครื่องเรือนจากไม้","status":"ดำเนินกิจการ","lat":19.53367,"lon":100.29278},"20560200325396":{"id":"20560200325396","name":"โรงงานคอนกรีตผสมเสร็จ พะเยา","owner":"บริษัท ปูนซิเมนต์ไทย (ลำปาง) จำกัด","displayRegistration":"จ3-58(1)-3/39พย","province":"พะเยา","district":"ดอกคำใต้","subdistrict":"ดอกคำใต้","industryType":"ผลิตคอนกรีตผสมเสร็จ","status":"ดำเนินกิจการ","lat":19.15551,"lon":99.95237},"20560000225408":{"id":"20560000225408","name":"ห้างหุ้นส่วนจำกัด เชียงคำซีเมนต์บล๊อค (1991)","owner":"ห้างหุ้นส่วนจำกัด เชียงคำซีเมนต์บล๊อค (1991)","displayRegistration":"จ3-58(1)-2/40พย","province":"พะเยา","district":"เชียงคำ","subdistrict":"หย่วน","industryType":"ทำผลิตภัณฑ์คอนกรีต","status":"ดำเนินกิจการ","lat":19.51766,"lon":100.29627},"20560000325406":{"id":"20560000325406","name":"ห้างหุ้นส่วนจำกัด รัตนานุพัชร","owner":"ห้างหุ้นส่วนจำกัด รัตนานุพัชร","displayRegistration":"จ3-58(1)-3/40พย","province":"พะเยา","district":"จุน","subdistrict":"ห้วยข้าวก่ำ","industryType":"ผลิตภัณฑ์คอนกรีตอัดแรง","status":"ดำเนินกิจการ","lat":19.35031,"lon":100.13719},"20560000125418":{"id":"20560000125418","name":"โรงสีธนไพบูลย์","owner":"นายไพบูลย์ ส่องแสงรักษ์","displayRegistration":"จ3-9(1)-1/41พย","province":"พะเยา","district":"ภูซาง","subdistrict":"เชียงแรง","industryType":"สีข้าว","status":"หยุดชั่วคราว","lat":19.60151,"lon":100.30584},"20560000625417":{"id":"20560000625417","name":"บริษัท พะเยาฮอนด้าคาร์ส์ จำกัด","owner":"บริษัท พะเยาฮอนด้าคาร์ส์ จำกัด","displayRegistration":"จ3-95(1)-6/41พย","province":"พะเยา","district":"เมืองพะเยา","subdistrict":"แม่ต๋ำ","industryType":"ซ่อมรถยนต์","status":"ดำเนินกิจการ","lat":19.14842,"lon":99.91232},"10560000125436":{"id":"10560000125436","name":"ห้างหุ้นส่วนจำกัด รัตนานุพัชร","owner":"ห้างหุ้นส่วนจำกัด รัตนานุพัชร","displayRegistration":"3-50(4)-1/43พย","province":"พะเยา","district":"จุน","subdistrict":"ห้วยข้าวก่ำ","industryType":"ผลิตแอสฟัลติกคอนกรีต","status":"ดำเนินกิจการ","lat":19.35031,"lon":100.13719},"20560100125441":{"id":"20560100125441","name":"บริษัท กิจมั่นคง เทรดดิ้ง จำกัด (โรงงาน 1)","owner":"บริษัท กิจมั่นคง เทรดดิ้ง จำกัด","displayRegistration":"จ3-2(5)-1/44พย","province":"พะเยา","district":"ดอกคำใต้","subdistrict":"ดอกคำใต้","industryType":"การอบเมล็ดพืช และการเก็บรักษาในไซโลโกดัง","status":"ดำเนินกิจการ","lat":19.15493,"lon":99.94855},"20560000125442":{"id":"20560000125442","name":"สถานีบ่มใบยาสะแล่ง(วังดิน)","owner":"นายนริศ วงศ์วรรณ","displayRegistration":"จ3-1-1/44พย","province":"พะเยา","district":"ภูซาง","subdistrict":"เชียงแรง","industryType":"บ่มใบยาสูบ","status":"หยุดชั่วคราว","lat":19.63779,"lon":100.29233},"20560200125457":{"id":"20560200125457","name":"บริษัท กิจมั่นคง เทรดดิ้ง จำกัด (โรงงาน 2)","owner":"บริษัท กิจมั่นคง เทรดดิ้ง จำกัด","displayRegistration":"จ3-9(3)-1/45พย","province":"พะเยา","district":"ดอกคำใต้","subdistrict":"ดอกคำใต้","industryType":"การป่น,บดเมล็พืช-หัวพืช","status":"ดำเนินกิจการ","lat":19.15493,"lon":99.94855},"20560000125459":{"id":"20560000125459","name":"โรงงานปรับสภาพเมล็ดพันธุ์ สหกรณ์การเกษตรแม่ใจ จำกัด","owner":"สหกรณ์การเกษตรแม่ใจ จำกัด","displayRegistration":"จ3-2(1)-1/45พย","province":"พะเยา","district":"แม่ใจ","subdistrict":"แม่ใจ","industryType":"คัดเมล็ดพันธุ์พืช, อบเมล็ดพันธุ์พืช, การเก็บเมล็ดพันธุ์พืช","status":"ดำเนินกิจการ","lat":19.33501,"lon":99.81898},"20560400125455":{"id":"20560400125455","name":"ห้างหุ้นส่วนจำกัด ศิริวิทยาภัณฑ์ 1995","owner":"ห้างหุ้นส่วนจำกัด ศิริวิทยาภัณฑ์ 1995","displayRegistration":"จ3-58(1)-1/45พย","province":"พะเยา","district":"ดอกคำใต้","subdistrict":"ดอนศรีชุม","industryType":"ผลิตทอ คสล. ขนาด 40,60,80,100,120 ซม. และผลิตภัณฑ์คอนกรีตต่าง ๆ","status":"ดำเนินกิจการ","lat":19.14946,"lon":99.99879},"20560000225457":{"id":"20560000225457","name":"โรงสีต๋อมสบบง","owner":"นายกัมพล วงศ์พุทธิสิน","displayRegistration":"จ3-9(1)-2/45พย","province":"พะเยา","district":"ภูซาง","subdistrict":"สบบง","industryType":"สีข้าวกำลังสีสูงสุดของร้านสีข้าว 40 เกวียน/วัน","status":"ดำเนินกิจการ","lat":19.58366,"lon":100.30246},"20560000225465":{"id":"20560000225465","name":"โรงสีเพียรทอง","owner":"นายนิลพันธ์ เพียรทอง","displayRegistration":"จ3-9(1)-2/46พย","province":"พะเยา","district":"เมืองพะเยา","subdistrict":"แม่นาเรือ","industryType":"สีข้าว (กำลังสีสูงสุดของร้านสีข้าว 20 เกวียน/วัน)","status":"ดำเนินกิจการ","lat":19.12074,"lon":99.85449},"20560000425453":{"id":"20560000425453","name":"-","owner":"นายไพฑูรย์ อินทรีย์สังวร","displayRegistration":"จ3-2(1)-4/45พย","province":"พะเยา","district":"ปง","subdistrict":"นาปรัง","industryType":"อบเมล็ดพืช","status":"ดำเนินกิจการ","lat":19.17605,"lon":100.28007},"20560000625466":{"id":"20560000625466","name":"โรงสี ส.เจริญกิจ","owner":"นายพรสัก แสงสีจันทร์","displayRegistration":"จ3-9(1)-6/46พย","province":"พะเยา","district":"เชียงคำ","subdistrict":"น้ำแวน","industryType":"สีข้าว กำลังสีสูงสุดของร้านสีข้าว 60 เกวียน/วัน","status":"ดำเนินกิจการ","lat":19.48863,"lon":100.2599},"20560000325455":{"id":"20560000325455","name":"ห้างหุ้นส่วนจำกัด อโกรโปรเกรส","owner":"ห้างหุ้นส่วนจำกัด อโกรโปรเกรส","displayRegistration":"จ3-2(1)-3/45พย","province":"พะเยา","district":"เมืองพะเยา","subdistrict":"ท่าวังทอง","industryType":"แปรรูปผลิตผลทางการเก๖ร เช่น การอบ ป่น บด หมัก ดอง และการทำอาหารสำเร็จรูปจากพืชหรือเมล็ดพืช","status":"ดำเนินกิจการ","lat":19.17699,"lon":99.92783},"20560002425345":{"id":"20560002425345","name":"บริษัท เชียงรายวัฒนาพร จำกัด","owner":"บริษัท เชียงรายวัฒนาพร จำกัด","displayRegistration":"จ2-2(3)-24/34พย","province":"พะเยา","district":"แม่ใจ","subdistrict":"ศรีถ้อย","industryType":"อัดใบยาสูบ","status":"ดำเนินกิจการ","lat":19.34873,"lon":99.80495},"20560300125456":{"id":"20560300125456","name":"อุตสาหกรรมอิฐดอนตัน","owner":"นายทอง รวมสุข","displayRegistration":"จ3-56-1/45พย","province":"พะเยา","district":"ภูซาง","subdistrict":"สบบง","industryType":"ทำอิฐดินเผา","status":"ดำเนินกิจการ","lat":19.55695,"lon":100.28666},"20560004325329":{"id":"20560004325329","name":"โรงสีข้าวพรหมวิหาร","owner":"นายจรูญ พรหมวิหาร","displayRegistration":"จ2-9(1)-43/32พย","province":"พะเยา","district":"ดอกคำใต้","subdistrict":"สว่างอารมณ์","industryType":"สีข้าว","status":"ดำเนินกิจการ","lat":19.14633,"lon":100.00632},"20560000325463":{"id":"20560000325463","name":"สมชายทรัพย์ทวี 2003","owner":"นายธัชวรรณ์ อ่อนคำ","displayRegistration":"จ3-9(1)-3/46พย","province":"พะเยา","district":"แม่ใจ","subdistrict":"ศรีถ้อย","industryType":"สีข้าว (กำลังสีสุงสุดของร้านสีข้าว 10 เกวียน/วัน)","status":"ดำเนินกิจการ","lat":19.35391,"lon":99.798},"20560003925475":{"id":"20560003925475","name":"บริษัท นิเพ็ญเกษตรไพศาล จำกัด","owner":"บริษัท นิเพ็ญเกษตรไพศาล จำกัด","displayRegistration":"จ3-2(1)-39/47พย","province":"พะเยา","district":"เชียงคำ","subdistrict":"น้ำแวน","industryType":"อบเมล็ดพืช และการเก็บรักษาเมล็ดพืชในไซโล โกดัง","status":"ดำเนินกิจการ","lat":19.47957,"lon":100.23624},"20560004125471":{"id":"20560004125471","name":"-","owner":"นายอภิชาติ ศรีศิริสิทธิกุล","displayRegistration":"จ3-2(1)-41/47พย","province":"พะเยา","district":"เชียงคำ","subdistrict":"เชียงบาน","industryType":"อบเมล็ดพืชและการเก็บรักษาเมล็ดพืชในไซโล โกดังหรือคลังสินค้า","status":"ดำเนินกิจการ","lat":19.52459,"lon":100.30059},"20560011625471":{"id":"20560011625471","name":"โรงสีสมพูนทรัพย์","owner":"นายสมคิด ศรีคำ","displayRegistration":"จ3-9(1)-116/47พย","province":"พะเยา","district":"เชียงคำ","subdistrict":"น้ำแวน","industryType":"สีข้าว","status":"ดำเนินกิจการ","lat":19.48132,"lon":100.20861},"20560011525473":{"id":"20560011525473","name":"บริษัท สองพี่น้องศิริทรัพย์ จำกัด (โรงงาน 1)","owner":"บริษัท สองพี่น้องศิริทรัพย์ จำกัด","displayRegistration":"จ3-9(1)-115/47พย","province":"พะเยา","district":"เชียงคำ","subdistrict":"น้ำแวน","industryType":"สีข้าว กำลังสีสูงสุด 165 เกวียน/วัน","status":"ดำเนินกิจการ","lat":19.48782,"lon":100.2679},"20560000625474":{"id":"20560000625474","name":"พะเยาไผ่ทอง","owner":"นางผ่องศรี นรเศรษฐกุล","displayRegistration":"จ2-35-6/47พย","province":"พะเยา","district":"เมืองพะเยา","subdistrict":"ท่าวังทอง","industryType":"ทำไม้จิ้มฟัน, ไม้ตะเกียบ, ไม้เสียบลูกชิ้น","status":"ดำเนินกิจการ","lat":19.18482,"lon":99.90429},"20560100325470":{"id":"20560100325470","name":"บริษัท อุตสาหกรรมไหมไทย จำกัด","owner":"บริษัท อุตสาหกรรมไหมไทย จำกัด","displayRegistration":"จ3-23(1)-3/47พย","province":"พะเยา","district":"เมืองพะเยา","subdistrict":"ท่าวังทอง","industryType":"ผลิตสิ้นค้าสำเร็จรูป เช่น ปลอกหมอน, กรอบรูป, กระเป๋า และที่ทำจากผ้าทุกชนิด","status":"ดำเนินกิจการ","lat":19.18449,"lon":99.92735},"20560004725486":{"id":"20560004725486","name":"โรงงาน ใส ซอย พะเยาใจสิน","owner":"นางไพรัตน์ ตันคำ","displayRegistration":"จ3-34(1)-47/48พย","province":"พะเยา","district":"เมืองพะเยา","subdistrict":"แม่ปืม","industryType":"โรงงานแปรรูปไม้เพื่อประดิษฐกรรม ไส ซอย เซาะร่อง รางลิ่ม ผลิตบาน วงกบ","status":"ดำเนินกิจการ","lat":19.25477,"lon":99.85707},"20560001725489":{"id":"20560001725489","name":"โรงน้ำแข็ง น้ำดื่ม โนะมุระ","owner":"นายปรีชา บรมฤทธิ์","displayRegistration":"จ3-14-17/48พย","province":"พะเยา","district":"เชียงคำ","subdistrict":"น้ำแวน","industryType":"ทำน้ำแข็งก้อนเล็ก กำลังการผลิต 50 ตันต่อวัน และน้ำแข็งซอง","status":"ดำเนินกิจการ","lat":19.4756,"lon":100.21283},"20560000325471":{"id":"20560000325471","name":"บริษัท พะเยาอะโกรเท็ค จำกัด","owner":"บริษัท พะเยาอะโกรเท็ค จำกัด","displayRegistration":"จ3-15(1)-3/47พย","province":"พะเยา","district":"เมืองพะเยา","subdistrict":"แม่ต๋ำ","industryType":"ทำอาหารสำเร็จรูปสำหรับเลี้ยงสัตว์/ป่น-บด พืช กากพืช เมล็ดพืช เนื้อสัตว์ กระดูกสัตว์ ขนสัตว์หรือเปลือกหอย","status":"ดำเนินกิจการ","lat":19.15375,"lon":99.91421},"10560001525485":{"id":"10560001525485","name":"บริษัท เจ.เค.ธนาธาร จำกัด","owner":"บริษัท เจ.เค.ธนาธาร จำกัด","displayRegistration":"3-2(1)-15/48พย","province":"พะเยา","district":"เชียงคำ","subdistrict":"เชียงบาน","industryType":"อบลำใย ข้าวโพด ฯลฯ และการเก็บรักษาหรือลำเลียงพืช เมล็ดพืช หรือผลิตผลจากพืช ในไซโล โกดังหรือคลังสินค้า","status":"ดำเนินกิจการ","lat":19.47864,"lon":100.27501},"20560000125426":{"id":"20560000125426","name":"สถานีบ่มใบยาดอนไชย-ป่าแขม","owner":"บริษัท เทพวงศ์ จำกัด","displayRegistration":"จ3-1-1/42พย","province":"พะเยา","district":"ปง","subdistrict":"ออย","industryType":"บ่มใบยาสูบ","status":"ดำเนินกิจการ","lat":19.22795,"lon":100.35672},"20560000925486":{"id":"20560000925486","name":"พฤกษาเงิน","owner":"บริษัท พฤกษาเงิน จำกัด","displayRegistration":"จ3-1-9/48พย","province":"พะเยา","district":"เชียงม่วน","subdistrict":"สระ","industryType":"บ่มใบยาสูบ","status":"ดำเนินกิจการ","lat":18.93369,"lon":100.26023},"20560009225482":{"id":"20560009225482","name":"บริษัท ศิริกาญจนาไรซ์มิลล์ จำกัด","owner":"บริษัท ศิริกาญจนาไรซ์มิลล์ จำกัด","displayRegistration":"จ3-9(1)-92/48พย","province":"พะเยา","district":"จุน","subdistrict":"ทุ่งรวงทอง","industryType":"สีข้าว (กำลังสีสูงสุดของร้านสีข้าวรวมเป็น 500 เกวียน/วัน) และอบเมล็ดพืช","status":"ดำเนินกิจการ","lat":19.43624,"lon":100.1877},"20560000725498":{"id":"20560000725498","name":"โรงสีเพียร","owner":"นายเพียร หอมนาน","displayRegistration":"จ3-9(1)-7/49พย","province":"พะเยา","district":"เชียงคำ","subdistrict":"เชียงบาน","industryType":"สีข้าว (กำลังสีสูงสุดของร้านสีข้าว 60 เกวียน/วัน)","status":"ดำเนินกิจการ","lat":19.51501,"lon":100.27866},"20560000725480":{"id":"20560000725480","name":"สถานีบ่มใบยาเกษตรสมบูรณ์","owner":"นายนิวัฒน์ พ่วงภิญโญ","displayRegistration":"จ3-1-7/48พย","province":"พะเยา","district":"เชียงคำ","subdistrict":"ร่มเย็น","industryType":"บ่มใบยาสูบ","status":"หยุดชั่วคราว","lat":19.50558,"lon":100.36941},"10560008725484":{"id":"10560008725484","name":"ห้างหุ้นส่วนจำกัด โรงสีข้าวพะเยารุ่งเรือง","owner":"ห้างหุ้นส่วนจำกัด โรงสีข้าวพะเยารุ่งเรือง","displayRegistration":"3-9(1)-87/48พย","province":"พะเยา","district":"ดอกคำใต้","subdistrict":"ห้วยลาน","industryType":"สีข้าวและอบพืชหรือเมล็ดพืช กำลังสีสูงสุดของร้านสีข้าว 620 เกวียน/วัน","status":"ดำเนินกิจการ","lat":19.32794,"lon":100.04231},"20560100925485":{"id":"20560100925485","name":"บริษัท สองพี่น้องศิริทรัพย์ จำกัด","owner":"บริษัท สองพี่น้องศิริทรัพย์ จำกัด","displayRegistration":"จ3-9(1)-9/48พย","province":"พะเยา","district":"เชียงคำ","subdistrict":"น้ำแวน","industryType":"สีข้าว(กำลังสีสูงสุดของร้านสีข้าว 90 เกวียน/วัน)","status":"ดำเนินกิจการ","lat":19.48809,"lon":100.2679},"20560002325503":{"id":"20560002325503","name":"โรงอิฐวิชัย","owner":"นายวิชัย ปัญญาวงค์","displayRegistration":"จ3-56-23/50พย","province":"พะเยา","district":"เมืองพะเยา","subdistrict":"แม่ใส","industryType":"ทำอิฐ","status":"ดำเนินกิจการ","lat":19.11873,"lon":99.87509},"20560000225507":{"id":"20560000225507","name":"สถานีบ่มใบยาสูบท่าฟ้า","owner":"ห้างหุ้นส่วนจำกัด ท่าฟ้า-เชียงม่วน","displayRegistration":"จ3-1-2/50พย","province":"พะเยา","district":"เชียงม่วน","subdistrict":"สระ","industryType":"บ่มใบยาสูบ","status":"ดำเนินกิจการ","lat":19.00567,"lon":100.28105},"20560001925501":{"id":"20560001925501","name":"อำนวยอิฐโชว์","owner":"นายอนิวัฒน์ ดวงแก้ว","displayRegistration":"จ3-56-19/50พย","province":"พะเยา","district":"เมืองพะเยา","subdistrict":"แม่ใส","industryType":"ทำอิฐ","status":"ดำเนินกิจการ","lat":19.12793,"lon":99.873},"20560004225503":{"id":"20560004225503","name":"จิรภาสพืชผลพาณิชย์","owner":"นายจิรภาส เลิศฤทธิ์ปัญญากุล","displayRegistration":"จ3-2(1)-42/50พย","province":"พะเยา","district":"ปง","subdistrict":"นาปรัง","industryType":"อบเมล็ดพืช และการเก็บรักษาหรือลำเลียงพืช เมล็ดพืชหรือผลิตผลจากพืช ในไซโล โกดัง หรือคลังสินค้า","status":"ดำเนินกิจการ","lat":19.21157,"lon":100.26758},"20560001425502":{"id":"20560001425502","name":"โรงสีข้าวเวียงทอง","owner":"นายจรัล แสงศรีจันทร์","displayRegistration":"จ3-9(1)-14/50พย","province":"พะเยา","district":"เชียงคำ","subdistrict":"น้ำแวน","industryType":"สีข้าว(กำลังสีสูงสุดของร้านสัข้าว 24 เกวียน / วัน)","status":"ดำเนินกิจการ","lat":19.4878,"lon":100.25769},"20560002625498":{"id":"20560002625498","name":"บริษัท โรงสีข้าวโชคอุดม ดอกคำใต้ จำกัด","owner":"บริษัท โรงสีข้าวโชคอุดม ดอกคำใต้ จำกัด","displayRegistration":"จ3-9(1)-26/49พย","province":"พะเยา","district":"ดอกคำใต้","subdistrict":"บุญเกิด","industryType":"สีข้าว (กำลังสีสูงสุดของร้านสีข้าว 35-43 เกวียน/วัน)","status":"ดำเนินกิจการ","lat":19.13085,"lon":100.03153},"20560003725495":{"id":"20560003725495","name":"สหกรณ์การเกษตรบ้านร่องส้าน จำกัด","owner":"สหกรณ์การเกษตรบ้านร่องส้าน จำกัด","displayRegistration":"จ3-2(1)-37/49พย","province":"พะเยา","district":"เชียงคำ","subdistrict":"ร่มเย็น","industryType":"อบเมล็ดพืช และเก็บรักษาในไซโล โกดัง หรือฉาง","status":"ดำเนินกิจการ","lat":19.55775,"lon":100.36424},"20560004125497":{"id":"20560004125497","name":"นวัตกรณ์การเกษตรปง","owner":"นายนวัตกรณ์ คงสถาน","displayRegistration":"จ3-2(1)-41/49พย","province":"พะเยา","district":"ปง","subdistrict":"ควร","industryType":"การอบพืช หรือเมล็ดพืช และการเก็บรักษา หรือลำเลียงพืช เมล็ดพืช ไว้ในไซโลโกดัง หรือคลังสินค้า","status":"ดำเนินกิจการ","lat":19.1663,"lon":100.32789},"20560006425499":{"id":"20560006425499","name":"โรงสีข้าวทุ่งรวงทอง","owner":"ห้างหุ้นส่วนจำกัด กิตติยะ เอ็นเตอร์ไพร์ส","displayRegistration":"จ3-9(1)-64/49พย","province":"พะเยา","district":"จุน","subdistrict":"ทุ่งรวงทอง","industryType":"สีข้าว (กำลังสีสูงสุดของร้านสีข้าว 165 เกวียน/วัน)","status":"ดำเนินกิจการ","lat":19.45,"lon":100.14291},"20560005425490":{"id":"20560005425490","name":"โรงสีสุวิทย์","owner":"นายสุวิทย์ แสงศรีจันทร์","displayRegistration":"จ3-9(1)-54/49พย","province":"พะเยา","district":"เชียงคำ","subdistrict":"น้ำแวน","industryType":"สีข้าว (กำลังสีสูงสุดของร้านสีข้าว 66 เกวียน/วัน)","status":"ดำเนินกิจการ","lat":19.48665,"lon":100.25399},"20560000625508":{"id":"20560000625508","name":"โรงสี ป.เจริญกิจ","owner":"นางวุ่น อ่อนคำ","displayRegistration":"จ3-9(1)-6/50พย","province":"พะเยา","district":"แม่ใจ","subdistrict":"ศรีถ้อย","industryType":"สีข้าว (กำลังสีสูงสุดของร้านสีข้าว 42 เกวียน/วัน)","status":"ดำเนินกิจการ","lat":19.35424,"lon":99.79224},"20560004125547":{"id":"20560004125547","name":"กันนิกาพืชผล","owner":"นางนุช กันนิกา","displayRegistration":"จ3-2(1)-41/54พย","province":"พะเยา","district":"เชียงคำ","subdistrict":"ฝายกวาง","industryType":"อบพืชหรือเมล็ดพืช และเก็บรักษาหรือลำเลียงพืชหรือเมล็ดพืช ในไซโล โกดัง หรือคลังสินค้า","status":"ดำเนินกิจการ","lat":19.4770450555428,"lon":100.308693561824},"20560002325545":{"id":"20560002325545","name":"โรงอบพืชไร่ทุ่งเจริญ","owner":"นายบดินทร์ บัตติยา","displayRegistration":"จ3-2(1)-23/54พย","province":"พะเยา","district":"เชียงม่วน","subdistrict":"บ้านมาง","industryType":"การอบพืชหรือเมล็ดพืช การเก็บรักษาหรือลำเลียงพืช เมล็ดพืช ผลจากพืช ในไซโลโกดังหรือคลังสินค้า","status":"ดำเนินกิจการ","lat":18.90573,"lon":100.27956},"20560007825523":{"id":"20560007825523","name":"โรงสีรัตนาภรณ์ อ.ปง","owner":"ห้างหุ้นส่วนจำกัด รัตนาภรณ์ 108","displayRegistration":"จ3-9(1)-78/52พย","province":"พะเยา","district":"ปง","subdistrict":"ควร","industryType":"สีข้าว กำลังการผลิตสูงสุดรวมเป็น 174 ตัน/วัน","status":"ดำเนินกิจการ","lat":19.16723,"lon":100.3092},"20560001825511":{"id":"20560001825511","name":"บ่อทองพืชไร่","owner":"นายก้องเกียรติ อินทรีย์สังวร","displayRegistration":"จ3-2(1)-18/51พย","province":"พะเยา","district":"เชียงม่วน","subdistrict":"บ้านมาง","industryType":"อบพืชและเมล็ดพืช และการเก็บรักษาหรือลำเลียงพืช เมล็ดพืชหรือผลิตผลจากพืช ในไซโลโกดังหรือคลังสินค้า","status":"ดำเนินกิจการ","lat":18.93124,"lon":100.26709},"20560007725525":{"id":"20560007725525","name":"ห้างหุ้นส่วนจำกัดเพิ่มพูลเจริญทรัพย์","owner":"ห้างหุ้นส่วนจำกัดเพิ่มพูลเจริญทรัพย์","displayRegistration":"จ3-43(1)-77/52พย","province":"พะเยา","district":"ภูซาง","subdistrict":"ทุ่งกล้วย","industryType":"การทำปุ๋ย หรือสารป้องกันหรือกำจัดศัตรูพืชหรือสัตว์ แบ่งบรรจุผสมเก็บรักษาปุ๋ยเคมีและแบ่งบรรจุผสมเก็บรักษาสารป้องกันและกำจัดวัชพืชหรือสัตว์","status":"ดำเนินกิจการ","lat":19.619604,"lon":100.381073},"20560006225527":{"id":"20560006225527","name":"โรงสีทุ่งเจริญ","owner":"นายบดินทร์ บัตติยา","displayRegistration":"จ3-9(1)-62/52พย","province":"พะเยา","district":"เชียงม่วน","subdistrict":"บ้านมาง","industryType":"สีข้าวชนิดมาตรฐาน","status":"ดำเนินกิจการ","lat":18.90573,"lon":100.27956},"20560001625556":{"id":"20560001625556","name":"สหกรณ์การเกษตรเมืองพะเยา จำกัด","owner":"สหกรณ์การเกษตรเมืองพะเยา จำกัด","displayRegistration":"จ3-9(1)-16/55พย","province":"พะเยา","district":"เมืองพะเยา","subdistrict":"ท่าจำปี","industryType":"สีข้าว กำลังการสี 40 เกวียนต่อวัน และการอบเมล็ดพืช การเก็บรักษาเมล็ดพืชในไซโล โกดังหรือฉาง และการแยกคัดขนาด-คุณภาพผลิตผลอุตสาหกรรม","status":"ดำเนินกิจการ","lat":19.22567,"lon":99.8312},"20560002725553":{"id":"20560002725553","name":"บริษัท สองพี่น้องศิริทรัพย์ จำกัด (โรงงาน 3)","owner":"บริษัท สองพี่น้องศิริทรัพย์ จำกัด","displayRegistration":"จ3-2(1)-27/55พย","province":"พะเยา","district":"เชียงคำ","subdistrict":"น้ำแวน","industryType":"อบพืช เมล็ดพืช และเก็บรักษาพืช เมล็ดพืช ในไซโล โกดังหรือคลังสินค้า","status":"ดำเนินกิจการ","lat":19.48809,"lon":100.2679},"20560103625561":{"id":"20560103625561","name":"โรงงานผลิตปุ๋ยอินทรีย์จังหวัดพะเยาร่วมกับองค์การบริหารส่วนจังหวัดพะเยา","owner":"องค์การบริหารส่วนจังหวัดพะเยา","displayRegistration":"จ3-43(1)-36/56พย","province":"พะเยา","district":"เมืองพะเยา","subdistrict":"แม่ใส","industryType":"ผลิตปุ๋ยอินทรีย์เม็ด","status":"ดำเนินกิจการ","lat":19.139875,"lon":99.879694},"20560001025500":{"id":"20560001025500","name":"NULL","owner":"นางวัชรี สุวรรณเพชร","displayRegistration":"จ3-56-10/50พย","province":"พะเยา","district":"เมืองพะเยา","subdistrict":"แม่ใส","industryType":"ทำอิฐ","status":"ดำเนินกิจการ","lat":19.13138,"lon":99.88197},"20560180625625":{"id":"20560180625625","name":"ห้างหุ้นส่วนจำกัด ซี.เค.บี.คอนกรีต","owner":"ห้างหุ้นส่วนจำกัด ซี.เค.บี.คอนกรีต","displayRegistration":"จ3-58(1)-105/62พย","province":"พะเยา","district":"เชียงคำ","subdistrict":"หย่วน","industryType":"การทำผลิตภัณฑ์คอนกรีต เช่น คอนกรีตผสมเสร็ต คอนกรีตบล็อค แผ่นพื้น","status":"ดำเนินกิจการ","lat":19.515668,"lon":100.296805},"20560026025634":{"id":"20560026025634","name":"ห้างหุ้นส่วนจำกัด ธนะชัย แอสโซซิเอท","owner":"ห้างหุ้นส่วนจำกัด ธนะชัย แอสโซซิเอท","displayRegistration":"จ3-50(4)-10/63พย","province":"พะเยา","district":"เมืองพะเยา","subdistrict":"แม่นาเรือ","industryType":"ผลิตแอสฟัลท์ติกคอนกรีต","status":"ดำเนินกิจการ","lat":19.0822916,"lon":99.8763643},"60560064825656":{"id":"60560064825656","name":"โรงงานเคพีเอ็ม คอนกรีต","owner":"ห้างหุ้นส่วนจำกัด เคพีเอ็ม คอนกรีต","displayRegistration":"อ2-58(1)-10/65พย","province":"พะเยา","district":"จุน","subdistrict":"จุน","industryType":"ผลิตท่อคอนกรีตอัดแรง","status":"ดำเนินกิจการ","lat":19.319249,"lon":100.159394},"10560001125500":{"id":"10560001125500","name":"บริษัท แม่ใจธนะโชติวัฒน์ จำกัด","owner":"บริษัท แม่ใจธนะโชติวัฒน์ จำกัด","displayRegistration":"3-9(1)-11/50พย","province":"พะเยา","district":"แม่ใจ","subdistrict":"ศรีถ้อย","industryType":"สีข้าว (กำลังสีสูงสุดของร้านสีข้าว 600 เกวียน/วัน) อบพืช/เมล็ดพืช และการเก็บ รักษาหรือลำเลียงพืช/เมล็ดพืชในไซโล โกดังหรือคลังสินค้า","status":"ดำเนินกิจการ","lat":19.36272,"lon":99.7957},"20560000125376":{"id":"20560000125376","name":"บริษัท สันติภาพ (ฮั่วเพ้ง 1958) จำกัด","owner":"บริษัท สันติภาพ (ฮั่วเพ้ง 1958) จำกัด","displayRegistration":"จ3-8(2)-1/37พย","province":"พะเยา","district":"จุน","subdistrict":"ลอ","industryType":"ทำผักดอง","status":"ดำเนินกิจการ","lat":19.4293,"lon":100.08108},"20560000825512":{"id":"20560000825512","name":"โรงอิฐมนตรี","owner":"นายมนตรี เมืองมา","displayRegistration":"จ3-56-8/51พย","province":"พะเยา","district":"เมืองพะเยา","subdistrict":"แม่ใส","industryType":"ทำอิฐ","status":"ดำเนินกิจการ","lat":19.13719,"lon":99.87065},"20560000225382":{"id":"20560000225382","name":"บริษัท เอสแอนด์วายคอนกรีตแพล้นท์ จำกัด","owner":"บริษัท เอสแอนด์วายคอนกรีตแพล้นท์ จำกัด","displayRegistration":"จ3-58(1)-2/38พย","province":"พะเยา","district":"เมืองพะเยา","subdistrict":"แม่กา","industryType":"ทำผลิตภัณฑ์คอนกรีต เช่น คอนกรีตผสมเสร็จ,แผ่นพื้นคอนกรีตอัด  แรงสำเร็จรูป เสาไฟฟ้า และท่อระบายน้ำ","status":"ดำเนินกิจการ","lat":19.09712,"lon":99.91172},"20560100225407":{"id":"20560100225407","name":"ศูนย์บริการโตโยต้าพะเยา","owner":"บริษัท โตโยต้าพะเยา(1994)ผู้จำหน่ายโตโยต้า จำกัด","displayRegistration":"จ3-95(1)-2/40พย","province":"พะเยา","district":"เมืองพะเยา","subdistrict":"แม่ต๋ำ","industryType":"ซ่อมรถยนต์","status":"ดำเนินกิจการ","lat":19.14527,"lon":99.91181},"20560009925495":{"id":"20560009925495","name":"ห้างหุ้นส่วนจำกัด อู่เศวตยนต์ พะเยา สาขา 1","owner":"ห้างหุ้นส่วนจำกัด อู่เศวตยนต์ พะเยา สาขา 1","displayRegistration":"จ3-95(1)-99/49พย","province":"พะเยา","district":"เมืองพะเยา","subdistrict":"เวียง","industryType":"เคาะ พ่นสี รถยนต์","status":"ดำเนินกิจการ","lat":19.16953,"lon":99.90804},"00560000225352":{"id":"00560000225352","name":"บริษัท สหไทยพืชผล จำกัด","owner":"บริษัท สหไทยพืชผล จำกัด","displayRegistration":"ศ3-8(2)-2/35พย","province":"พะเยา","district":"เมืองพะเยา","subdistrict":"แม่ปืม","industryType":"ทำขิงดองและขิงสด","status":"ดำเนินกิจการ","lat":19.31165,"lon":99.84989}}