{"40190000925561":{"id":"40190000925561","name":"บริษัท อินฟินิท กรีน จำกัด","owner":"บริษัท อินฟินิท กรีน จำกัด","displayRegistration":"3-88(1)-9/56สบ","province":"สระบุรี","district":"แก่งคอย","subdistrict":"ชำผักแพว","industryType":"โรงงานผลิตไฟฟ้าจากพลังงานแสงอาทิตย์ 1.68 เมกะวัตต์","status":"ดำเนินกิจการ","lat":14.5560378060072,"lon":101.0759851652},"20190500125419":{"id":"20190500125419","name":"บริษัท เบทเทอร์แฮนดลิ้ง จำกัด","owner":"บริษัท เบทเทอร์แฮนดลิ้ง จำกัด","displayRegistration":"จ3-100(4)-1/41สบ","province":"สระบุรี","district":"วิหารแดง","subdistrict":"บ้านลำ","industryType":"ตัดและขัดขอบกระจก งานโครงสร้าง และลังบรรจุภัณฑ์จากเหล็ก","status":"ดำเนินกิจการ","lat":14.36697,"lon":100.96963},"10190000425386":{"id":"10190000425386","name":"บริษัท ปูนซิเมนต์ไทย (แก่งคอย) จำกัด","owner":"บริษัท ปูนซิเมนต์ไทย (แก่งคอย) จำกัด","displayRegistration":"3-3(1)-4/38สบ","province":"สระบุรี","district":"แก่งคอย","subdistrict":"บ้านป่า","industryType":"คัดขนาดหินปูนเพื่อนำไปใช้ในการผลิตปูนซิเมนต์และหินก่อสร้าง","status":"ดำเนินกิจการ","lat":14.64004,"lon":101.03181},"20190500125377":{"id":"20190500125377","name":"ห้างหุ้นส่วนจำกัด ส.อภิชาติพาณิชย์","owner":"ห้างหุ้นส่วนจำกัด ส.อภิชาติพาณิชย์","displayRegistration":"จ3-64(11)-1/37สบ","province":"สระบุรี","district":"หนองแค","subdistrict":"ห้วยทราย","industryType":"อัดเศษเหล็กเป็นแท่งและเศษกระดาษ","status":"ดำเนินกิจการ","lat":14.43688,"lon":100.89681},"20190600125384":{"id":"20190600125384","name":"ห้างหุ้นส่วนจำกัด สมบูรณ์การช่าง 2 มั่นคง","owner":"ห้างหุ้นส่วนจำกัด สมบูรณ์การช่าง 2 มั่นคง","displayRegistration":"จ3-77(2)-1/38สบ","province":"สระบุรี","district":"พระพุทธบาท","subdistrict":"พระพุทธบาท","industryType":"ทำโครงหลังคารถยนต์,ทำท่อไอเสียรถยนต์","status":"ดำเนินกิจการ","lat":14.73067,"lon":100.7858},"20190400125386":{"id":"20190400125386","name":"บริษัท พีค ยูเนี่ยน จำกัด","owner":"บริษัท พีค ยูเนี่ยน จำกัด","displayRegistration":"จ3-60-1/38สบ","province":"สระบุรี","district":"พระพุทธบาท","subdistrict":"ธารเกษม","industryType":"ถลุงแร่พลวง","status":"ดำเนินกิจการ","lat":14.76283,"lon":100.79025},"10190100225389":{"id":"10190100225389","name":"บริษัท ปูนซิเมนต์ไทย(แก่งคอย) จำกัด (โรงงานมอร์ตาร์แก่งคอย)","owner":"บริษัท ปูนซิเมนต์ไทย(แก่งคอย) จำกัด","displayRegistration":"3-58(1)-2/38สบ","province":"สระบุรี","district":"แก่งคอย","subdistrict":"บ้านป่า","industryType":"ผลิตภัณฑ์ปูนฉาบ, ปูนก่อ,ปูนเทพื้นปรับระดับ,ปูนฉาบแต่งผิว, การผสมซีเมนต์ปูนขาว, ปูนปลาสเตอร์เข้ากับวัสดุอื่น เพื่อเพิ่มปูนสำเร็จพร้อมใช้สำหรับงานฉาบ, งานก่อและตกแต่งผิว","status":"ดำเนินกิจการ","lat":14.6434,"lon":101.03305},"10190000825387":{"id":"10190000825387","name":"บริษัท พรพิศศิลา จำกัด","owner":"บริษัท พรพิศศิลา จำกัด","displayRegistration":"3-3(1)-8/38สบ","province":"สระบุรี","district":"เฉลิมพระเกียรติ","subdistrict":"หน้าพระลาน","industryType":"โม่ บด ย่อยหิน ได้ปีละ 100000 ลูกบาศก์เมตร","status":"ดำเนินกิจการ","lat":14.68311,"lon":100.85878},"20190200225386":{"id":"20190200225386","name":"บริษัท นครหลวงวัสดุภัณฑ์ จำกัด","owner":"บริษัท นครหลวงวัสดุภัณฑ์ จำกัด","displayRegistration":"จ3-58(1)-2/38สบ","province":"สระบุรี","district":"เฉลิมพระเกียรติ","subdistrict":"พุแค","industryType":"ผลิตเสาเข็มคอนกรีตอัดแรง,คานคอนกรีตอัดแรง,คอนกรีตผสมเสร็จ","status":"ดำเนินกิจการ","lat":14.62374,"lon":100.89537},"10190000625381":{"id":"10190000625381","name":"บริษัท น่ำเฮงศิลา จำกัด","owner":"บริษัท น่ำเฮงศิลา จำกัด","displayRegistration":"3-3(1)-6/38สบ","province":"สระบุรี","district":"พระพุทธบาท","subdistrict":"ธารเกษม","industryType":"ย่อยหิน กำลังการผลิต 3,220,000 ตัน/ปี","status":"ดำเนินกิจการ","lat":14.75227,"lon":100.88972},"10190000525391":{"id":"10190000525391","name":"ห้างหุ้นส่วนจำกัด จงชนะคอนสตรัคชั่น","owner":"ห้างหุ้นส่วนจำกัด จงชนะคอนสตรัคชั่น","displayRegistration":"3-3(1)-5/39สบ","province":"สระบุรี","district":"เฉลิมพระเกียรติ","subdistrict":"หน้าพระลาน","industryType":"โม่ บด หรือย่อยหิน","status":"ดำเนินกิจการ","lat":14.6864107,"lon":100.8631876},"10190000125390":{"id":"10190000125390","name":"บริษัท ศิลาชัยเจริญ จำกัด","owner":"บริษัท ศิลาชัยเจริญ จำกัด","displayRegistration":"3-3(1)-1/39สบ","province":"สระบุรี","district":"เฉลิมพระเกียรติ","subdistrict":"หน้าพระลาน","industryType":"โม่ บด ย่อยหิน ได้ปีละ 400,000 ตัน","status":"ดำเนินกิจการ","lat":14.711684,"lon":100.8928805},"10190000725389":{"id":"10190000725389","name":"บริษัท สานนท์ จำกัด","owner":"บริษัท สานนท์ จำกัด","displayRegistration":"3-3(1)-7/38สบ","province":"สระบุรี","district":"เฉลิมพระเกียรติ","subdistrict":"หน้าพระลาน","industryType":"โม่ บด ย่อยหิน กำลังการผลิต 1,500,000 ตัน/ปี","status":"ดำเนินกิจการ","lat":14.70777,"lon":100.85389},"10190400125396":{"id":"10190400125396","name":"บริษัท จรัญธุรกิจ 52 จำกัด","owner":"บริษัท จรัญธุรกิจ 52 จำกัด","displayRegistration":"3-58(1)-1/39สบ","province":"สระบุรี","district":"เฉลิมพระเกียรติ","subdistrict":"เขาดินพัฒนา","industryType":"การทำแผ่นคอนกรีตปูพื้น (ปริมาณการผลิต 587,000 ตารางเมตรต่อปี","status":"ดำเนินกิจการ","lat":14.616431,"lon":100.89908},"20190400125394":{"id":"20190400125394","name":"บริษัท สยาม สตีล มิลล์ เซอร์วิสเซส จำกัด","owner":"บริษัท สยาม สตีล มิลล์ เซอร์วิสเซส จำกัด","displayRegistration":"จ3-59-1/39สบ","province":"สระบุรี","district":"บ้านหมอ","subdistrict":"บางโขมด","industryType":"นำตระกรันที่เกิดจากการหล่อหลอมเหล็กมาผ่านกระบวนการทางอุตสาหกรรม โดยวิธีการบด ร่อน แยก เพื่อผลิตเป็นวัตถุดิบ นำกลับไปใช้ประโยชน์ใหม่","status":"ดำเนินกิจการ","lat":14.59039,"lon":100.73776},"20190100325393":{"id":"20190100325393","name":"บริษัท สามัคคีผลิตภัณฑ์คอนกรีต จำกัด","owner":"บริษัท สามัคคีผลิตภัณฑ์คอนกรีต จำกัด","displayRegistration":"จ3-58(1)-3/39สบ","province":"สระบุรี","district":"พระพุทธบาท","subdistrict":"ห้วยป่าหวาย","industryType":"ผลิตเสาเข็ม เสาไฟฟ้า คาน แผ่นพื้นอัดแรง ท่อคอนกรีตและผลิตภัณฑ์คอนกรีตอื่น ๆ","status":"ดำเนินกิจการ","lat":14.6421,"lon":100.80256},"10190100125399":{"id":"10190100125399","name":"บริษัท เอสซีจี เซรามิกส์ จำกัด (มหาชน)","owner":"บริษัท เอสซีจี เซรามิกส์ จำกัด (มหาชน)","displayRegistration":"3-55-1/39สบ","province":"สระบุรี","district":"หนองแค","subdistrict":"หนองปลิง","industryType":"ผลิตกระเบื้องปูพื้นและฝาผนังเซรามิค (กระเบื้องปูพื้นปีละ  4,725,000 ตารางเมตร และฝาผนัง ปีละ 1,575,000 ตารางเมตร","status":"ดำเนินกิจการ","lat":14.35262,"lon":100.81565},"20190200125396":{"id":"20190200125396","name":"บริษัท ธรรมสรณ์ จำกัด","owner":"บริษัท ธรรมสรณ์ จำกัด","displayRegistration":"จ3-53(5)-1/39สบ","province":"สระบุรี","district":"หนองแค","subdistrict":"หนองปลาหมอ","industryType":"ผลิตถังพลาสติกเสริมใยแก้วและเชื่อมโลหะทั่วไป","status":"ดำเนินกิจการ","lat":14.3806,"lon":100.85505},"20190100125355":{"id":"20190100125355","name":"บริษัท วีณาการ์เมนต์ จำกัด","owner":"บริษัท วีณาการ์เมนต์ จำกัด","displayRegistration":"จ3-28(1)-1/35สบ","province":"สระบุรี","district":"วิหารแดง","subdistrict":"วิหารแดง","industryType":"ตัดเย็บเสื้อผ้าสำเร็จรูปและเคลือบเงาวัตถุ เช่น พลาสติก กระดาษ ผ้า","status":"ดำเนินกิจการ","lat":14.3287,"lon":101.00505},"10190000325396":{"id":"10190000325396","name":"บริษัท พี เอส ที คอนกรีต จำกัด","owner":"บริษัท พี เอส ที คอนกรีต จำกัด","displayRegistration":"3-58(1)-3/39สบ","province":"สระบุรี","district":"เสาไห้","subdistrict":"บ้านยาง","industryType":"ผลิตภัณฑ์คอนกรีตอัดแรง เช่น เสาไฟฟ้า เสาเข็ม แผ่นพื้นสำเร็จ รูป","status":"ดำเนินกิจการ","lat":14.58385,"lon":100.81904},"20190400125352":{"id":"20190400125352","name":"ห้างหุ้นส่วนจำกัด อู่กิมการช่าง","owner":"ห้างหุ้นส่วนจำกัด อู่กิมการช่าง","displayRegistration":"จ3-95(1)-1/35สบ","province":"สระบุรี","district":"หนองแค","subdistrict":"ห้วยขมิ้น","industryType":"ซ่อมต่อตัวถังและเคาะพ่นสีรถยนต์","status":"ดำเนินกิจการ","lat":14.39044,"lon":100.88726},"20190300125395":{"id":"20190300125395","name":"ห้างหุ้นส่วนจำกัด ยุทธวัฒน์การช่าง","owner":"ห้างหุ้นส่วนจำกัด ยุทธวัฒน์การช่าง","displayRegistration":"จ3-58(1)-1/39สบ","province":"สระบุรี","district":"แก่งคอย","subdistrict":"แก่งคอย","industryType":"ผลิตคอนกรีตบล๊อค","status":"ดำเนินกิจการ","lat":14.5761,"lon":100.99591},"10190000225398":{"id":"10190000225398","name":"บริษัท ทีพีไอ โพลีน จำกัด (มหาชน)","owner":"บริษัท ทีพีไอ โพลีน จำกัด (มหาชน)","displayRegistration":"3-57(3)-2/39สบ","province":"สระบุรี","district":"มวกเหล็ก","subdistrict":"มิตรภาพ","industryType":"ผลิตปูนฉาบและปูนก่อ","status":"ดำเนินกิจการ","lat":14.63973,"lon":101.1325},"20190000225396":{"id":"20190000225396","name":"บริษัท พี.วี.เอ็กซโพลซิป (ไทยแลนด์) จำกัด","owner":"บริษัท พี.วี.เอ็กซโพลซิป (ไทยแลนด์) จำกัด","displayRegistration":"จ3-48(4)-2/39สบ","province":"สระบุรี","district":"พระพุทธบาท","subdistrict":"พุคำจาน","industryType":"ผลิตเชื้อประทุ เชื้อประทุไฟฟ้า เชื้อประทุไฟฟ้าหน่วงเวลา และผลิตสารประกอบของวัตถุระเบิด (AMMONIUM NITRATE EMULSION)","status":"ดำเนินกิจการ","lat":14.77968,"lon":100.85076},"20190600125392":{"id":"20190600125392","name":"พรเจริญ","owner":"นายสมคิด จำปาทอง","displayRegistration":"จ3-66-1/39สบ","province":"สระบุรี","district":"พระพุทธบาท","subdistrict":"ธารเกษม","industryType":"ซ่อมอุปกรณ์เพื่อใช้ในการเกษตร","status":"ดำเนินกิจการ","lat":14.73333,"lon":100.79761},"20190000125398":{"id":"20190000125398","name":"บริษัท อัสพรรณ เอ็กซ์โพลซีฟ จำกัด","owner":"บริษัท อัสพรรณ เอ็กซ์โพลซีพ จำกัด","displayRegistration":"จ3-48(4)-1/39สบ","province":"สระบุรี","district":"แก่งคอย","subdistrict":"ห้วยแห้ง","industryType":"ผลิตดินระเบิดและชนวนระเบิด","status":"ดำเนินกิจการ","lat":14.46902,"lon":100.98995},"20190700125391":{"id":"20190700125391","name":"พรวิโรจน์","owner":"ห้างหุ้นส่วนจำกัด พรวิโรจน์","displayRegistration":"จ3-67(8)-1/39สบ","province":"สระบุรี","district":"บ้านหมอ","subdistrict":"บ้านครัว","industryType":"ซ่อมอุปกรณ์สำหรับเครื่องจักร","status":"ดำเนินกิจการ","lat":14.59845,"lon":100.76991},"10190200125398":{"id":"10190200125398","name":"โรงงานสยามผลิตภัณฑ์ปูนขาว","owner":"บริษัท สยามผลิตภัณฑ์ปูนขาว จำกัด","displayRegistration":"3-57(1)-1/39สบ","province":"สระบุรี","district":"พระพุทธบาท","subdistrict":"ห้วยป่าหวาย","industryType":"ผลิตปูนขาว","status":"ดำเนินกิจการ","lat":14.646692,"lon":100.801894},"10190200225396":{"id":"10190200225396","name":"บริษัท สยามลวดเหล็กอุตสาหกรรม จำกัด","owner":"บริษัท สยามลวดเหล็กอุตสาหกรรม จำกัด","displayRegistration":"3-64(5)-2/39สบ","province":"สระบุรี","district":"บ้านหมอ","subdistrict":"บางโขมด","industryType":"ผลิตลวดเหล็กแรงดึงสูง (P.C Wire) ลวดเหล็กตีเกลียว (P.C Strand) และลวดเหล็กแรงดึงสูงตีเกลียวชนิดเคลือบพลาสติกโพลีเอทธีลีน(P.C Extruder) ได้ปีละ 87,000 ตัน","status":"ดำเนินกิจการ","lat":14.60236,"lon":100.74796},"20190000625397":{"id":"20190000625397","name":"กิตติชัยซีเมนต์บล๊อก","owner":"ห้างหุ้นส่วนจำกัด กิตติชัยวัสดุภัณฑ์","displayRegistration":"จ3-58(1)-6/39สบ","province":"สระบุรี","district":"เมืองสระบุรี","subdistrict":"ตลิ่งชัน","industryType":"ทำคอนกรีตบล๊อก ท่อคอนกรีต ผลิตภัณฑ์คอนกรีตและคอนกรีตอัดแรงทุ","status":"ดำเนินกิจการ","lat":14.54807,"lon":100.96054},"20190200225402":{"id":"20190200225402","name":"ห้างหุ้นส่วนจำกัด บี.เอส.อินเตอร์ ซัพพลาย","owner":"ห้างหุ้นส่วนจำกัด บี.เอส.อินเตอร์ซัพพลาย","displayRegistration":"จ3-91(1)-2/40สบ","province":"สระบุรี","district":"พระพุทธบาท","subdistrict":"พุกร่าง","industryType":"บรรจุปูนมาร์ล จำหน่าย","status":"ดำเนินกิจการ","lat":14.6606,"lon":100.76779},"20191000125404":{"id":"20191000125404","name":"บริษัท บัญชากิจ จำกัด","owner":"บริษัท บัญชากิจ จำกัด","displayRegistration":"จ3-58(1)-1/40สบ","province":"สระบุรี","district":"หนองแค","subdistrict":"คชสิทธิ์","industryType":"หล่อคอนกรีตสำเร็จรูป","status":"ดำเนินกิจการ","lat":14.38852,"lon":100.7984},"20191600125408":{"id":"20191600125408","name":"อู่ พีที มอเตอร์ 2","owner":"นายปิยะพันธ์ ชัยรัตน์อาภาพันธ์","displayRegistration":"จ3-95(1)-1/40สบ","province":"สระบุรี","district":"หนองแค","subdistrict":"ห้วยทราย","industryType":"เคาะ พ่นสีรถยนต์","status":"ดำเนินกิจการ","lat":14.41508,"lon":100.89263},"10190400125404":{"id":"10190400125404","name":"บริษัท ไทยเหอเฉิน มาร์เบิ้ล แอนด์ แกรนิตจำกัด","owner":"บริษัท ไทยเหอเฉิน มาร์เบิ้ล แอนด์ แกรนิต จำกัด","displayRegistration":"3-58(3)-1/40สบ","province":"สระบุรี","district":"แก่งคอย","subdistrict":"สองคอน","industryType":"ทำผลิตภัณฑ์จากหินอ่อน","status":"ดำเนินกิจการ","lat":14.64392,"lon":100.96191},"20190500125401":{"id":"20190500125401","name":"โรงไม้แก่งคอย","owner":"บริษัท ร้อย 8 พัน 9 จำกัด","displayRegistration":"จ3-34(1)-1/40สบ","province":"สระบุรี","district":"แก่งคอย","subdistrict":"ชำผักแพว","industryType":"ไส ซอย ไม้แปรรูปประดิษฐ์กรรมจากไม้ บานหน้าต่าง บานประตู วงกบประตู หน้าต่าง","status":"ดำเนินกิจการ","lat":14.50482,"lon":101.02212},"20192000125402":{"id":"20192000125402","name":"บริษัท ซีพีเอฟ (ประเทศไทย) จำกัด (มหาชน)","owner":"บริษัท ซีพีเอฟ (ประเทศไทย) จำกัด (มหาชน)","displayRegistration":"จ3-101-1/40สบ","province":"สระบุรี","district":"แก่งคอย","subdistrict":"ตาลเดี่ยว","industryType":"บำบัดน้ำเสียรวม","status":"ดำเนินกิจการ","lat":14.59021,"lon":100.9827},"10190100225405":{"id":"10190100225405","name":"บริษัท บี.เค.เค.เทอร์รัสซ่า จำกัด","owner":"บริษัท บี.เค.เค.เทอร์รัสซ่า จำกัด","displayRegistration":"3-58(3)-2/40สบ","province":"สระบุรี","district":"แก่งคอย","subdistrict":"ชำผักแพว","industryType":"ผลิตและจำหน่ายผลิตภัณฑ์คอนกรีตประเภทวัสดุคอนกรีตปูพื้น หินขัด หินล้าง บล็อกทางเท้า บล็อกถนน พื้นสำเร็จรูป  ท่อระบายน้ำ ผนังสำเร็จรูป","status":"ดำเนินกิจการ","lat":14.50948,"lon":101.01212},"10190200125406":{"id":"10190200125406","name":"บริษัท กรุงเทพ ซี.เอ.โอ จำกัด","owner":"บริษัท กรุงเทพ ซี.เอ.โอ จำกัด","displayRegistration":"3-57(1)-1/40สบ","province":"สระบุรี","district":"พระพุทธบาท","subdistrict":"พุกร่าง","industryType":"ผลิตปูนขาว","status":"ดำเนินกิจการ","lat":14.66678,"lon":100.77027},"10190100125407":{"id":"10190100125407","name":"บริษัท มิตรภาพน้ำดื่ม จำกัด","owner":"บริษัท มิตรภาพน้ำดื่ม จำกัด","displayRegistration":"3-20(1)-1/40สบ","province":"สระบุรี","district":"หนองแค","subdistrict":"หนองแค","industryType":"ทำน้ำดื่มและน้ำแข็งก้อนเล็ก","status":"ดำเนินกิจการ","lat":14.33962,"lon":100.85767},"20190001425391":{"id":"20190001425391","name":"NULL","owner":"พ.ต.ท.ประสาร สุขเนตร","displayRegistration":"จ2-3(2)-14/39สบ","province":"สระบุรี","district":"แก่งคอย","subdistrict":"ท่ามะปราง","industryType":"ขุดดินลูกรังเพื่อจำหน่าย","status":"ดำเนินกิจการ","lat":14.49881,"lon":101.12586},"20190400125402":{"id":"20190400125402","name":"บริษัท จางเอี้ย โกลฟ เอ็นเตอร์ไพร์ส จำกัด","owner":"บริษัท จางเอี้ย โกลฟ เอ็นเตอร์ไพร์ส จำกัด","displayRegistration":"จ3-28(1)-1/40สบ","province":"สระบุรี","district":"หนองแค","subdistrict":"คชสิทธิ์","industryType":"ผลิตถุงมือ","status":"ดำเนินกิจการ","lat":14.39719,"lon":100.80223},"20191300125401":{"id":"20191300125401","name":"บริษัท บี.ซี.ไอ.กรุ๊ป จำกัด","owner":"บริษัท บี.ซี.ไอ.กรุ๊ป จำกัด","displayRegistration":"จ3-68-1/40สบ","province":"สระบุรี","district":"เฉลิมพระเกียรติ","subdistrict":"หน้าพระลาน","industryType":"ผลิตประกอบซ่อมเครื่องจักรอุตสาหกรรม","status":"ดำเนินกิจการ","lat":14.70391,"lon":100.89376},"10190000125408":{"id":"10190000125408","name":"บริษัท ซีพีเอฟ ฟู้ด แอนด์ เบฟเวอร์เรจ จำกัด","owner":"บริษัท ซีพีเอฟ ฟู้ด แอนด์ เบฟเวอร์เรจ จำกัด","displayRegistration":"3-4(3)-1/40สบ","province":"สระบุรี","district":"แก่งคอย","subdistrict":"ตาลเดี่ยว","industryType":"ผลิตไส้กรอก ลูกชิ้น แฮม เบคอน และผลิตภัณฑ์เนื้อสัตว์อื่น ๆ","status":"ดำเนินกิจการ","lat":14.57173,"lon":100.98369},"20190700125409":{"id":"20190700125409","name":"บริษัท เบสโกอินเตอร์เนชั่นแนลพลาสติก จำกัด","owner":"บริษัท เบสโกอินเตอร์เนชั่นแนลพลาสติก จำกัด","displayRegistration":"จ3-53(1)-1/40สบ","province":"สระบุรี","district":"หนองแค","subdistrict":"หนองไข่น้ำ","industryType":"รับจ้างผลิตชิ้นส่วนอุปกรณ์ผลิตภัณฑ์พลาสติก ทำชิ้นส่วนอิเลคโทรนิคส์โดยวิธีปั๊มหรือกระแทก","status":"ดำเนินกิจการ","lat":14.35398,"lon":100.87371},"10190600125402":{"id":"10190600125402","name":"โรงไฟฟ้าแก่งคอยโคเจนเนอเรชั่น","owner":"บริษัท กัลฟ์ โคเจนเนอเรชั่น จำกัด","displayRegistration":"3-88(2)-1/40สบ","province":"สระบุรี","district":"แก่งคอย","subdistrict":"ตาลเดี่ยว","industryType":"ผลิตกระแสไฟฟ้าและไอน้ำ","status":"หยุดชั่วคราว","lat":14.571413,"lon":100.9698016},"20190900125407":{"id":"20190900125407","name":"NULL","owner":"นายกฐิพัฒน์ วารีวัตร","displayRegistration":"จ3-53(9)-1/40สบ","province":"สระบุรี","district":"พระพุทธบาท","subdistrict":"หนองแก","industryType":"ย่อยพลาสติก","status":"ดำเนินกิจการ","lat":14.71072,"lon":100.76728},"20191200125402":{"id":"20191200125402","name":"ห้างหุ้นส่วนจำกัด เอ็ม.พี. เมทัลเวอร์ค","owner":"ห้างหุ้นส่วนจำกัด เอ็ม.พี. เมทัลเวอร์ค","displayRegistration":"จ3-64(12)-1/40สบ","province":"สระบุรี","district":"หนองแค","subdistrict":"ห้วยขมิ้น","industryType":"ตัด พับ ม้วน ปั๊ม เชื่อมโลหะทั่วไป ทำถังน้ำมัน ปล่องไฟ ท่อลม","status":"ดำเนินกิจการ","lat":14.423209,"lon":100.893579},"20190000825401":{"id":"20190000825401","name":"อู่สุขไพศาล","owner":"นายพรชัย สุขไพศาล","displayRegistration":"จ3-95(1)-8/40สบ","province":"สระบุรี","district":"วิหารแดง","subdistrict":"คลองเรือ","industryType":"ซ่อมรถยนต์","status":"ดำเนินกิจการ","lat":14.33976,"lon":101.0101},"20190000525407":{"id":"20190000525407","name":"บริษัท พี แอนด์ พี คอนกรีต จำกัด","owner":"บริษัท พี แอนด์ พี คอนกรีต จำกัด","displayRegistration":"จ3-58(1)-5/40สบ","province":"สระบุรี","district":"พระพุทธบาท","subdistrict":"พุกร่าง","industryType":"ทำผลิตภัณฑ์คอนกรีตผสมเสร็จ","status":"ดำเนินกิจการ","lat":14.70678,"lon":100.78287},"20190100125405":{"id":"20190100125405","name":"รุ่งอรุณฟาร์ม","owner":"นายไพโรจน์ กสิกิจนำชัย","displayRegistration":"จ3-15(1)-1/40สบ","province":"สระบุรี","district":"แก่งคอย","subdistrict":"ตาลเดี่ยว","industryType":"ผลิตอาหารสัตว์","status":"ดำเนินกิจการ","lat":14.5746,"lon":100.99088},"20190300125403":{"id":"20190300125403","name":"บริษัท เค.ซันเท็กซ์ (ประเทศไทย) จำกัด","owner":"บริษัท เค.ซันเท็กซ์ (ประเทศไทย) จำกัด","displayRegistration":"จ3-22(2)-1/40สบ","province":"สระบุรี","district":"หนองแค","subdistrict":"หนองจิก","industryType":"ทอถุงเท้า","status":"ดำเนินกิจการ","lat":14.44875,"lon":100.84881},"20190800125408":{"id":"20190800125408","name":"ห้างหุ้นส่วนจำกัด ผดุงศิริพาณิชย์พลาสติก","owner":"ห้างหุ้นส่วนจำกัด ผดุงศิริพาณิชย์พลาสติก","displayRegistration":"จ3-53(5)-1/40สบ","province":"สระบุรี","district":"หนองแค","subdistrict":"คชสิทธิ์","industryType":"ผลิตขวดพลาสติก","status":"ดำเนินกิจการ","lat":14.40678,"lon":100.80433},"10190100125415":{"id":"10190100125415","name":"บริษัท ยิปซั่ม ไฟเบอร์บอร์ด จำกัด","owner":"บริษัท ยิปซั่ม ไฟเบอร์บอร์ด จำกัด","displayRegistration":"3-58(1)-1/41สบ","province":"สระบุรี","district":"แก่งคอย","subdistrict":"บ้านป่า","industryType":"ผลิตแผ่นยิบซั่มบอร์ด","status":"ดำเนินกิจการ","lat":14.58612,"lon":101.03281},"10190300125405":{"id":"10190300125405","name":"บริษัท แอลไพน์ คอนกรีต โปรดักท์ จำกัด","owner":"บริษัท แอลไพน์ คอนกรีต โปรดักท์ จำกัด","displayRegistration":"3-58(1)-1/40สบ","province":"สระบุรี","district":"เฉลิมพระเกียรติ","subdistrict":"หน้าพระลาน","industryType":"ทำผลิตภัณฑ์คอนกรีต เช่น คอนกรีตผสมเสร็จ","status":"ดำเนินกิจการ","lat":14.70745,"lon":100.90751},"10190000225406":{"id":"10190000225406","name":"บริษัท ปูนซิเมนต์บริษัท ทีพีไอ โพลีน จำกัด (มหาชน) โรงที่ 3","owner":"บริษัท ทีพีไอ โพลีน จำกัด (มหาชน)","displayRegistration":"3-57(1)-2/40สบ","province":"สระบุรี","district":"แก่งคอย","subdistrict":"ทับกวาง","industryType":"ผลิตปูนซีเมนต์ (กำลังการผลิต 12,000 ตันต่อวัน)","status":"ดำเนินกิจการ","lat":14.63634,"lon":101.11393},"20190000625405":{"id":"20190000625405","name":"บริษัท ที.พี.ซี.คอนกรีตอัดแรง จำกัด","owner":"บริษัท ที.พี.ซี.คอนกรีตอัดแรง จำกัด","displayRegistration":"จ3-58(1)-6/40สบ","province":"สระบุรี","district":"พระพุทธบาท","subdistrict":"ห้วยป่าหวาย","industryType":"ผลิตผลิตภัณฑ์คอนกรีต","status":"ดำเนินกิจการ","lat":14.62308,"lon":100.82342},"20190001025407":{"id":"20190001025407","name":"อู่ธวัชการช่าง (อี๊ด)","owner":"ห้างหุ้นส่วนจำกัด อู่ธวัชการช่าง (อี๊ด)","displayRegistration":"จ3-95(1)-10/40สบ","province":"สระบุรี","district":"เมืองสระบุรี","subdistrict":"หนองโน","industryType":"ซ่อมและเคาะพ่นสีรถยนต์","status":"ดำเนินกิจการ","lat":14.47959,"lon":100.85975},"20190000225412":{"id":"20190000225412","name":"บริษัท สระบุรีศิริพัฒนา จำกัด","owner":"บริษัท สระบุรีศิริพัฒนา จำกัด","displayRegistration":"จ3-58(1)-2/41สบ","province":"สระบุรี","district":"พระพุทธบาท","subdistrict":"พุกร่าง","industryType":"ผลิตผลิตภัณฑ์คอนกรีต เช่น แผ่นพื้นสำเร็จ ท่อคอนกรีต ฯลฯ","status":"ดำเนินกิจการ","lat":14.68667,"lon":100.77642},"20190400125410":{"id":"20190400125410","name":"บริษัท สระบุรีหัตถกรรมหินอ่อน จำกัด","owner":"บริษัท สระบุรีหัตถกรรมหินอ่อน จำกัด","displayRegistration":"จ3-58(3)-1/41สบ","province":"สระบุรี","district":"เฉลิมพระเกียรติ","subdistrict":"หน้าพระลาน","industryType":"ผลิตภัณฑ์ของใช้ที่ทำจากหินอ่อน","status":"ดำเนินกิจการ","lat":14.67663,"lon":100.87003},"20190300225401":{"id":"20190300225401","name":"บริษัท เบตเตอร์ เวิลด์ กรีน จำกัด (มหาชน)","owner":"บริษัท เบตเตอร์ เวิลด์ กรีน จำกัด (มหาชน)","displayRegistration":"จ3-101-2/40สบ","province":"สระบุรี","district":"แก่งคอย","subdistrict":"ห้วยแห้ง","industryType":"ปรับคุณภาพของเสียรวม และรับฝังกลบสิ่งปฏิกูลหรือวัสดุที่ไม่ใช้แล้วที่เป็นของเสียอันตราย และรับคัดแยกฝังกลบวัสดุที่ไม่มีอันตราย","status":"ดำเนินกิจการ","lat":14.462144,"lon":100.989997},"10190200125414":{"id":"10190200125414","name":"บริษัท ยูไนเต็ด ไร้ส์ มิล จำกัด","owner":"บริษัท ยูไนเต็ด ไร้ส์ มิล จำกัด","displayRegistration":"3-91(1)-1/41สบ","province":"สระบุรี","district":"เมืองสระบุรี","subdistrict":"หนองโน","industryType":"แบ่งบรรจุข้าวสาร","status":"ดำเนินกิจการ","lat":14.52003,"lon":100.85764},"20190600125426":{"id":"20190600125426","name":"บริษัท สินเขาแก้ว จำกัด","owner":"บริษัท สินเขาแก้ว จำกัด","displayRegistration":"จ3-58(1)-1/42สบ","province":"สระบุรี","district":"แก่งคอย","subdistrict":"แก่งคอย","industryType":"ทำผลิตภัณฑ์คอนกรีตผสมเสร็จ","status":"ดำเนินกิจการ","lat":14.57773,"lon":100.99828},"20190200125412":{"id":"20190200125412","name":"บริษัท วู๊ดเพคเกอร์ คาร์เพนเทอรี่ จำกัด","owner":"บริษัท วู๊ดเพคเกอร์ คาร์เพนเทอรี่ จำกัด","displayRegistration":"จ3-37-1/41สบ","province":"สระบุรี","district":"พระพุทธบาท","subdistrict":"พุคำจาน","industryType":"ผลิตเฟอร์นิเจอร์ไม้เพื่อการส่งออก","status":"ดำเนินกิจการ","lat":14.71124,"lon":100.83206},"10190000125416":{"id":"10190000125416","name":"บริษัท ปูนซีเมนต์ไทย (ท่าหลวง) จำกัด","owner":"บริษัท ปูนซีเมนต์ไทย (ท่าหลวง) จำกัด","displayRegistration":"3-57(1)-1/41สบ","province":"สระบุรี","district":"บ้านหมอ","subdistrict":"บ้านครัว","industryType":"ผลิตปูนซีเมนต์","status":"ดำเนินกิจการ","lat":14.57652,"lon":100.7666},"20190800125424":{"id":"20190800125424","name":"บริษัท วิริยะโลหะกิจ จำกัด","owner":"บริษัท วิริยะโลหะกิจ จำกัด","displayRegistration":"จ3-63(2)-1/42สบ","province":"สระบุรี","district":"เมืองสระบุรี","subdistrict":"กุดนกเปล้า","industryType":"ทำประเหล็กม้วน และโครงเคร่าฝ้า","status":"หยุดชั่วคราว","lat":14.49967,"lon":100.97174},"20190000225420":{"id":"20190000225420","name":"บริษัท ห้าดาวเคมีภัณฑ์ จำกัด","owner":"บริษัท ห้าดาวเคมีภัณฑ์ จำกัด","displayRegistration":"จ3-43(1)-2/42สบ","province":"สระบุรี","district":"พระพุทธบาท","subdistrict":"พระพุทธบาท","industryType":"ผลิตปุ๋ญอินทรีย์","status":"ดำเนินกิจการ","lat":14.70921,"lon":100.78259},"20191000125420":{"id":"20191000125420","name":"บริษัท ลวดเหล็กกล้าไทย จำกัด","owner":"บริษัท ลวดเหล็กกล้าไทย จำกัด","displayRegistration":"จ3-64(12)-1/42สบ","province":"สระบุรี","district":"หนองแค","subdistrict":"หนองไข่น้ำ","industryType":"รีดลวดเหล็กเพื่อทำวงท่อ,รับจ้างตัดเหล็กยืนโครงท่อฯ","status":"ดำเนินกิจการ","lat":14.34975,"lon":100.85565},"20191100125429":{"id":"20191100125429","name":"ห้างหุ้นส่วนจำกัด ไทยงามเอ็นยิเนียริ่ง","owner":"ห้างหุ้นส่วนจำกัด ไทยงามเอ็นยิเนียริ่ง","displayRegistration":"จ3-64(13)-1/42สบ","province":"สระบุรี","district":"หนองแค","subdistrict":"โคกแย้","industryType":"กลึง กัด ไส เชื่อมโลหะทั่วไป","status":"ดำเนินกิจการ","lat":14.40218,"lon":100.91217},"20191200125428":{"id":"20191200125428","name":"อู่ น.พุแคเจริญยนต์","owner":"ห้างหุ้นส่วนจำกัด อู่ น.พุแคเจริญยนต์","displayRegistration":"จ3-95(1)-1/42สบ","province":"สระบุรี","district":"เฉลิมพระเกียรติ","subdistrict":"พุแค","industryType":"เคาะ พ่นสีรถยนต์","status":"ดำเนินกิจการ","lat":14.66045,"lon":100.91346},"10190000125424":{"id":"10190000125424","name":"บริษัท เอสซีจี เซรามิกส์ จำกัด (มหาชน)","owner":"บริษัท เอสซีจี เซรามิกส์ จำกัด (มหาชน)","displayRegistration":"3-55-1/42สบ","province":"สระบุรี","district":"หนองแค","subdistrict":"โคกแย้","industryType":"ผลิตกระเบื้องดินเผาเซรามิคและโมเสกและติดตั้งแผงเซลล์แสงอาทิตย์บนหลังคา ขนาด 2 เมกะวัตต์ เพื่อใช้เองในโรงงาน","status":"ดำเนินกิจการ","lat":14.40529,"lon":100.91067},"20190300125429":{"id":"20190300125429","name":"ห้างหุ้นส่วนจำกัด ปัญญาเลิศศรี","owner":"ห้างหุ้นส่วนจำกัด ปัญญาเลิศศรี","displayRegistration":"จ3-40(1)-1/42สบ","province":"สระบุรี","district":"เมืองสระบุรี","subdistrict":"ดาวเรือง","industryType":"รับจ้างตัดเหล็กและอัดเศษกระดาษ","status":"ดำเนินกิจการ","lat":14.56635,"lon":100.90299},"20190200225428":{"id":"20190200225428","name":"บริษัท ธงชัย เอ็นจิเนียริ่งแอน์ เวอร์ค จำกัด","owner":"บริษัท ธงชัย เอ็นจิเนียริ่งแอนด์ เวอร์ค จำกัด","displayRegistration":"จ3-64(13)-2/42สบ","province":"สระบุรี","district":"วิหารแดง","subdistrict":"หนองสรวง","industryType":"ซ่อมเครื่องจักรที่ใช้ในการอุตสาหกรรม","status":"หยุดชั่วคราว","lat":14.33882,"lon":100.9689},"20190900125423":{"id":"20190900125423","name":"บริษัท พีซีเจ อุตสาหกรรม จำกัด","owner":"บริษัท พีซีเจ อุตสาหกรรม จำกัด","displayRegistration":"จ3-63(5)-1/42สบ","province":"สระบุรี","district":"แก่งคอย","subdistrict":"บ้านป่า","industryType":"ผลิตหน้ากากแอร์ รางไฟฟ้า ตู้ไฟฟ้า","status":"ดำเนินกิจการ","lat":14.61575,"lon":101.01189},"10190000125283":{"id":"10190000125283","name":"บริษัท ทรัพย์พูนผลอุตสาหกรรมไซโล จำกัด","owner":"บริษัท ทรัพย์พูนผลอุตสาหกรรมไซโล จำกัด","displayRegistration":"3-2(1)-1/28สบ","province":"สระบุรี","district":"พระพุทธบาท","subdistrict":"ขุนโขลน","industryType":"อบพืชและเก็บรักษาพืชด้วยไซโล","status":"ดำเนินกิจการ","lat":14.71577,"lon":100.81694},"10190100125423":{"id":"10190100125423","name":"บริษัท ไลม์มาสเตอร์ จำกัด","owner":"บริษัท ไลม์มาสเตอร์ จำกัด","displayRegistration":"3-57(1)-1/42สบ","province":"สระบุรี","district":"เฉลิมพระเกียรติ","subdistrict":"หน้าพระลาน","industryType":"ผลิตปูนขาว","status":"ดำเนินกิจการ","lat":14.70395,"lon":100.89033},"20190100125421":{"id":"20190100125421","name":"สหกรณ์โคนมมวกเหล็ก จำกัด","owner":"สหกรณ์โคนมมวกเหล็ก จำกัด","displayRegistration":"จ3-15(1)-1/42สบ","province":"สระบุรี","district":"มวกเหล็ก","subdistrict":"หนองย่างเสือ","industryType":"ผสมอาหารสัตว์","status":"ดำเนินกิจการ","lat":14.75456,"lon":101.2215},"20191200125436":{"id":"20191200125436","name":"บริษัท สุรชา สตีลเวิร์ค (1999) จำกัด","owner":"บริษัท สุรชา สตีลเวิร์ค (1999) จำกัด","displayRegistration":"จ3-63(2)-1/43สบ","province":"สระบุรี","district":"แก่งคอย","subdistrict":"แก่งคอย","industryType":"ทำส่วนประกอบสำหรับใช้ในการก่อสร้างอาคารและภาชนะบรรจุ","status":"ดำเนินกิจการ","lat":14.58324,"lon":101.00507},"20190100225429":{"id":"20190100225429","name":"บริษัท กิจวาณิช คอนกรีต จำกัด","owner":"บริษัท กิจวาณิช คอนกรีต จำกัด","displayRegistration":"จ3-58(1)-2/42สบ","province":"สระบุรี","district":"เมืองสระบุรี","subdistrict":"ปากเพรียว","industryType":"ทำผลิตภัณฑ์คอนกรีต เช่น คอนกรีตผสมเสร็จ","status":"ดำเนินกิจการ","lat":14.5541,"lon":100.92047},"20190000125422":{"id":"20190000125422","name":"บริษัท ชานเมือง 39 จำกัด","owner":"บริษัท ชานเมือง 39 จำกัด","displayRegistration":"จ3-8(2)-1/42สบ","province":"สระบุรี","district":"วิหารแดง","subdistrict":"หนองหมู","industryType":"คัดและถนอมผลไม้","status":"ดำเนินกิจการ","lat":14.29277,"lon":100.95836},"20190700125433":{"id":"20190700125433","name":"บริษัท ศศินทร์ พอทเทอรี่ จำกัด","owner":"บริษัท ศศินทร์ พอทเทอรี่ จำกัด","displayRegistration":"จ3-55-1/43สบ","province":"สระบุรี","district":"วิหารแดง","subdistrict":"คลองเรือ","industryType":"ผลิตผลิตภัณฑ์เซรามิค เช่น ถ้วย จาน ชาม","status":"ดำเนินกิจการ","lat":14.34976,"lon":101.04847},"20190500125427":{"id":"20190500125427","name":"ห้างหุ้นส่วนจำกัด โยรินเทรดดิ้ง","owner":"ห้างหุ้นส่วนจำกัด โยรินเทรดดิ้ง","displayRegistration":"จ3-55-1/42สบ","province":"สระบุรี","district":"พระพุทธบาท","subdistrict":"ห้วยป่าหวาย","industryType":"ผสมดินเซรามิค","status":"ดำเนินกิจการ","lat":14.64027,"lon":100.81322},"20190600125434":{"id":"20190600125434","name":"บริษัท เอส.อาร์.พี.อินดัสทรี่ จำกัด","owner":"บริษัท เอส.อาร์.พี.อินดัสทรี่ จำกัด","displayRegistration":"จ3-54-1/43สบ","province":"สระบุรี","district":"แก่งคอย","subdistrict":"ทับกวาง","industryType":"ผลิตลูกแก้วสะท้อนแสง","status":"ดำเนินกิจการ","lat":14.59324,"lon":101.03517},"20191600125432":{"id":"20191600125432","name":"บริษัท เอทีโอ-เอเซีย เทิร์นเอ้าท์ส จำกัด","owner":"บริษัท เอทีโอ-เอเซีย เทิร์นเอ้าท์ส จำกัด","displayRegistration":"จ3-76(2)-1/43สบ","province":"สระบุรี","district":"วิหารแดง","subdistrict":"วิหารแดง","industryType":"ผลิตประแจทางหลีกรถไฟ","status":"ดำเนินกิจการ","lat":14.32581,"lon":100.98414},"10190000125432":{"id":"10190000125432","name":"บริษัท ก้องเกียรติ เท็กซ์ไทล์ จำกัด","owner":"บริษัท ก้องเกียรติ เท็กซ์ไทล์ จำกัด","displayRegistration":"3-22(1)-1/43สบ","province":"สระบุรี","district":"หนองแค","subdistrict":"บัวลอย","industryType":"การฟอกย้อมสีเส้นใย เส้นด้าย และผ้าทุกชนิด","status":"ดำเนินกิจการ","lat":14.405025,"lon":100.84984},"20190000125430":{"id":"20190000125430","name":"บริษัท โรงสี ช. ธัญญกิจ จำกัด","owner":"บริษัท โรงสี ช.ธัญญกิจ จำกัด","displayRegistration":"จ3-2(1)-1/43สบ","province":"สระบุรี","district":"เฉลิมพระเกียรติ","subdistrict":"ห้วยบง","industryType":"อบ เมล็ดข้าว","status":"ดำเนินกิจการ","lat":14.59127,"lon":100.89863},"20190300225435":{"id":"20190300225435","name":"บริษัท เค.บี.เค. เกษตรภัณฑ์ จำกัด","owner":"บริษัท เค.บี.เค. เกษตรภัณท์ จำกัด","displayRegistration":"จ3-43(1)-2/43สบ","province":"สระบุรี","district":"บ้านหมอ","subdistrict":"สร่างโศก","industryType":"ผลิตปุ๋ยธรรมชาติ (อินทรีย์) และปุ๋ยเคมี ผลิตปุ๋ยอินทรีย์จากกากตะกอนชีวภาพเฉพาะจากอุตสาหกรรมอาหารเกษตรแปรรูปเยื่อ และกระดาษที่ไม่เป็นของเสียอันตราย","status":"ดำเนินกิจการ","lat":14.61042,"lon":100.75699},"20191400125434":{"id":"20191400125434","name":"บริษัท เจ แอนด์ เจ แทรคเตอร์ จำกัด","owner":"บริษัท เจ แอนด์ เจ แทรคเตอร์ จำกัด","displayRegistration":"จ3-70-1/43สบ","province":"สระบุรี","district":"หนองแค","subdistrict":"ห้วยขมิ้น","industryType":"ซ่อมแซมรถบรรทุกและรถพ่วง","status":"ดำเนินกิจการ","lat":14.39686,"lon":100.88852},"10190200125448":{"id":"10190200125448","name":"บริษัท เอ็มไพร์ แกรนิต จำกัด","owner":"บริษัท เอ็มไพร์ แกรนิต จำกัด","displayRegistration":"3-58(3)-1/44สบ","province":"สระบุรี","district":"เสาไห้","subdistrict":"งิ้วงาม","industryType":"แปรรูปหินแกรนิตและหินอ่อน","status":"ดำเนินกิจการ","lat":14.58906,"lon":100.84606},"20191800125430":{"id":"20191800125430","name":"บริษัท เลิศจินดา แอนด์ เอ็ม เอ็ม พี โค้ทติ้งส์ จำกัด","owner":"บริษัท เลิศจินดา แอนด์ เอ็ม เอ็ม พี โค้ทติ้งส์ จำกัด","displayRegistration":"จ3-100(1)-1/43สบ","province":"สระบุรี","district":"พระพุทธบาท","subdistrict":"ขุนโขลน","industryType":"พ่น เคลือบ อบสี","status":"ดำเนินกิจการ","lat":14.71263,"lon":100.82891},"20190600225432":{"id":"20190600225432","name":"บริษัท พี.เอ็น.วัสดุคอนกรีต จำกัด","owner":"บริษัท พี.เอ็น.วัสดุคอนกรีต จำกัด","displayRegistration":"จ3-58(1)-2/43สบ","province":"สระบุรี","district":"หนองแค","subdistrict":"ห้วยขมิ้น","industryType":"ผลิตภัณฑ์คอนกรีตอัดแรง (ผลิตพื้นสำเร็จรูปคอนกรีต)","status":"ดำเนินกิจการ","lat":14.41993,"lon":100.89287},"20190400125378":{"id":"20190400125378","name":"ห้างหุ้นส่วนจำกัด เอ็น.บี.เมลทอลบ๊อก","owner":"ห้างหุ้นส่วนจำกัด เอ็น.บี.เมลทอลบ๊อก","displayRegistration":"จ3-64(2)-1/37สบ","province":"สระบุรี","district":"เมืองสระบุรี","subdistrict":"ตลิ่งชัน","industryType":"ผลิตชิ้นงานจากโลหะแผ่น","status":"ดำเนินกิจการ","lat":14.54471,"lon":100.97339},"20190200225436":{"id":"20190200225436","name":"NULL","owner":"นายโอฬาร อินทร์ชูพงษ์","displayRegistration":"จ3-34(1)-2/43สบ","province":"สระบุรี","district":"หนองแค","subdistrict":"หนองไข่น้ำ","industryType":"ทำลังและพาเลตจากไม้และเหล็ก","status":"ดำเนินกิจการ","lat":14.35267,"lon":100.87114},"20191000125438":{"id":"20191000125438","name":"TPL ร้านทิพย์ไพลิน","owner":"นายสมพร ทิพย์ไพลิน","displayRegistration":"จ3-58(1)-1/43สบ","province":"สระบุรี","district":"หนองแค","subdistrict":"ห้วยขมิ้น","industryType":"ทำคอนกรีตบล็อคและซ่อมแซมแบบพิมพ์โลหะ","status":"ดำเนินกิจการ","lat":14.42313,"lon":100.8932},"10190100125449":{"id":"10190100125449","name":"บริษัท ภูมิใจไทยซีเมนต์ จำกัด","owner":"บริษัท ภูมิใจไทยซีเมนต์ จำกัด","displayRegistration":"3-57(1)-1/44สบ","province":"สระบุรี","district":"แก่งคอย","subdistrict":"หินซ้อน","industryType":"ผลิตปูนซิเมนต์ กำลังการผลิต 2,250,000 ตัน/ปี","status":"ดำเนินกิจการ","lat":14.73712,"lon":101.0374},"20192100125443":{"id":"20192100125443","name":"ห้างหุ้นส่วนจำกัด พรรณฑูรย์การช่าง","owner":"ห้างหุ้นส่วนจำกัด พรรณฑูรย์การช่าง","displayRegistration":"จ3-64(13)-1/44สบ","province":"สระบุรี","district":"แก่งคอย","subdistrict":"แก่งคอย","industryType":"กลึง เจาะ คว้าน กัด ไส เจียนและเชื่อมโลหะทั่วไป","status":"ดำเนินกิจการ","lat":14.58753,"lon":101.00123},"20190000525431":{"id":"20190000525431","name":"ห้างหุ้นส่วนจำกัด ทัศน์-ศิรินทร์กลการ","owner":"ห้างหุ้นส่วนจำกัด ทัศน์-ศิรินทร์กลการ","displayRegistration":"จ3-64(13)-5/43สบ","province":"สระบุรี","district":"เมืองสระบุรี","subdistrict":"ตลิ่งชัน","industryType":"กลึง เจาะ คว้าน กัด ไส เจียน และเชื่อมโลหะทั่วไป","status":"ดำเนินกิจการ","lat":14.54495,"lon":100.95972},"20190100225437":{"id":"20190100225437","name":"บริษัท เกรท มิลค์ จำกัด","owner":"บริษัท เกรท มิลค์ จำกัด","displayRegistration":"จ3-5(1)-2/43สบ","province":"สระบุรี","district":"มวกเหล็ก","subdistrict":"ลำพญากลาง","industryType":"ถนอมน้ำนมสด","status":"ดำเนินกิจการ","lat":14.915,"lon":101.43074},"20190000325436":{"id":"20190000325436","name":"กลุ่มเกษตรกรผู้เลี้ยงโคนม ที.เค","owner":"บริษัท เทียนขำแคร์คอร์ปอร์เรชั่น จำกัด","displayRegistration":"จ3-5(1)-3/43สบ","province":"สระบุรี","district":"มวกเหล็ก","subdistrict":"ลำพญากลาง","industryType":"ถนอมน้ำนมดิบ","status":"ดำเนินกิจการ","lat":14.86247,"lon":101.44946},"20190200125438":{"id":"20190200125438","name":"บริษัท เกรท มิลค์ จำกัด","owner":"บริษัท เกรท มิลค์ จำกัด","displayRegistration":"จ3-5(1)-1/43สบ","province":"สระบุรี","district":"มวกเหล็ก","subdistrict":"ซับสนุ่น","industryType":"ถนอมน้ำนมสด","status":"ดำเนินกิจการ","lat":14.88307,"lon":101.27896},"20190500225433":{"id":"20190500225433","name":"บริษัท หนองแค เคลย์ จำกัด","owner":"บริษัท หนองแค เคลย์ จำกัด","displayRegistration":"จ3-55-2/43สบ","province":"สระบุรี","district":"หนองแค","subdistrict":"โคกแย้","industryType":"บดดินเพื่อจำหน่าย","status":"ดำเนินกิจการ","lat":14.39154,"lon":100.94397},"20191600125440":{"id":"20191600125440","name":"ห้างหุ้นส่วนจำกัด ปากช่อง เอส.พี.อินดัสทรี่","owner":"ห้างหุ้นส่วนจำกัด ปากช่อง เอส.พ.อินดัสทรี่","displayRegistration":"จ3-57(1)-1/44สบ","province":"สระบุรี","district":"แก่งคอย","subdistrict":"ห้วยแห้ง","industryType":"บดปูนขาว","status":"ดำเนินกิจการ","lat":14.52582,"lon":101.00172},"20191500125441":{"id":"20191500125441","name":"บริษัท เอสซีจี เซรามิกส์ จำกัด (มหาชน)","owner":"บริษัท เอสซีจี เซรามิกส์ จำกัด (มหาชน)","displayRegistration":"จ3-55-1/44สบ","province":"สระบุรี","district":"หนองแค","subdistrict":"ไผ่ต่ำ","industryType":"เตรียมวัตถุดิบกึ่งสำเร็จรูป สำหรับผลิตกระเบื้องเซรามิค","status":"ดำเนินกิจการ","lat":14.34589,"lon":100.849},"10190300125447":{"id":"10190300125447","name":"บริษัท ปูนซิเมนต์ไทย (แก่งคอย) จำกัด","owner":"บริษัท ปูนซิเมนต์ไทย (แก่งคอย) จำกัด","displayRegistration":"3-101-1/44สบ","province":"สระบุรี","district":"แก่งคอย","subdistrict":"บ้านป่า","industryType":"ปรับคุณภาพของเสียรวม (บำบัดหรือกำจัดวัสดุที่ไม่ใช้แล้ว เช่น น้ำมันหล่อลื่น และยางรถยนต์ เป็นต้น โดยกระบวนการใช้ความร้อนด้วยการเผาในเตาเผาซีเมนต์)","status":"ดำเนินกิจการ","lat":14.64004,"lon":101.03181},"20190700225449":{"id":"20190700225449","name":"ห้างหุ้นส่วนจำกัด ด.กิตติชัยการช่าง","owner":"ห้างหุ้นส่วนจำกัด ด.กิตติชัยการช่าง","displayRegistration":"จ3-64(13)-2/44สบ","province":"สระบุรี","district":"แก่งคอย","subdistrict":"บ้านป่า","industryType":"กลึง เจาะ คว้าน กัด ไส เจียน และเชื่อมโลหะทั่วไป","status":"ดำเนินกิจการ","lat":14.59108,"lon":101.02791},"20190800125440":{"id":"20190800125440","name":"บริษัท อะราวนด์ เดอะ เนค จำกัด","owner":"บริษัท อะราวนด์ เดอะ เนค จำกัด","displayRegistration":"จ3-22(2)-1/44สบ","province":"สระบุรี","district":"วิหารแดง","subdistrict":"วิหารแดง","industryType":"ทอผ้า และตัดเย็บสิ่งทอ ทำกระเป๋าผ้าคอตตอน กระเป๋าผ้าโพลิเอสเตอร์ กระเป๋าหนังแท้ กระเป๋าหนังเทียม กระเป๋าผ้าไหม","status":"ดำเนินกิจการ","lat":14.31317,"lon":100.99803},"20191400125442":{"id":"20191400125442","name":"บริษัท ไมล์สโตน คอนสตรัคชั่น จำกัด","owner":"บริษัท ไมล์สโตน คอนสตรัคชั่น จำกัด","displayRegistration":"จ3-50(4)-1/44สบ","province":"สระบุรี","district":"เฉลิมพระเกียรติ","subdistrict":"หน้าพระลาน","industryType":"ผลิตแสฟัลท์ติคคอนกรีต","status":"ดำเนินกิจการ","lat":14.69248,"lon":100.89633},"20190000125448":{"id":"20190000125448","name":"โรงอบ ส.ประเสริฐชัย","owner":"นายนพพร เลิศพิพัฒน์พร","displayRegistration":"จ3-2(1)-1/44สบ","province":"สระบุรี","district":"เสาไห้","subdistrict":"งิ้วงาม","industryType":"อบข้าว","status":"ดำเนินกิจการ","lat":14.56331,"lon":100.8337},"20190000625447":{"id":"20190000625447","name":"สมศักดิ์การช่าง","owner":"นายสมศักดิ์ หนูเล็ก","displayRegistration":"จ3-95(1)-6/44สบ","province":"สระบุรี","district":"เสาไห้","subdistrict":"เสาไห้","industryType":"ซ่อมและพ่นสีรถยนต์","status":"ดำเนินกิจการ","lat":14.55052,"lon":100.86196},"20190600125442":{"id":"20190600125442","name":"ห้างหุ้นส่วนจำกัด สุกรทอง ฟาร์ม","owner":"ห้างหุ้นส่วนจำกัด สุกรทอง ฟาร์ม","displayRegistration":"จ3-15(1)-1/44สบ","province":"สระบุรี","district":"พระพุทธบาท","subdistrict":"พระพุทธบาท","industryType":"ผสมอาหารสำเร็จรูปสำหรับเลี้ยงสัตว์","status":"ดำเนินกิจการ","lat":14.71324,"lon":100.82514},"20190300225443":{"id":"20190300225443","name":"ห้างหุ้นส่วนจำกัด ธารเกษมฟาร์ม","owner":"ห้างหุ้นส่วนจำกัด ธารเกษมฟาร์ม","displayRegistration":"จ3-15(1)-2/44สบ","province":"สระบุรี","district":"พระพุทธบาท","subdistrict":"ธารเกษม","industryType":"ผสมอาหารสำเร็จรูปสำหรับเลี้ยงสัตว์","status":"ดำเนินกิจการ","lat":14.7629,"lon":100.83203},"20192200125442":{"id":"20192200125442","name":"บริษัท ไทยเจีย จำกัด","owner":"บริษัท ไทยเจีย จำกัด","displayRegistration":"จ3-67(3)-1/44สบ","province":"สระบุรี","district":"หนองแค","subdistrict":"โคกตูม","industryType":"ทำหินเจีย,หินขัด,และแผ่นตัดหิน","status":"ดำเนินกิจการ","lat":14.41863,"lon":100.77685},"20191400125459":{"id":"20191400125459","name":"บริษัท สหชัยธุรกิจก่อสร้าง 1993 จำกัด","owner":"บริษัท สหชัยธุรกิจก่อสร้าง 1993 จำกัด","displayRegistration":"จ3-58(1)-1/45สบ","province":"สระบุรี","district":"วังม่วง","subdistrict":"คำพราน","industryType":"คอนกรีตผสมเสร็จ","status":"ดำเนินกิจการ","lat":14.84243,"lon":101.10569},"20190100125454":{"id":"20190100125454","name":"NULL","owner":"นายสมพงษื แหยมนุช","displayRegistration":"จ3-2(9)-1/45สบ","province":"สระบุรี","district":"หนองแค","subdistrict":"หนองจรเข้","industryType":"ล้างฝ้าย","status":"ดำเนินกิจการ","lat":14.34508,"lon":100.90958},"20191800125448":{"id":"20191800125448","name":"แสงสุวรรณ","owner":"นางสมงาม จึงพิชาญวณิชย์","displayRegistration":"จ3-58(3)-1/44สบ","province":"สระบุรี","district":"วิหารแดง","subdistrict":"บ้านลำ","industryType":"แปรรูปหินอ่อนและแกรนิต","status":"ดำเนินกิจการ","lat":14.37969,"lon":100.95762},"20190000725445":{"id":"20190000725445","name":"บริษัท ศักดิ์การาจสระบุรี จำกัด","owner":"บริษัท ศักดิ์การาจ สระบุรี จำกัด","displayRegistration":"จ3-95(1)-7/44สบ","province":"สระบุรี","district":"เมืองสระบุรี","subdistrict":"ปากข้าวสาร","industryType":"ซ่อมและเคาะพ่นสีรถยนต์","status":"ดำเนินกิจการ","lat":14.52973,"lon":100.94788},"20190100425441":{"id":"20190100425441","name":"บริษัท แอดวานซ์คอนกรีต อินทิเกรชั่น จำกัด","owner":"บริษัท แอควานซ์คอนกรีต อินทิเกรชั่น จำกัด","displayRegistration":"จ3-58(1)-4/44สบ","province":"สระบุรี","district":"พระพุทธบาท","subdistrict":"ห้วยป่าหวาย","industryType":"ผลิตเสาเข็ม เสาไฟฟ้า คาน แผ่นพื้น อัดแรง ท่อคอนกรีตและผลิตภัณฑ์คอนกรีตอื่น ๆ","status":"ดำเนินกิจการ","lat":14.64158,"lon":100.8025},"20190200125446":{"id":"20190200125446","name":"บริษัท ศิลาสานนท์ จำกัด","owner":"บริษัท ศิลาสานนท์ จำกัด","displayRegistration":"จ3-3(3)-1/44สบ","province":"สระบุรี","district":"เฉลิมพระเกียรติ","subdistrict":"หน้าพระลาน","industryType":"คัดแยกขนาดหิน","status":"ดำเนินกิจการ","lat":14.70292,"lon":100.85325},"20190500225441":{"id":"20190500225441","name":"บริษัท จี.เอ็ท.เซรามิค ฟิลเตอร์ (เอ็กซ์ปอร์ต) จำกัด","owner":"บริษัท จี.เอ็ม.เซรามิค ฟิลเตอร์ (เอ็กซ์ปอร์ต) จำกัด","displayRegistration":"จ3-55-2/44สบ","province":"สระบุรี","district":"เสาไห้","subdistrict":"หัวปลวก","industryType":"ทำผลิตภัรฑ์เซรามิค เช่น ไส้กรองน้ำ","status":"ดำเนินกิจการ","lat":14.61382,"lon":100.83393},"20190100325443":{"id":"20190100325443","name":"บริษัท วี.พี.พัฒนาคอนกรีต จำกัด","owner":"บริษัท วี.พี.พัฒนาคอนกรีต จำกัด","displayRegistration":"จ3-58(1)-3/44สบ","province":"สระบุรี","district":"พระพุทธบาท","subdistrict":"พระพุทธบาท","industryType":"คอนกรีตผสมเสร็จ","status":"ดำเนินกิจการ","lat":14.73888,"lon":100.77052},"20192000125444":{"id":"20192000125444","name":"บริษัท ธรรมสรณ์ จำกัด","owner":"บริษัท ธรรมสรณ์ จำกัด","displayRegistration":"จ3-64(7)-1/44สบ","province":"สระบุรี","district":"หนองแค","subdistrict":"หนองปลาหมอ","industryType":"ผลิตเตาเผาขยะ, ขยะติดเชื้อ, เตาเผาศพปลอดมลพิษ,ระบบผลิตน้ำประปา,ระบบบำบัดน้ำเสียสำเร็จรูป ระบบกำจัดขยะและเครื่องจักรที่ใช้ในอุตสาหกรรมอาหาร รวมทั้งอุปกรณ์ของเครื","status":"ดำเนินกิจการ","lat":14.38056,"lon":100.85501},"20191000125453":{"id":"20191000125453","name":"บริษัท ออแกนิกรีน จำกัด","owner":"บริษัท ออแกนิกรีน จำกัด","displayRegistration":"จ3-43(1)-1/45สบ","province":"สระบุรี","district":"วังม่วง","subdistrict":"คำพราน","industryType":"ผลิตปุ๋ยอินทรีย์ และผสมปุ๋ยเคมีเพื่อจำหน่าย","status":"ดำเนินกิจการ","lat":14.84074,"lon":101.0774},"20191000125446":{"id":"20191000125446","name":"บริษัท สระบุรีศุภภัณฑ์(1984) จำกัด","owner":"บริษัท สระบุรีศุภภัณฑ์(1984) จำกัด","displayRegistration":"จ3-34(1)-1/44สบ","province":"สระบุรี","district":"เมืองสระบุรี","subdistrict":"ปากเพรียว","industryType":"ไส ซอยไม้แปรรูป","status":"ดำเนินกิจการ","lat":14.506522,"lon":100.91731},"20191900125447":{"id":"20191900125447","name":"บริษัท คลาสสิค เฟอร์ริช จำกัด","owner":"บริษัท คลาสสิค เฟอร์ริช จำกัด","displayRegistration":"จ3-62-1/44สบ","province":"สระบุรี","district":"หนองแค","subdistrict":"ไผ่ต่ำ","industryType":"ทำเฟอร์นิเจอร์จากเหล็ก","status":"ดำเนินกิจการ","lat":14.29933,"lon":100.8251},"20191800125455":{"id":"20191800125455","name":"เกษมพาณิชย์","owner":"นางสาวเตือนใจ พลอยเพ็ชร์","displayRegistration":"จ3-87(1)-1/45สบ","province":"สระบุรี","district":"พระพุทธบาท","subdistrict":"ธารเกษม","industryType":"ทำเครื่องเล่นสำหรับเด็ก จากโลหะ เช่น ม้าหมุน ชิงช้าฯลน","status":"ดำเนินกิจการ","lat":14.70826,"lon":100.83867},"20192000125451":{"id":"20192000125451","name":"ธีรภพโลหะภัณฑ์","owner":"นายธีรภพ คุณาปัญญานุรักษ์","displayRegistration":"จ3-95(1)-1/45สบ","province":"สระบุรี","district":"หนองแค","subdistrict":"ไผ่ต่ำ","industryType":"ซ่อมอุปกรณ์รถยนต์ กลึง เชื่อมโลหะ","status":"ดำเนินกิจการ","lat":14.29931,"lon":100.82508},"20191300125443":{"id":"20191300125443","name":"บริษัท เจริญโภคภัณฑ์โปรดิ๊วส จำกัด","owner":"บริษัท เจริญโภคภัณฑ์โปรดิ๊วส จำกัด","displayRegistration":"จ3-43(1)-1/44สบ","province":"สระบุรี","district":"วังม่วง","subdistrict":"แสลงพัน","industryType":"ผลิตปุ๋ยอินทรีย์","status":"ดำเนินกิจการ","lat":14.76758,"lon":101.11717},"20190500125443":{"id":"20190500125443","name":"NULL","owner":"นางฉวีวรรณ โรจนะ","displayRegistration":"จ3-10(3)-1/44สบ","province":"สระบุรี","district":"หนองแค","subdistrict":"โคกตูม","industryType":"ทำเส้นขนมจีน","status":"ดำเนินกิจการ","lat":14.41187,"lon":100.78271},"20191100125452":{"id":"20191100125452","name":"บริษัท อุตสาหกรรมกระดูกสัตว์ จำกัด","owner":"บริษัท อุตสาหกรรมกระดูกสัตว์ จำกัด","displayRegistration":"จ3-48(2)-1/45สบ","province":"สระบุรี","district":"แก่งคอย","subdistrict":"บ้านป่า","industryType":"ผลิตสารปรับสภาพน้ำ","status":"ดำเนินกิจการ","lat":14.58055,"lon":101.01771},"20190300225450":{"id":"20190300225450","name":"บริษัท สี่แสงการโยธา (1979) จำกัด","owner":"บริษัท สี่แสงการโยธา (1979) จำกัด","displayRegistration":"จ3-58(1)-2/45สบ","province":"สระบุรี","district":"แก่งคอย","subdistrict":"ตาลเดี่ยว","industryType":"ผลิตภัณฑ์คอนกรีตสำเร็จรูป เช่น ผลิตภัณฑ์ Segment และท่อคอนกรีตเสริมเหล็กโดยวิธี Vertical Dry Cast Process, ประกอบกิจการผลิตภัณฑ์โลหะสำหรับใช้ในการก่อสร้างหรือติดตั้งอย่างใดอย่างหนึ่งหรือหลายอย่างดังต่อไปนี้ การทำส่วนประกอบสำหรับใช้ในการก่อสร้างสะพาน ประตูน้ำ ถังน้ำ หรือปล่องไฟและการทำส่วนประกอบสำหรับใช้ในการก่อสร้างอาคาร","status":"ดำเนินกิจการ","lat":14.5625,"lon":100.97443},"10190000225448":{"id":"10190000225448","name":"บริษัท ปูนซิเมนต์นครหลวง จำกัด (มหาชน) โรงงาน 2","owner":"บริษัท ปูนซิเมนต์นครหลวง จำกัด (มหาชน)","displayRegistration":"3-101-2/44สบ","province":"สระบุรี","district":"แก่งคอย","subdistrict":"ทับกวาง","industryType":"ปรับคุณภาพของเสียรวม (บำบัดหรือกำจัดวัสดุที่ไม่ใช้แล้ว เช่น น้ำมันหล่อลื่น และยางรถยนต์ เป็นต้น) โดยกระบวนการใช้ความร้อนด้วยการเผาในเตาเผาซีเมนต์","status":"ดำเนินกิจการ","lat":14.629362,"lon":101.099359},"10190000325446":{"id":"10190000325446","name":"บริษัท ปูนซิเมนต์นครหลวง จำกัด (มหาชน) โรงงาน 3","owner":"บริษัท ปูนซิเมนต์นครหลวง จำกัด (มหาชน)","displayRegistration":"3-101-3/44สบ","province":"สระบุรี","district":"แก่งคอย","subdistrict":"ทับกวาง","industryType":"ปรับคุณภาพของเสียรวม (บำบัดหรือกำจัดวัสดุที่ไม่ใช้แล้ว เช่น น้ำมันหล่อลื่นและยางรถยนต์ เป็นต้น โดยกระบวนการใช้ความร้อนด้วยการเผาในเตาเผาซีเมนต์","status":"ดำเนินกิจการ","lat":14.632696,"lon":101.076938},"20190400125444":{"id":"20190400125444","name":"โรงสีข้าวสหกรณ์การเกษตรเสาไห้ จำกัด","owner":"สหกรณ์การเกษตรเสาไห้ จำกัด","displayRegistration":"จ3-9(1)-1/44สบ","province":"สระบุรี","district":"เสาไห้","subdistrict":"เมืองเก่า","industryType":"สีข้าว (กำลังสีสุงสุด 95 เกวียน/วัน)","status":"หยุดชั่วคราว","lat":14.54782,"lon":100.8254},"20190000525449":{"id":"20190000525449","name":"พี.เอ็ม.ซี.คอนกรีตบล๊อก","owner":"นายสุพจน์ ฉัตรแก้วมณี","displayRegistration":"จ3-58(1)-5/44สบ","province":"สระบุรี","district":"หนองแค","subdistrict":"ไผ่ต่ำ","industryType":"ทำคอนกรีตบล๊อก","status":"ดำเนินกิจการ","lat":14.30347,"lon":100.82928},"10190100125456":{"id":"10190100125456","name":"บริษัท ซันเรนเดอร์ริ่ง จำกัด","owner":"บริษัท ซันเรนเดอร์ริ่ง จำกัด","displayRegistration":"3-15(2)-1/45สบ","province":"สระบุรี","district":"วังม่วง","subdistrict":"คำพราน","industryType":"ผลิตขนไก่ป่นเพื่อเป็นส่วนผสมอาหารสัตว์","status":"ดำเนินกิจการ","lat":14.79746,"lon":101.11806},"10190200125455":{"id":"10190200125455","name":"บริษัท สยามซานิทารีแวร์อินดัสทรี จำกัด","owner":"บริษัท สยามซานิทารีแวร์อินดัสทรี จำกัด","displayRegistration":"3-55-1/45สบ","province":"สระบุรี","district":"หนองแค","subdistrict":"โคกแย้","industryType":"ผลิตเครื่องสุขภัณฑ์","status":"ดำเนินกิจการ","lat":14.40579,"lon":100.90942},"20190200225451":{"id":"20190200225451","name":"ศูนย์รับน้ำนมดิบว (คลองไทร)","owner":"สหกรณ์โคนมมวกเหล็ก จำกัด","displayRegistration":"จ3-5(1)-2/45สบ","province":"สระบุรี","district":"มวกเหล็ก","subdistrict":"หนองย่างเสือ","industryType":"ถนอมน้ำนมดิบ","status":"ดำเนินกิจการ","lat":14.75456,"lon":101.2215},"20191300125450":{"id":"20191300125450","name":"ห้างหุ้นส่วนจำกัด เอส.พี.ที. เซอร์วิส","owner":"ห้างหุ้นส่วนจำกัด เอส.พี.ที.เซอร์วิส","displayRegistration":"จ3-53(9)-1/45สบ","province":"สระบุรี","district":"บ้านหมอ","subdistrict":"ตลาดน้อย","industryType":"ล้าง บด หรือย่อยพลาสติก และอัดเศษกระดาษ","status":"ดำเนินกิจการ","lat":14.6298,"lon":100.72639},"20190700125458":{"id":"20190700125458","name":"ห้างหุ้นส่วนจำกัด พัฒนกิจการฝ้าย","owner":"ห้างหุ้นส่วนจำกัด พัฒนกิจการฝ้าย","displayRegistration":"จ3-27(7)-1/45สบ","province":"สระบุรี","district":"หนองแค","subdistrict":"หนองปลาหมอ","industryType":"ทำใยจากเศษผ้าเศษฝ้าย","status":"ดำเนินกิจการ","lat":14.37941,"lon":100.85491},"10190600125451":{"id":"10190600125451","name":"บริษัท สยามเวสท์แมเนจเม้นท์ คอนซัลแทนท์ (เอเซี่ยน) จำกัด","owner":"บริษัท สยามเวสท์แมเนจเม้นท์ คอนซัลแทนท์ (เอเชี่ยน) จำกัด","displayRegistration":"3-105-1/45สบ","province":"สระบุรี","district":"หนองแค","subdistrict":"หนองปลาหมอ","industryType":"คัดแยก บด ย่อย อัด ผสมหรือแปรรูปของเสียหรือวัสดุที่ไม่ใช้แล้ว จากโรงงานขยายเพิ่มการประกอบกิจการทำวัสดุผสมจากของเสียประเภทต่าง ๆ (Blending) เพื่อใช้เป็นวัตถุดิบและเชื้อเพลิงผสม","status":"ดำเนินกิจการ","lat":14.38056,"lon":100.85509},"10190100225454":{"id":"10190100225454","name":"บริษัท ปูนซิเมนต์ไทย (ท่าหลวง) จำกัด โรงงานเขาวง","owner":"บริษัท ปูนซิเมนต์ไทย (ท่าหลวง) จำกัด","displayRegistration":"3-101-2/45สบ","province":"สระบุรี","district":"พระพุทธบาท","subdistrict":"เขาวง","industryType":"ปรับคุณภาพของเสียรวม (บำบัดหรือกำจัดวัสดุที่ไม่ใช้แล้ว เช่น น้ำมันหล่อลื่น ยางรถยนต์ ของเหลว เป็นต้น) โดยกระบวนการใช้ความร้อนด้วยการเผาในเตาเผาซีเมนต์","status":"ดำเนินกิจการ","lat":14.67805,"lon":100.85192},"20190200225444":{"id":"20190200225444","name":"ไทยสแตนดาร์ดไรซ์","owner":"นายฉัตรชัย ศิลาพร","displayRegistration":"จ3-9(1)-2/44สบ","province":"สระบุรี","district":"เฉลิมพระเกียรติ","subdistrict":"ห้วยบง","industryType":"สีข้าว (กำลังสีสูงสุดของร้านสีข้าว 25 เกวียน/วัน)","status":"ดำเนินกิจการ","lat":14.58252,"lon":100.90078},"20190000325451":{"id":"20190000325451","name":"ห้างหุ้นส่วนจำกัด โรงสีประเวสน์กิจไพศาล","owner":"ห้างหุ้นส่วนจำกัด โรงสีประเวสน์กิจไพศาล","displayRegistration":"จ3-9(1)-3/45สบ","province":"สระบุรี","district":"เสาไห้","subdistrict":"งิ้วงาม","industryType":"สีข้าว กำลังสีสูงสุด 120 เกวียน/วัน","status":"ดำเนินกิจการ","lat":14.58926,"lon":100.84668},"82180000125576":{"id":"82180000125576","name":"บริษัท ซันโทรี่ เป๊ปซี่โค เบเวอเรจ (ประเทศไทย) จำกัด","owner":"บริษัท ซันโทรี่ เป๊ปซี่โค เบเวอเรจ (ประเทศไทย) จำกัด","displayRegistration":"น.20(1)-1/2557-นนค.","province":"สระบุรี","district":"หนองแค","subdistrict":"หนองไข่น้ำ","industryType":"ผลิตน้ำดื่ม น้ำพืชผักผลไม้ น้ำอัดลม และเครื่องดื่มที่ไม่มีแอลกอฮอล์,ผลิตกระแสไฟฟ้าจากพลังงานแสงอาทิตย์ Solar Cell กำลังการผลิต 505.76 KWP. (เพื่อใช้ภายในโรงงาน)","status":"ดำเนินกิจการ","lat":14.390794402835,"lon":100.899226710947},"20190400325440":{"id":"20190400325440","name":"NULL","owner":"นายประสิทธิ ปลอดกระโทก","displayRegistration":"จ2-3(2)-3/44สบ","province":"สระบุรี","district":"แก่งคอย","subdistrict":"ทับกวาง","industryType":"ขุดดินเพื่อจำหน่าย","status":"ดำเนินกิจการ","lat":14.58156,"lon":101.13555},"20190000525456":{"id":"20190000525456","name":"ห้างหุ้นส่วนจำกัด คม เอ็นจิเนียริ่ง","owner":"ห้างหุ้นส่วนจำกัด คม เอ็นจิเนียริ่ง","displayRegistration":"จ3-64(13)-5/45สบ","province":"สระบุรี","district":"เฉลิมพระเกียรติ","subdistrict":"บ้านแก้ง","industryType":"การกลึง เจาะ คว้าน กัด ไส เจียน และเชื่อมดลหะทั่วไป","status":"ดำเนินกิจการ","lat":14.57682,"lon":100.95741},"20190300125452":{"id":"20190300125452","name":"อินพานิช","owner":"นางลำจวน อินพานิช","displayRegistration":"จ3-4(6)-1/45สบ","province":"สระบุรี","district":"วังม่วง","subdistrict":"คำพราน","industryType":"แกะเนื้อไก่","status":"ดำเนินกิจการ","lat":14.81886,"lon":101.12157},"10190000325453":{"id":"10190000325453","name":"บริษัท คอนวูด จำกัด","owner":"บริษัท คอนวูด จำกัด","displayRegistration":"3-58(1)-3/45สบ","province":"สระบุรี","district":"เมืองสระบุรี","subdistrict":"ตลิ่งชัน","industryType":"ผลิตภัณฑ์กระเบื้องซีเมนต์เส้นใย","status":"ดำเนินกิจการ","lat":14.55845,"lon":100.97191},"20190300425449":{"id":"20190300425449","name":"NULL","owner":"นางอำพร กุศลส่ง","displayRegistration":"จ2-3(2)-4/44สบ","province":"สระบุรี","district":"แก่งคอย","subdistrict":"ชะอม","industryType":"ขุดดินเพื่อจำหน่าย","status":"ดำเนินกิจการ","lat":14.41496,"lon":101.13697},"10190000125457":{"id":"10190000125457","name":"บริษัท ปิยะพรอินเตอร์เอโกรโลยี จำกัด","owner":"บริษัท ปิยะพรอินเตอร์เอโกร์โลยี จำกัด","displayRegistration":"3-2(8)-1/45สบ","province":"สระบุรี","district":"แก่งคอย","subdistrict":"ทับกวาง","industryType":"การเพาะเชื้อเห็ด","status":"ดำเนินกิจการ","lat":14.58529,"lon":101.08295},"72180000125503":{"id":"72180000125503","name":"บริษัท อายิโนะโมะโต๊ะเซลส์ (ประเทศไทย) จำกัด","owner":"บริษัท อายิโนะโมะโต๊ะเซลส์ (ประเทศไทย) จำกัด","displayRegistration":"น.12(2)-1/2550-ญนค.","province":"สระบุรี","district":"หนองแค","subdistrict":"โคกแย้","industryType":"ผลิตเครื่องดื่มตลอดจนผลิตภัณฑ์ที่มีกาแฟเป็นส่วนผสม เช่น กาแฟปรุงสำเร็จพร้อมดื่ม กาแฟสำเร็จรูป กาแฟสกัด กาแฟปรุงสำเร็จชนิดผง,ผลิตไฟฟ้าจากพลังงานแสงอาทิตย์(Solar Rooftop)ขนาด 1,998 กิโลวัตต์(สำหรับใช้ภายในโรงงาน)","status":"ดำเนินกิจการ","lat":14.3873697066618,"lon":100.913880097456},"72180000125578":{"id":"72180000125578","name":"บริษัท กรีนสปอต จำกัด","owner":"บริษัท กรีนสปอต จำกัด","displayRegistration":"น.8(1)-1/2557-ญนค.","province":"สระบุรี","district":"หนองแค","subdistrict":"หนองไข่น้ำ","industryType":"ผลิตเครื่องดื่มจากธัญพืช เช่น น้ำนมถั่วเหลือง","status":"ดำเนินกิจการ","lat":14.3873324143327,"lon":100.90408406862},"20190000225453":{"id":"20190000225453","name":"ส.เจริญวัฒนา","owner":"นายสุเทพ ดิบแดง","displayRegistration":"จ3-2(2)-2/45สบ","province":"สระบุรี","district":"วังม่วง","subdistrict":"คำพราน","industryType":"กระเทาะเมล็ดข้าวโพด","status":"หยุดชั่วคราว","lat":14.84275,"lon":101.11471},"20190200125461":{"id":"20190200125461","name":"โรงสีศรีนคร","owner":"นายเกรียงศักดิ์ นครน้อย","displayRegistration":"จ3-9(1)-1/46สบ","province":"สระบุรี","district":"บ้านหมอ","subdistrict":"บางโขมด","industryType":"สีข้าวชนิดแยกแกลบแยกรำ กำลังผลิตขนาด 30 เกวียน/วัน","status":"หยุดชั่วคราว","lat":14.57316,"lon":100.72657},"72180001725574":{"id":"72180001725574","name":"บริษัท สยามเพลเล็ทพาวเวอร์ จำกัด","owner":"บริษัท สยามเพลเล็ทพาวเวอร์ จำกัด","displayRegistration":"น.88-17/2557-ญนค.","province":"สระบุรี","district":"หนองแค","subdistrict":"โคกแย้","industryType":"ผลิตกระแสไฟฟ้ากำลังการผลิต 7.36 MW โดยใช้ก๊าซธรรมชาติเป็นเชื้อเพลิง","status":"ดำเนินกิจการ","lat":14.3922091983453,"lon":100.908835346493},"20190700225456":{"id":"20190700225456","name":"NULL","owner":"นางอาภรณ์ สุขอนานนท์","displayRegistration":"จ2-3(2)-2/45สบ","province":"สระบุรี","district":"แก่งคอย","subdistrict":"ทับกวาง","industryType":"ขุดดินเพื่อจำหน่าย","status":"ดำเนินกิจการ","lat":14.62146,"lon":101.1046},"20190500125468":{"id":"20190500125468","name":"ห้างหุ้นส่วนจำกัด สิงห์ทองไม้ไทย","owner":"ห้างหุ้นส่วนจำกัด สิงห์ทองไม้ไทย","displayRegistration":"จ3-36(1)-1/46สบ","province":"สระบุรี","district":"หนองแค","subdistrict":"หนองนาก","industryType":"ทำลังและชั้นรองจากไม้ยางพารา","status":"ดำเนินกิจการ","lat":14.44834,"lon":100.90123},"10190200125422":{"id":"10190200125422","name":"บริษัท ฟาร์มอีสท์ มาร์เบิล แอนด์ แกรนิต จำกัด","owner":"บริษัท ฟาร์อีสท์ มาร์เบิล แอนด์ แกรนิต จำกัด","displayRegistration":"3-58(3)-1/42สบ","province":"สระบุรี","district":"พระพุทธบาท","subdistrict":"พุคำจาน","industryType":"แปรรูปหินอ่อนและหินทุกชนิด","status":"ดำเนินกิจการ","lat":14.71046,"lon":100.83542},"20190800125465":{"id":"20190800125465","name":"ห้างหุ้นส่วนจำกัด เอกทวีคูณ","owner":"ห้างหุ้นส่วนจำกัด เอกทวีคูณ","displayRegistration":"จ3-43(1)-1/46สบ","province":"สระบุรี","district":"เฉลิมพระเกียรติ","subdistrict":"พุแค","industryType":"ผลิตปุ๋ยธรรมชาติ (ปุ๋ยอินทรีย์ชีวภาพ), ผลิตปุ๋ยเคมีชนิดผสม","status":"ดำเนินกิจการ","lat":14.64201,"lon":100.8811},"10190400125453":{"id":"10190400125453","name":"โรงงานปูนซีเมนต์บริษัท ทีพีไอ โพลีน จำกัด (มหาชน) (โรงที่ 4)","owner":"บริษัท ทีพีไอ โพลีน จำกัด (มหาชน)","displayRegistration":"3-57(1)-1/45สบ","province":"สระบุรี","district":"แก่งคอย","subdistrict":"ทับกวาง","industryType":"ผลิตปูนซิเมนต์ กำลังการผลิต 12,000 ตันต่อวัน","status":"ดำเนินกิจการ","lat":14.63929,"lon":101.13155},"20191900125454":{"id":"20191900125454","name":"ห้างหุ้นส่วนจำกัด ไทยพิพัฒน์ ซีเอส","owner":"บริษัท ไทยพิพัฒน์ ซีเอส จำกัด","displayRegistration":"จ3-92-1/45สบ","province":"สระบุรี","district":"เมืองสระบุรี","subdistrict":"ตลิ่งชัน","industryType":"ห้องเย็น โดยการเก็บรักษาพืชผลทางการเกษตร และเนื้อสัตว์แบบแช่เย็น และแช่แข็ง","status":"ดำเนินกิจการ","lat":14.53803,"lon":100.98228},"20190000725452":{"id":"20190000725452","name":"บริษัท โรงสีเอี่ยมเฮงล้ง(สระบุรี) จำกัด","owner":"บริษัท โรงสีเอี่ยมเฮงล้ง(สระบุรี) จำกัด","displayRegistration":"จ3-9(1)-7/45สบ","province":"สระบุรี","district":"พระพุทธบาท","subdistrict":"หนองแก","industryType":"สีข้าว(กำลังสีสูงสุดของร้านสีข้าว 300 เกวียน/วัน) อบและนึ่งข้าวเปลือก","status":"ดำเนินกิจการ","lat":14.70607,"lon":100.75435},"20190100225452":{"id":"20190100225452","name":"NULL","owner":"นางอัจฉรา ศรียานนท์","displayRegistration":"จ3-3(2)-2/45สบ","province":"สระบุรี","district":"แก่งคอย","subdistrict":"ทับกวาง","industryType":"ขุดดินเพื่อจำหน่าย","status":"ดำเนินกิจการ","lat":14.58153,"lon":101.1355},"20190100225460":{"id":"20190100225460","name":"บริษัท ออโรร่า เอ็กซ์ปอร์ต แอนด์ อิมปอร์ต จำกัด","owner":"บริษัท ออโรร่า เอ็กซ์ปอร์ต แอนด์ อิมปอร์ต จำกัด","displayRegistration":"จ3-9(1)-2/46สบ","province":"สระบุรี","district":"เสาไห้","subdistrict":"พระยาทด","industryType":"ขัข้าว (กำลังการผลิต 30 ตัน/วัน)","status":"ดำเนินกิจการ","lat":14.56431,"lon":100.86965},"20191400125467":{"id":"20191400125467","name":"บริษัท ไคลแอนท์ส จำกัด","owner":"บริษัท ไคลแอนท์ส จำกัด","displayRegistration":"จ3-64(13)-1/46สบ","province":"สระบุรี","district":"หนองแค","subdistrict":"ห้วยทราย","industryType":"ผลิตและซ่อมแซมอุปกรณ์ เครื่องมืออุตสาหกรรม","status":"ดำเนินกิจการ","lat":14.42429,"lon":100.90869},"20190700125466":{"id":"20190700125466","name":"บริษัท ที แอนด์ บี ไลม์ จำกัด","owner":"บริษัท ที แอนด์ บี ไลม์ จำกัด","displayRegistration":"จ3-42(1)-1/46สบ","province":"สระบุรี","district":"พระพุทธบาท","subdistrict":"ธารเกษม","industryType":"ผลิตสารสำหรับปรับปรุงคุณภาพน้ำ ดิน และใช้ผสมอาหารสัตว์ บดหินฟอสเฟต","status":"ดำเนินกิจการ","lat":14.73781,"lon":100.79244},"20191200125469":{"id":"20191200125469","name":"บริษัท ปูนขาวและแร่ จำกัด","owner":"บริษัท ปูนขาวและแร่ จำกัด","displayRegistration":"จ3-57(1)-1/46สบ","province":"สระบุรี","district":"แก่งคอย","subdistrict":"สองคอน","industryType":"ผลิตปูนขาว","status":"ดำเนินกิจการ","lat":14.64135,"lon":100.96277},"10190100325452":{"id":"10190100325452","name":"บริษัท ปูนซิเมนต์ไทย (ท่าหลวง) จำกัด โรงงานท่าหลวง","owner":"บริษัท ปูนซิเมนต์ไทย (ท่าหลวง) จำกัด","displayRegistration":"3-101-3/45สบ","province":"สระบุรี","district":"บ้านหมอ","subdistrict":"บ้านครัว","industryType":"ปรับคุณภาพของเสียรวม เช่น น้ำมันหล่อลื่น ยางรถยนต์ ของเหลว เป็นต้น โดยกระบวนการใช้ความร้อนด้วยการเผาในเตาเผาซีเมนต์","status":"ดำเนินกิจการ","lat":14.57656,"lon":100.7666},"20190300225468":{"id":"20190300225468","name":"สระบุรีคอนกรีต","owner":"นายธีระพงษ์ จองหยิน","displayRegistration":"จ3-58(1)-2/46สบ","province":"สระบุรี","district":"พระพุทธบาท","subdistrict":"พุคำจาน","industryType":"ทำท่อระบายน้ำคอนกรีต,คอนกรีตบล็อก,เสาคอนกรีต","status":"ดำเนินกิจการ","lat":14.756525,"lon":100.840282},"20190000525464":{"id":"20190000525464","name":"บริษัท ไทยควอลีตี้ เกรน จำกัด","owner":"บริษัท ไทยควอลิตี้ เกรน จำกัด","displayRegistration":"จ3-9(1)-5/46สบ","province":"สระบุรี","district":"วิหารแดง","subdistrict":"บ้านลำ","industryType":"ขัดข้าว","status":"ดำเนินกิจการ","lat":14.37578,"lon":100.95976},"20190000125463":{"id":"20190000125463","name":"บริษัท ห้าพลังค้าแร่ จำกัด","owner":"นายสมคิด รุจิจิตร","displayRegistration":"จ3-3(2)-1/46สบ","province":"สระบุรี","district":"แก่งคอย","subdistrict":"ทับกวาง","industryType":"ขุดดินเพื่อจำหน่าย","status":"ดำเนินกิจการ","lat":14.58948,"lon":101.03877},"20190300125460":{"id":"20190300125460","name":"ห้างหุ้นส่วนจำกัด วังม่วงเอ็นเตอร์ไพรส์","owner":"ห้างหุ้นส่วนจำกัด วังม่วงเอ็นเตอร์ไพรส์","displayRegistration":"จ3-14-1/46สบ","province":"สระบุรี","district":"วังม่วง","subdistrict":"คำพราน","industryType":"ทำน้ำแข็งวัน 400 ซอง และทำน้ำแข็งก้อนเล็กวันละ 20 ตัน","status":"ดำเนินกิจการ","lat":14.83665,"lon":101.12309},"20191100125460":{"id":"20191100125460","name":"ห้างหุ้นส่วนจำกัด โยรินเทรดดิ้ง","owner":"ห้างหุ้นส่วนจำกัด โยรินเทรดดิ้ง","displayRegistration":"จ3-55-1/46สบ","province":"สระบุรี","district":"พระพุทธบาท","subdistrict":"ห้วยป่าหวาย","industryType":"ผสมดินเซรามิค","status":"ดำเนินกิจการ","lat":14.64028,"lon":100.81321},"20190400225467":{"id":"20190400225467","name":"ห้างหุ้นส่วนจำกัด ไทย มิชชั่น เอ็นจิเนียร์ริ่ง","owner":"ห้างหุ้นส่วนจำกัด ไทย มิสชั่น เอ็นจิเนียร์ริ่ง","displayRegistration":"จ3-64(13)-2/46สบ","province":"สระบุรี","district":"หนองแค","subdistrict":"บัวลอย","industryType":"ซ่อมเครื่องจักร กลึง เจาะ ไส เจียน เชื่อมโลหะทั่วไป และทำเหล็กดัด รวมทั้งโครงสร้างเหล็กทุกชนิด","status":"ดำเนินกิจการ","lat":14.40269,"lon":100.84216},"20191700125464":{"id":"20191700125464","name":"บริษัท ไดเซล เซฟตี้ ซีสเต็มส์ (ประเทศไทย) จำกัด","owner":"บริษัท ไดเซล เซฟตี้ ซีสเต็มส์ (ประเทศไทย) จำกัด","displayRegistration":"จ3-77(2)-1/46สบ","province":"สระบุรี","district":"พระพุทธบาท","subdistrict":"พุคำจาน","industryType":"ผลิตอุปกรณ์ อะไหล่ ชิ้นส่วนและส่วนประกอบรถยนต์","status":"ดำเนินกิจการ","lat":14.77986,"lon":100.85029},"20191000125461":{"id":"20191000125461","name":"บริษัท เบสโก แอนด์ ซี จำกัด","owner":"บริษัท เบสโก แอนด์ ซี จำกัด","displayRegistration":"จ3-53(1)-1/46สบ","province":"สระบุรี","district":"หนองแค","subdistrict":"หนองไข่น้ำ","industryType":"รับจ้างผลิตชิ้นส่วนอะไหล่และอุปกรณ์พลาสติก และส่วนประกอบที่เกี่ยวกับเครื่องใช้ไฟฟ้า","status":"ดำเนินกิจการ","lat":14.35398,"lon":100.87371},"20190900125456":{"id":"20190900125456","name":"บริษัท กุนธัต (ประเทศไทย) จำกัด","owner":"บริษัท กุนธัต (ประเทศไทย) จำกัด","displayRegistration":"จ3-39-1/45สบ","province":"สระบุรี","district":"หนองแค","subdistrict":"หนองแค","industryType":"ผลิตกล่องกระดาษและพิมพ์สิ่งพิมพ์ต่างๆ","status":"ดำเนินกิจการ","lat":14.33952,"lon":100.85845},"20190900125464":{"id":"20190900125464","name":"บริษัท ฉัตรชัยแพทย์แผนโบราณ จำกัด","owner":"บริษัท ฉัตรชัยแพทย์แผนโบราณ จำกัด","displayRegistration":"จ3-46(2)-1/46สบ","province":"สระบุรี","district":"หนองแค","subdistrict":"ห้วยขมิ้น","industryType":"ผลิตและจัดจำหน่าย ยแผนโบราณ ยาสมุนไพร เครื่องดื่มสมุนไพร อาหารเสริม เครื่องสำอางค์ อาหารสัตว์ ยาสมุนไพรสำหรับสัตว์","status":"ดำเนินกิจการ","lat":14.40698,"lon":100.87536},"20190000925300":{"id":"20190000925300","name":"NULL","owner":"นางสาวทิพมาศ กวางทอง","displayRegistration":"จ2-3(2)-9/30สบ","province":"สระบุรี","district":"แก่งคอย","subdistrict":"ชะอม","industryType":"ขุดดินเพื่อจำหน่าย","status":"ดำเนินกิจการ","lat":14.40208,"lon":101.12435},"20190001025381":{"id":"20190001025381","name":"NULL","owner":"นายประเวช เจียมตระกูล","displayRegistration":"จ2-3(2)-10/38สบ","province":"สระบุรี","district":"แก่งคอย","subdistrict":"ชำผักแพว","industryType":"ขุดดินเพื่อจำหน่าย","status":"ดำเนินกิจการ","lat":14.52938,"lon":101.08286},"20190001025399":{"id":"20190001025399","name":"บ่อกระเหรี่ยง","owner":"นายบุญมี เมืองนก","displayRegistration":"จ2-3(2)-10/39สบ","province":"สระบุรี","district":"แก่งคอย","subdistrict":"ชะอม","industryType":"ขุดดินลูกรังเพื่อจำหน่าย","status":"ดำเนินกิจการ","lat":14.40959,"lon":101.11849},"20190001125389":{"id":"20190001125389","name":"NULL","owner":"ร.ต.ต.ดำรงฤทธิ์ ทรัพย์กุญชร","displayRegistration":"จ2-3(2)-11/38สบ","province":"สระบุรี","district":"แก่งคอย","subdistrict":"ชะอม","industryType":"ขุดดินเพื่อจำหน่าย","status":"ดำเนินกิจการ","lat":14.40469,"lon":101.11839},"20190001225395":{"id":"20190001225395","name":"NULL","owner":"นายกิตติพร ทองโสภณ","displayRegistration":"จ2-3(2)-12/39สบ","province":"สระบุรี","district":"เฉลิมพระเกียรติ","subdistrict":"พุแค","industryType":"ขุดดินเพื่อจำหน่าย","status":"ดำเนินกิจการ","lat":14.68668,"lon":100.92607},"20190900125381":{"id":"20190900125381","name":"NULL","owner":"บริษัท หนองแคบ้านและที่ดิน จำกัด","displayRegistration":"จ2-3(2)-1/38สบ","province":"สระบุรี","district":"แก่งคอย","subdistrict":"ทับกวาง","industryType":"ขุดดินลูกรัง","status":"ดำเนินกิจการ","lat":14.58003,"lon":101.09947},"20190200225410":{"id":"20190200225410","name":"NULL","owner":"นายวรวิทย์ พงศกร","displayRegistration":"จ2-3(2)-2/41สบ","province":"สระบุรี","district":"มวกเหล็ก","subdistrict":"มิตรภาพ","industryType":"ขุดดินเพื่อจำหน่าย","status":"ดำเนินกิจการ","lat":14.62953,"lon":101.17353},"20190100325385":{"id":"20190100325385","name":"บ่อดินดาวน้อย","owner":"นายน้อย พานสัมฤทธิ์","displayRegistration":"จ2-3(2)-3/38สบ","province":"สระบุรี","district":"แก่งคอย","subdistrict":"ชะอม","industryType":"ขุดดินเพื่อจำหน่าย","status":"ดำเนินกิจการ","lat":14.39949,"lon":101.13109},"20190300325391":{"id":"20190300325391","name":"NULL","owner":"นายฉอ้อน สง่างาม","displayRegistration":"จ2-3(2)-3/39สบ","province":"สระบุรี","district":"แก่งคอย","subdistrict":"ห้วยแห้ง","industryType":"ขุดดินและลูกรังเพื่อจำหน่าย","status":"ดำเนินกิจการ","lat":14.4952,"lon":101.02019},"20190100325419":{"id":"20190100325419","name":"NULL","owner":"นายวรวิทย์ พงศกร","displayRegistration":"จ2-3(2)-3/41สบ","province":"สระบุรี","district":"มวกเหล็ก","subdistrict":"มิตรภาพ","industryType":"ขุดดินลูกรังเพื่อจำหน่าย","status":"ดำเนินกิจการ","lat":14.62953,"lon":101.17353},"20190100425391":{"id":"20190100425391","name":"NULL","owner":"นายวีระ รักษาภัย","displayRegistration":"จ2-3(2)-4/39สบ","province":"สระบุรี","district":"แก่งคอย","subdistrict":"ทับกวาง","industryType":"ขุดดินเพื่อจำหน่าย","status":"ดำเนินกิจการ","lat":14.61137,"lon":101.09197},"20190000425418":{"id":"20190000425418","name":"ห้างหุ้นส่วนจำกัด เนตรปรีชาก่อสร้าง","owner":"นายนิลา เนตรปรีชา","displayRegistration":"จ2-3(2)-4/41สบ","province":"สระบุรี","district":"แก่งคอย","subdistrict":"สองคอน","industryType":"ขุดดิน","status":"ดำเนินกิจการ","lat":14.63603,"lon":100.98574},"20190000425426":{"id":"20190000425426","name":"NULL","owner":"นายเย็น เกิดชนะ","displayRegistration":"จ2-3(2)-4/42สบ","province":"สระบุรี","district":"พระพุทธบาท","subdistrict":"ธารเกษม","industryType":"ขุดดิน","status":"ดำเนินกิจการ","lat":14.78207,"lon":100.82314},"20190500325464":{"id":"20190500325464","name":"บริษัท ทีคิวซี พรีซิชั่นแมชชีนนิ่ง จำกัด","owner":"บริษัท ทีคิวซี พรีซิชั่น แมชชีนนิ่ง จำกัด","displayRegistration":"จ3-77(2)-3/46สบ","province":"สระบุรี","district":"หนองแค","subdistrict":"หนองนาก","industryType":"ผลิตแม่พิมพ์รถยนต์และชิ้นส่วนอุปกรณ์รถยนต์ทุกชนิด","status":"ดำเนินกิจการ","lat":14.44969,"lon":100.9008},"20191300125468":{"id":"20191300125468","name":"บริษัท คอสเปกซ์ จำกัด","owner":"บริษัท คอสเปกซ์ จำกัด","displayRegistration":"จ3-63(2)-1/46สบ","province":"สระบุรี","district":"แก่งคอย","subdistrict":"บ้านป่า","industryType":"ทำผลิตภัณฑ์จากโลหะแผ่น","status":"ดำเนินกิจการ","lat":14.58362,"lon":101.01189},"20190000425467":{"id":"20190000425467","name":"บริษัท โรงสีรุ่งโรจน์ จำกัด","owner":"บริษัท โรงสีรุ่งโรจน์ จำกัด","displayRegistration":"จ3-2(1)-4/46สบ","province":"สระบุรี","district":"หนองแซง","subdistrict":"หนองกบ","industryType":"อบข้าวเปลือก","status":"ดำเนินกิจการ","lat":14.43352,"lon":100.7745},"20190001325393":{"id":"20190001325393","name":"บ่อลูกรังพิมานทิพย์","owner":"นายโสรยา คงสายสินธุ์","displayRegistration":"จ2-3(2)-13/39สบ","province":"สระบุรี","district":"แก่งคอย","subdistrict":"ชะอม","industryType":"ขุดดินลูกรังเพื่อจำหน่าย","status":"ดำเนินกิจการ","lat":14.42051,"lon":101.09426},"20190100525406":{"id":"20190100525406","name":"NULL","owner":"นายจรัญ สีลานันท์","displayRegistration":"จ2-3(2)-5/40สบ","province":"สระบุรี","district":"เฉลิมพระเกียรติ","subdistrict":"หน้าพระลาน","industryType":"ขุดดินลูกรังเพื่อจำหน่าย","status":"ดำเนินกิจการ","lat":14.70013,"lon":100.92305},"20190000625413":{"id":"20190000625413","name":"R.S.K","owner":"นายณรงค์ โคตรสมบัติ","displayRegistration":"จ2-3(2)-6/41สบ","province":"สระบุรี","district":"แก่งคอย","subdistrict":"ชำผักแพว","industryType":"ขุดดินเพื่อจำหน่าย","status":"ดำเนินกิจการ","lat":14.52394,"lon":101.07983},"20191800125463":{"id":"20191800125463","name":"ห้างหุ้นส่วนจำกัด เขมรัฐวิศวกรรม","owner":"ห้างหุ้นส่วนจำกัด เขมรัฐวิศวกรรม","displayRegistration":"จ3-100(4)-1/46สบ","province":"สระบุรี","district":"หนองแค","subdistrict":"บัวลอย","industryType":"ขัดโลหะ","status":"ดำเนินกิจการ","lat":14.40244,"lon":100.84304},"20190200225469":{"id":"20190200225469","name":"บริษัท ศิลาผาแดง จำกัด","owner":"บริษัท ศิลาผาแดง จำกัด","displayRegistration":"จ3-36(1)-2/46สบ","province":"สระบุรี","district":"แก่งคอย","subdistrict":"ห้วยแห้ง","industryType":"ทำพาเลทและลังไม้","status":"ดำเนินกิจการ","lat":14.49451,"lon":100.99787},"20191600125465":{"id":"20191600125465","name":"ห้างหุ้นส่วนจำกัด ยู.เอส.อี.ไทยไฮดรอลิค","owner":"ห้างหุ้นส่วนจำกัด ยู.เอส.อี.ไทยไฮดรอลิค","displayRegistration":"จ3-68-1/46สบ","province":"สระบุรี","district":"หนองแค","subdistrict":"โคกแย้","industryType":"ผลิตและซ่อมแซมเครื่องจักรสำหรับอุตสาหกรรม รวมทั้งอุปกรณ์ต่าง ๆ","status":"ดำเนินกิจการ","lat":14.39224,"lon":100.93694},"20190400325465":{"id":"20190400325465","name":"บริษัท แมชชีน ออโต้ พาร์ท จำกัด","owner":"บริษัท แมชชิน ออโต้ พาร์ท จำกัด","displayRegistration":"จ3-64(13)-3/46สบ","province":"สระบุรี","district":"พระพุทธบาท","subdistrict":"ธารเกษม","industryType":"กลึง เจาะ คว้าน กัด ไส และ เจียร และเชื่อมโลหะทั่วไป","status":"ดำเนินกิจการ","lat":14.73337,"lon":100.79766},"20190000225461":{"id":"20190000225461","name":"บริษัท โรงสีไฟไทยธัญญะรุ่งเรือง จำกัด","owner":"บริษัท โรงสีไฟไทยธัญญะรุ่งเรือง จำกัด","displayRegistration":"จ3-2(1)-2/46สบ","province":"สระบุรี","district":"หนองโดน","subdistrict":"บ้านกลับ","industryType":"อบข้าว","status":"ดำเนินกิจการ","lat":14.72096,"lon":100.67948},"20190000425384":{"id":"20190000425384","name":"NULL","owner":"น.อ.พุฑฒิ มังคละพฤกษ์","displayRegistration":"จ2-3(2)-4/38สบ","province":"สระบุรี","district":"มวกเหล็ก","subdistrict":"มวกเหล็ก","industryType":"ขุดดิน","status":"ดำเนินกิจการ","lat":14.71208,"lon":101.15635},"20191700125456":{"id":"20191700125456","name":"ห้างหุ้นส่วนจำกัด สำราญการช่าง","owner":"ห้างหุ้นส่วนจำกัด สำราญการช่าง","displayRegistration":"จ3-67(8)-1/45สบ","province":"สระบุรี","district":"หนองแค","subdistrict":"ห้วยขมิ้น","industryType":"ซ่อมแซมเครื่องจักร และกลึง เชื่อมโหละ","status":"ดำเนินกิจการ","lat":14.40584,"lon":100.88636},"91040000125407":{"id":"91040000125407","name":"บริษัท สยามอุตสาหกรรมยิปซั่ม (สระบุรี) จำกัด","owner":"บริษัท สยามอุตสาหกรรมยิปซั่ม (สระบุรี) จำกัด","displayRegistration":"ข3-58(1)-1/40สบ","province":"สระบุรี","district":"หนองแค","subdistrict":"บัวลอย","industryType":"ผลิตแผ่นยิปซั่ม","status":"ดำเนินกิจการ","lat":14.37528,"lon":100.83647},"20190000425475":{"id":"20190000425475","name":"บริษัท พีราเท็กซ์ อินเตอร์เนชั่นแนล จำกัด","owner":"บริษัท พีราเท็กซ์ อินเตอร์เนชั่นแนล จำกัด","displayRegistration":"จ3-48(3)-4/47สบ","province":"สระบุรี","district":"หนองแค","subdistrict":"หนองปลิง","industryType":"ทำผลิตภัณฑ์เคมีเคลือบแข็งเส้นด้ายยืน","status":"ดำเนินกิจการ","lat":14.38505,"lon":100.83239},"20190003325474":{"id":"20190003325474","name":"บริษัท พี.ซี.ไอ.คอนกรีตอุตสาหกรรม จำกัด","owner":"บริษัท พี.ซี.ไอ.คอนกรีตอุตสาหกรรม จำกัด","displayRegistration":"จ3-58(1)-33/47สบ","province":"สระบุรี","district":"หนองแค","subdistrict":"ห้วยทราย","industryType":"เสาเข็มคอนกรีต แผ่นพื้นคอนกรีต คานคอนกรีต","status":"ดำเนินกิจการ","lat":14.43507,"lon":100.89641},"20190200325475":{"id":"20190200325475","name":"บริษัท สระบุรีแกรนิต จำกัด","owner":"บริษัท สระบุรีแกรนิต จำกัด","displayRegistration":"จ3-58(3)-3/47สบ","province":"สระบุรี","district":"เมืองสระบุรี","subdistrict":"ตลิ่งชัน","industryType":"ทำผลิตภัณฑ์จากหิน","status":"ดำเนินกิจการ","lat":14.54583,"lon":100.96054},"10190001425476":{"id":"10190001425476","name":"บริษัท พุทธบาทหินอ่อนและแกรนิต จำกัด","owner":"บริษัท พุทธบาทหินอ่อนและแกรนิต จำกัด","displayRegistration":"3-58(3)-14/47สบ","province":"สระบุรี","district":"พระพุทธบาท","subdistrict":"พุคำจาน","industryType":"แปรรูปหินอ่อนและแกรนิต","status":"ดำเนินกิจการ","lat":14.71617,"lon":100.82327},"82180200125566":{"id":"82180200125566","name":"บริษัท ซิก้า (ประเทศไทย) จำกัด","owner":"บริษัท ซิก้า (ประเทศไทย) จำกัด","displayRegistration":"น.57(3)-1/2556-นนค.","province":"สระบุรี","district":"หนองแค","subdistrict":"โคกแย้","industryType":"ผลิตผลิตภัณฑ์จากซีเมนต์ (มอร์ต้า) และเคมีภัณฑ์สำหรับงานก่อสร้าง และผลิตกระแสไฟฟ้าจากพลังงานแสงอาทิตย์กำลังการผลิต 427.7 กิโลวัตต์ เพื่อใช้ในโรงงาน","status":"ดำเนินกิจการ","lat":14.3902868111689,"lon":100.918495897456},"20190100425466":{"id":"20190100425466","name":"บริษัท เอ.เอส.แมคเคมิคอล แอนด์ รีแฟคทอรี่ จำกัด","owner":"บริษัท เอ.เอส.แมคเคมิคอล แอนด์ รีแฟคทอรี่ จำกัด","displayRegistration":"จ3-58(1)-4/46สบ","province":"สระบุรี","district":"เสาไห้","subdistrict":"เริงราง","industryType":"ผลิตชิ้นส่วนเตาจากคอนกรีต ทำโครงสร้างเหล็ก และชิ้นส่วนเครื่องจักรต่าง ๆ","status":"ดำเนินกิจการ","lat":14.56833,"lon":100.7854},"20190008225471":{"id":"20190008225471","name":"ห้างหุ้นส่วนจำกัด เอช.บี.พี.เทรดดิ้ง","owner":"ห้างหุ้นส่วนจำกัด เอช.บี.พี.เทรดดิ้ง","displayRegistration":"จ3-36(1)-82/47สบ","province":"สระบุรี","district":"วิหารแดง","subdistrict":"เจริญธรรม","industryType":"ทำลังไม้และพาเลท","status":"ดำเนินกิจการ","lat":14.38354,"lon":101.00277},"20190013725473":{"id":"20190013725473","name":"บริษัท ทีทีวี คอนกรีต จำกัด","owner":"บริษัท ทีทีวี คอนกรีต จำกัด","displayRegistration":"จ3-58(1)-137/47สบ","province":"สระบุรี","district":"เสาไห้","subdistrict":"พระยาทด","industryType":"ทำผลิตภัณฑ์คอนกรีตผสมเสร็จ","status":"ดำเนินกิจการ","lat":14.59569,"lon":100.87658},"20190000325386":{"id":"20190000325386","name":"บริษัท นิยมชัยรวมขนส่ง จำกัด","owner":"บริษัท นิยมชัยรวมขนส่ง จำกัด","displayRegistration":"จ3-50(4)-3/38สบ","province":"สระบุรี","district":"พระพุทธบาท","subdistrict":"พุคำจาน","industryType":"ผลิตและจำหน่ายแอสฟัลท์ติคคอนกรีต","status":"ดำเนินกิจการ","lat":14.75551,"lon":100.9089},"10190100125191":{"id":"10190100125191","name":"บริษัท อุตสาหกรรมสหธัญญพืช จำกัด","owner":"บริษัท อุตสาหกรรมสหธัญญพืช จำกัด","displayRegistration":"3-23(2)-1/19สบ","province":"สระบุรี","district":"เสาไห้","subdistrict":"เมืองเก่า","industryType":"ผลิตเชือกป่านได้ 960,000 กิโลกรัมต่อเดือน, กระสอบป่านได้ 1,750,000 ใบต่อเดือน กระสอบพลาสติกได้ 1,000,000 ใบต่อเดือน และถุงกระดาษได้ 4,000,000 ใบต่อเดือน","status":"ดำเนินกิจการ","lat":14.54244,"lon":100.88159},"10190100125159":{"id":"10190100125159","name":"บริษัท ปูนซีเมนต์ไทย (แก่งคอย) จำกัด","owner":"บริษัท ปูนซีเมนต์ไทย (แก่งคอย) จำกัด","displayRegistration":"3-57(1)-1/15สบ","province":"สระบุรี","district":"แก่งคอย","subdistrict":"บ้านป่า","industryType":"ผลิตปูนซิเมนต์ กำลังผลิต 8.700 ตัน/วัน","status":"ดำเนินกิจการ","lat":14.64004,"lon":101.03181},"10190000325354":{"id":"10190000325354","name":"บริษัท ไทล์ ท้อป อินดัสตรี้ จำกัด(มหาชน)","owner":"บริษัท ไทล์ ท้อป อินดัสตรี้ จำกัด (มหาชน)","displayRegistration":"3-55-3/35สบ","province":"สระบุรี","district":"หนองแค","subdistrict":"หนองไข่น้ำ","industryType":"ผลิตผลิตภัณฑ์เครื่องเคลือบดินเผา เช่น กระเบื้องเซรามิค","status":"ดำเนินกิจการ","lat":14.36679,"lon":100.87807},"20190000325352":{"id":"20190000325352","name":"ห้างหุ้นส่วนจำกัด ธนโชติธัญญวณิก","owner":"ห้างหุ้นส่วนจำกัด ธนโชติธัญญวณิก","displayRegistration":"จ3-9(1)-3/35สบ","province":"สระบุรี","district":"หนองแซง","subdistrict":"เขาดิน","industryType":"สีข้าว ชนิดแยกแกลบแยกรำ กำลังสีสูงสุดของร้านสีข้าว 40 เกวียน","status":"ดำเนินกิจการ","lat":14.51488,"lon":100.84668},"20190000325337":{"id":"20190000325337","name":"โรงสีข้าวศรีปทุม","owner":"นายแสงชัย ศรีมงคลปทุม","displayRegistration":"จ3-9(1)-3/33สบ","province":"สระบุรี","district":"พระพุทธบาท","subdistrict":"นายาว","industryType":"สีข้าว กำลังสีสูงสุดของร้านสีข้าว 15 เกวียน/วัน","status":"หยุดชั่วคราว","lat":14.74737,"lon":100.75277},"10190000725470":{"id":"10190000725470","name":"บริษัท ทีพีไอ โพลีน จำกัด (มหาชน)","owner":"บริษัท ทีพีไอ โพลีน จำกัด (มหาชน)","displayRegistration":"3-57(3)-7/47สบ","province":"สระบุรี","district":"แก่งคอย","subdistrict":"ทับกวาง","industryType":"ผลิตปูนสำเร็จ","status":"ดำเนินกิจการ","lat":14.63627,"lon":101.11389},"20190100725477":{"id":"20190100725477","name":"พ.พระบาทยนตรการ","owner":"ห้างหุ้นส่วนจำกัด พ.พระบาทยนตรการ","displayRegistration":"จ3-95(1)-7/47สบ","province":"สระบุรี","district":"พระพุทธบาท","subdistrict":"พุคำจาน","industryType":"เคาะพ่นสีรถยนต์","status":"ดำเนินกิจการ","lat":14.7166,"lon":100.81751},"20190200125479":{"id":"20190200125479","name":"บริษัท โรยัลโคเปนเฮเกน(ประเทศไทย) จำกัด","owner":"บริษัท โรยัลโคเปนเฮเกน(ประเทศไทย) จำกัด","displayRegistration":"จ3-100(1)-1/47สบ","province":"สระบุรี","district":"หนองแค","subdistrict":"หนองปลิง","industryType":"ออกแบบ ตกแต่ง พิมพ์ เขียน วาด ระบายสี เพ้นท์สี เคลือบสี เคลือบเงา บนเครื่องกระเบื้อง เครื่องดินเผา เซรามิค พอร์ซเลน เครื่องถ้วยชาม เครื่องลายคราม และภาชนะทุกชนิดทุกประเภท","status":"ดำเนินกิจการ","lat":14.35125,"lon":100.83102},"10190003525471":{"id":"10190003525471","name":"ห้างหุ้นส่วนจำกัด พืชสุวรรณรุ่งเรือง","owner":"ห้างหุ้นส่วนจำกัด พืชสุวรรณรุ่งเรือง","displayRegistration":"3-9(1)-35/47สบ","province":"สระบุรี","district":"บ้านหมอ","subdistrict":"บางโขมด","industryType":"สีข้าว (กำลังสีสูงสุดของร้านสีข้าว 500 เกวียน/วัน)","status":"ดำเนินกิจการ","lat":14.58824,"lon":100.71733},"20190013125476":{"id":"20190013125476","name":"บูรณะชีพ","owner":"นายนเรศ อินทปัตย์","displayRegistration":"จ3-3(2)-131/47สบ","province":"สระบุรี","district":"แก่งคอย","subdistrict":"ท่าคล้อ","industryType":"การขุดกรวด ดิน","status":"ดำเนินกิจการ","lat":14.69189,"lon":100.97075},"20190008325479":{"id":"20190008325479","name":"บริษัท สยามซีแพคบล็อค จำกัด","owner":"บริษัท สยามซีแพคบล็อค จำกัด","displayRegistration":"จ3-58(1)-83/47สบ","province":"สระบุรี","district":"หนองแค","subdistrict":"บัวลอย","industryType":"ผลิตบล็อคปูถนน","status":"ดำเนินกิจการ","lat":14.38758,"lon":100.82972},"20190000325477":{"id":"20190000325477","name":"บริษัท เอ็นทีอาร์ นันวูเว่น จำกัด","owner":"บริษัท เอ็น ที อาร์ นัน วูเว่น จำกัด","displayRegistration":"จ3-27(3)-3/47สบ","province":"สระบุรี","district":"หนองแค","subdistrict":"หนองปลาหมอ","industryType":"ผลิตแผ่นกันความร้อนและแสงจากใยผ้า","status":"ดำเนินกิจการ","lat":14.37965,"lon":100.85526},"20190010225477":{"id":"20190010225477","name":"บริษัท ส.บำรุง จำกัด","owner":"บริษัท ส.บำรุง จำกัด","displayRegistration":"จ3-64(13)-102/47สบ","province":"สระบุรี","district":"แก่งคอย","subdistrict":"เตาปูน","industryType":"กลึงและเชื่อมโลหะทั่วไปและทำโครงสร้างเหล็กทุกชนิด","status":"ดำเนินกิจการ","lat":14.57763,"lon":100.96107},"10190004725476":{"id":"10190004725476","name":"บริษัท ชัยทิพย์ จำกัด","owner":"บริษัท ชัยทิพย์ จำกัด","displayRegistration":"3-9(1)-47/47สบ","province":"สระบุรี","district":"หนองแค","subdistrict":"ไผ่ต่ำ","industryType":"ปรับปรุงคุณภาพข้าวสาร","status":"ดำเนินกิจการ","lat":14.30875,"lon":100.83291},"20190001825475":{"id":"20190001825475","name":"โรงงานรีดลวดบริษัทอิตาเลี่ยนไทย","owner":"บริษัท อิตาเลียนไทย ดีเวล๊อปเมนต์ จำกัด (มหาชน)","displayRegistration":"จ3-59-18/47สบ","province":"สระบุรี","district":"วิหารแดง","subdistrict":"วิหารแดง","industryType":"รีดลวด","status":"ดำเนินกิจการ","lat":14.32581,"lon":100.98414},"20190000925474":{"id":"20190000925474","name":"บริษัท อิมเม็กซ์ อินเตอร์เนชั่นแนล จำกัด","owner":"บริษัท อิมเม็กซ์ อินเตอร์เนชั่นแนล จำกัด","displayRegistration":"จ3-100(1)-9/47สบ","province":"สระบุรี","district":"วิหารแดง","subdistrict":"บ้านลำ","industryType":"ตกแต่งลวดลายกระเบื้องบุผนังและกระจก","status":"ดำเนินกิจการ","lat":14.37017,"lon":100.96637},"10190100125472":{"id":"10190100125472","name":"บริษัท ไทยกระเบื้องหลังคา จำกัด","owner":"บริษัท ไทยกระเบื้องหลังคา จำกัด","displayRegistration":"3-58(5)-1/47สบ","province":"สระบุรี","district":"เมืองสระบุรี","subdistrict":"นาโฉง","industryType":"ทำผลิตภัณฑ์สำหรับอาคารจากเส้นใยหินผสมซีเมนต์","status":"ดำเนินกิจการ","lat":14.36343,"lon":100.97384},"20190400325457":{"id":"20190400325457","name":"NULL","owner":"นายพิมาน ศิริประภาษมงคล","displayRegistration":"จ2-3(2)-3/45สบ","province":"สระบุรี","district":"แก่งคอย","subdistrict":"ชะอม","industryType":"ขุดดินเพื่อจำหน่าย","status":"ดำเนินกิจการ","lat":14.41496,"lon":101.13697},"10190100125464":{"id":"10190100125464","name":"บริษัท เวสท์ รีโคเวอรี่ จำกัด","owner":"บริษัท เวสท์ รีโคเวอรี่ จำกัด","displayRegistration":"3-106-1/46สบ","province":"สระบุรี","district":"แก่งคอย","subdistrict":"ตาลเดี่ยว","industryType":"ทำน้ำมันผสมสีทาบ้านจากน้ำมันใช้แล้ว ซ่อมและล้างบรรจุภัณฑ์ด้วยตัวทำละลาย นำตัวทำละลายใช้แล้วผ่านกรรมวิธีการทางอุตสาหกรรม เพื่อนำกลับมาใช้ประโยชน์ใหม่ เป็นเชื้อเพลิงทดแทนและรีไซเคิลไส้กรองน้ำมัน","status":"ดำเนินกิจการ","lat":14.5541,"lon":100.9806},"20190000625389":{"id":"20190000625389","name":"NULL","owner":"นายทองดี จามากุล","displayRegistration":"จ2-3(2)-6/38สบ","province":"สระบุรี","district":"เฉลิมพระเกียรติ","subdistrict":"หน้าพระลาน","industryType":"ขุดดิน","status":"ดำเนินกิจการ","lat":14.6959,"lon":100.8566},"20190200125404":{"id":"20190200125404","name":"บริษัท มิตรภาพน้ำดื่ม จำกัด","owner":"นางวรรนิภา สุนทรวัฒน์","displayRegistration":"จ3-20(1)-1/40สบ","province":"สระบุรี","district":"หนองแค","subdistrict":"หนองแค","industryType":"ทำน้ำดื่มและน้ำแข็งก้อนเล็ก","status":"ดำเนินกิจการ","lat":14.33962,"lon":100.85767},"10191200125354":{"id":"10191200125354","name":"บริษัท โรแยล ซีรามิค อุตสาหกรรม จำกัด (มหาชน)","owner":"บริษัท โรแยล ซ๊รามิค อุตสาหกรรม จำกัด (มหาชน)","displayRegistration":"3-100(1)-1/35สบ","province":"สระบุรี","district":"หนองแค","subdistrict":"โคกแย้","industryType":"ทำลวดลายบนแผ่นกระเบื้องเคลือบ","status":"หยุดชั่วคราว","lat":14.40064,"lon":100.91786},"20190000125406":{"id":"20190000125406","name":"ห้างหุ้นส่วนจำกัด น้ำแข็งหลอดโบว์แดง","owner":"ห้างหุ้นส่วนจำกัด น้ำแข็งหลอดโบว์แดง","displayRegistration":"จ3-14-1/40สบ","province":"สระบุรี","district":"มวกเหล็ก","subdistrict":"มวกเหล็ก","industryType":"ทำน้ำแข็งหลอด","status":"ดำเนินกิจการ","lat":14.65968,"lon":101.20025},"20190014825470":{"id":"20190014825470","name":"บริษัท สยามสตีลทาวเวอร์ จำกัด","owner":"บริษัท สยามสตีลทาวเวอร์ จำกัด","displayRegistration":"จ3-64(13)-148/47สบ","province":"สระบุรี","district":"หนองแค","subdistrict":"โคกแย้","industryType":"กลึง เจาะ คว้าน เชื่อมโลหะเพื่อทำผลิตภัณฑ์โลหะฯ","status":"ดำเนินกิจการ","lat":14.37233,"lon":100.93911},"20190001525471":{"id":"20190001525471","name":"บริษัท อินเตอร์เนชั่นแนล เพ็ท ฟู้ด จำกัด","owner":"บริษัท อินเตอร์เนชั่นแนล เพ็ท ฟู้ด จำกัด","displayRegistration":"จ3-15(1)-15/47สบ","province":"สระบุรี","district":"แก่งคอย","subdistrict":"ตาลเดี่ยว","industryType":"ทำผลิตภัณฑ์อาหารสำเร็จรูปสำหรับสัตว์เลี้ยง เช่น แมว สุนัข นก ปลาสวยงามฯ","status":"ดำเนินกิจการ","lat":14.57405,"lon":100.98871},"10190500125395":{"id":"10190500125395","name":"บริษัท อิตาเลียนไทย ดีเวล๊อปเมนต์ จำกัด (มหาชน)","owner":"บริษัท อิตาเลียนไทย ดีเวล็อปเมนต์ จำกัด (มหาชน)","displayRegistration":"3-63(1)-1/39สบ","province":"สระบุรี","district":"วิหารแดง","subdistrict":"วิหารแดง","industryType":"ทำส่วนประกอบสำหรับใช้ในการก่อสร้างสะพาน และก่อสร้างอาคารจาก โลหะ (ปริมาณการผลิต 7,500 ตัน/ปี)","status":"ดำเนินกิจการ","lat":14.32581,"lon":100.9841},"10190000625399":{"id":"10190000625399","name":"ห้างหุ้นส่วนจำกัด ศิลานิล","owner":"ห้างหุ้นส่วนจำกัด ศิลานิล","displayRegistration":"3-3(1)-6/39สบ","province":"สระบุรี","district":"เฉลิมพระเกียรติ","subdistrict":"หน้าพระลาน","industryType":"โม่ บด ย่อยหิน","status":"ดำเนินกิจการ","lat":14.7081205,"lon":100.860556},"10190500125403":{"id":"10190500125403","name":"บริษัท สยาม เอ็น พี อาร์ จำกัด","owner":"บริษัท สยาม เอ็น พี อาร์ จำกัด","displayRegistration":"3-64(13)-1/40สบ","province":"สระบุรี","district":"บ้านหมอ","subdistrict":"สร่างโศก","industryType":"ทำผลิตภัณฑ์โลหะจากเหล็กรูปพรรณ โดยการกลึง  ไส  เจียรแต่ง เพื่อเป็นชิ้นส่วนเครื่องจักรกล ทำผลิตภัณฑ์โลหะซึ่งเป็นส่วนประกอบระบบเครื่องปรับอากาศ เช่น ชิ้นส่วนลูกสูบกลิ้ง ในคอมเพรสเซอร์สำหรับเครื่องปรับอากาศและเครื่องทำความเย็น ทำส่วนประกอบ อุปกรณ์และชิ้นส่วนของเครื่องยนต์ เช่น บ่าวาลว์ สำหรับฝาสูบเครื่องยนต์","status":"ดำเนินกิจการ","lat":14.61253,"lon":100.74188},"10190000125473":{"id":"10190000125473","name":"บริษัท เคมีแมน จำกัด (มหาชน)","owner":"บริษัท เคมีแมน จำกัด (มหาชน)","displayRegistration":"3-57(1)-1/47สบ","province":"สระบุรี","district":"พระพุทธบาท","subdistrict":"ห้วยป่าหวาย","industryType":"ผลิตปูนขาว และหินปูนบด","status":"ดำเนินกิจการ","lat":14.64199,"lon":100.79972},"10190600125352":{"id":"10190600125352","name":"โรงงานคอนกรีตผสมเสร็จเขาวง","owner":"บริษัท ปูนซิเมนต์ไทย (ท่าหลวง) จำกัด","displayRegistration":"3-58(1)-1/35สบ","province":"สระบุรี","district":"พระพุทธบาท","subdistrict":"เขาวง","industryType":"ผลิตคอนกรีตผสมเสร็จ","status":"ดำเนินกิจการ","lat":14.68124,"lon":100.85619},"10190000125218":{"id":"10190000125218","name":"บริษัท ศิลาไทยสระบุรี จำกัด","owner":"บริษัท ศิลาไทยสระบุรี จำกัด","displayRegistration":"3-3(1)-1/21สบ","province":"สระบุรี","district":"เฉลิมพระเกียรติ","subdistrict":"หน้าพระลาน","industryType":"โม่ บด ย่อยหิน","status":"ดำเนินกิจการ","lat":14.6860803,"lon":100.8627741},"10190100225199":{"id":"10190100225199","name":"โรงเลื่อยจักรหน้าพระลาน","owner":"นายจิตวัฒน์ จันทร์สุวรรณ","displayRegistration":"3-34(1)-2/19สบ","province":"สระบุรี","district":"เฉลิมพระเกียรติ","subdistrict":"หน้าพระลาน","industryType":"เลื่อยไม้ ไสไม้","status":"ดำเนินกิจการ","lat":14.68556,"lon":100.8732},"10190000325388":{"id":"10190000325388","name":"ศิลาเจริญกิจ","owner":"ห้างหุ้นส่วนจำกัด ศิลาเจริญกิจ 1995","displayRegistration":"3-3(1)-3/38สบ","province":"สระบุรี","district":"เฉลิมพระเกียรติ","subdistrict":"หน้าพระลาน","industryType":"โม่ บด ย่อยหิน กำลังการผลิต 300,000 ตัน/ปี","status":"ดำเนินกิจการ","lat":14.70595,"lon":100.86398},"10190200125380":{"id":"10190200125380","name":"บริษัท อิตาเลียนไทย ดีเวล๊อปเมนต์ จำกัด (มหาชน)","owner":"บริษัท อิตาเลียนไทย ดีเวล๊อปเมนต์ จำกัด (มหาชน)","displayRegistration":"3-58(1)-1/38สบ","province":"สระบุรี","district":"วิหารแดง","subdistrict":"วิหารแดง","industryType":"ผลิตคานคอนกรีตสำเร็จรูป","status":"ดำเนินกิจการ","lat":14.32576,"lon":100.98418},"20190000125356":{"id":"20190000125356","name":"เจริญชัยไอสครีม","owner":"นายนฤพนธ์ ภัทรกุลขจร","displayRegistration":"จ3-12(11)-1/35สบ","province":"สระบุรี","district":"หนองแค","subdistrict":"หนองแค","industryType":"ทำไอสกรีม","status":"ดำเนินกิจการ","lat":14.33411,"lon":100.8716},"00190500125348":{"id":"00190500125348","name":"บริษัท ซันแอร์โรว์ ซิตี้ จำกัด","owner":"บริษัท ซัน แอร์โรว์ ซิตี้ จำกัด","displayRegistration":"ส3-69-1/34สบ","province":"สระบุรี","district":"หนองแค","subdistrict":"หนองนาก","industryType":"ผลิตผลิตภัณฑ์จากยางซิลิโคน สำหรับเครื่องคำนวณ","status":"ดำเนินกิจการ","lat":14.45329,"lon":100.90339},"10190300125348":{"id":"10190300125348","name":"บริษัท ไทยพลาสติกฟิล์ม จำกัด","owner":"บริษัท ไทยพลาสติกฟิล์ม จำกัด","displayRegistration":"3-53(5)-1/34สบ","province":"สระบุรี","district":"เมืองสระบุรี","subdistrict":"นาโฉง","industryType":"ผลิตแผ่นฟิล์ม ได้ 120 ตันต่อเดือน และถุงพลาสติก ได้ 60 ตันต่อเดือน","status":"ดำเนินกิจการ","lat":14.54238,"lon":100.88161},"10190200125190":{"id":"10190200125190","name":"บริษัท สยามอุตสาหกรรมวัสดุทนไฟ จำกัด","owner":"บริษัท สยามอุตสาหกรรมวัสดุทนไฟ จำกัด","displayRegistration":"3-56-1/19สบ","province":"สระบุรี","district":"บ้านหมอ","subdistrict":"บ้านครัว","industryType":"ผลิตอิฐทนไฟ ปูนทนไฟ คอนกรีตทนไฟ","status":"ดำเนินกิจการ","lat":14.57661,"lon":100.76656},"10190200125232":{"id":"10190200125232","name":"บริษัท ลินเด้(ประเทศไทย)จำกัด(มหาชน)","owner":"บริษัท ไทยอินดัสเตรียลแก๊ส จำกัด","displayRegistration":"3-89-1/23สบ","province":"สระบุรี","district":"บ้านหมอ","subdistrict":"บางโขมด","industryType":"ผลิตอ๊อกซิเจนเหลว ไนโตรเจนเหลว อาร์กอนเหลว ก๊าซอ๊อกซิเจน ก๊าซไนโตรเจน และก๊าซอาร์กอน","status":"ดำเนินกิจการ","lat":14.57038,"lon":100.74896},"20191000125396":{"id":"20191000125396","name":"บริษัท เซิฟ ไดนามิค จำกัด","owner":"บริษัท เซิฟ ไดนามิค จำกัด","displayRegistration":"จ3-86-1/39สบ","province":"สระบุรี","district":"วิหารแดง","subdistrict":"บ้านลำ","industryType":"ผลิตอุปกรณ์กีฬาทางน้ำ เช่น อุปกรณ์ส่วนประกอบของกีฬาวินด์เซิรฟ และชุดกีฬาทางน้ำ รองเท้าให้ความอบอุ่น และกระเป๋า","status":"ดำเนินกิจการ","lat":14.36751,"lon":100.96899},"10190700125328":{"id":"10190700125328","name":"ห้างหุ้นส่วนจำกัด วัชราภาคอนกรีตบล๊อก","owner":"ห้างหุ้นส่วนจำกัด วัชราภาคอนกรีตบล๊อก","displayRegistration":"3-58(1)-1/32สบ","province":"สระบุรี","district":"หนองแค","subdistrict":"ห้วยขมิ้น","industryType":"ทำคอนกรีตบล๊อค และผลิตภัณฑ์คอนกรีตทุกชนิด","status":"ดำเนินกิจการ","lat":14.3853,"lon":100.88643},"10190100125357":{"id":"10190100125357","name":"บริษัท โรจน์สินก่อสร้าง จำกัด","owner":"บริษัท โรจน์สินก่อสร้าง จำกัด","displayRegistration":"3-50(4)-1/35สบ","province":"สระบุรี","district":"เฉลิมพระเกียรติ","subdistrict":"พุแค","industryType":"ผลิตแอสฟัลท์ติดคอนกรีต","status":"ดำเนินกิจการ","lat":14.64394,"lon":100.88764},"20190003025470":{"id":"20190003025470","name":"บริษัท สยามอินเตอร์เนชั่นแนลไรซ์ จำกัด","owner":"บริษัท สยามอินเตอร์เนชั่นแนลไรซ์ จำกัด","displayRegistration":"จ3-9(1)-30/47สบ","province":"สระบุรี","district":"หนองแซง","subdistrict":"ไก่เส่า","industryType":"การสีฟัด หรือขัดข้าว (กำลังสีสูงสุดของร้านสีข้าว 80 เกวียน/วัน)","status":"ดำเนินกิจการ","lat":14.50314,"lon":100.79081},"10190001125472":{"id":"10190001125472","name":"บริษัท อริยสิน จำกัด","owner":"บริษัท อริยสิน จำกัด","displayRegistration":"3-50(4)-11/47สบ","province":"สระบุรี","district":"เมืองสระบุรี","subdistrict":"ตะกุด","industryType":"ผลิตแอสฟัลท์คอนกรีต","status":"ดำเนินกิจการ","lat":14.54883,"lon":100.93779},"10190005025470":{"id":"10190005025470","name":"บริษัท เวสท์ รีโคเวอรี่ จำกัด","owner":"บริษัท เวสท์ รีโคเวอรี่ จำกัด","displayRegistration":"3-105-50/47สบ","province":"สระบุรี","district":"แก่งคอย","subdistrict":"ตาลเดี่ยว","industryType":"คัดแยกของเสียหรือวัสดุที่ไม่ใช้แล้วที่ไม่อันตราย","status":"ดำเนินกิจการ","lat":14.5541,"lon":100.9806},"20190001025472":{"id":"20190001025472","name":"บริษัท สหมิตรอินเตอร์ทรัค (ประเทศไทย) จำกัด","owner":"บริษัท สหมิตรอินเตอร์ทรัค (ประเทศไทย) จำกัด","displayRegistration":"จ3-77(1)-10/47สบ","province":"สระบุรี","district":"หนองแค","subdistrict":"ห้วยขมิ้น","industryType":"การสร้าง ประกอบ ดัดแปลง หรือเปลี่ยนแปลงสภาพรถยนต์หรือรถพ่วง","status":"ดำเนินกิจการ","lat":14.41492,"lon":100.89183},"20190100225478":{"id":"20190100225478","name":"บริษัท ปูนซีเมนต์คุณภาพ จำกัด","owner":"บริษัท ปูนซีเมนต์คุณภาพ จำกัด","displayRegistration":"จ3-57(3)-2/47สบ","province":"สระบุรี","district":"เฉลิมพระเกียรติ","subdistrict":"ห้วยบง","industryType":"บรรจุซีเมนต์ผสม","status":"ดำเนินกิจการ","lat":14.62773,"lon":100.88706},"10190000625498":{"id":"10190000625498","name":"บริษัท เคนไซ อาร์ท แอนด์ ดีไซน์ จำกัด","owner":"บริษัท เคนไซอาร์ท แอนด์ ดีไซน์ จำกัด","displayRegistration":"3-55-6/49สบ","province":"สระบุรี","district":"หนองแค","subdistrict":"ห้วยขมิ้น","industryType":"ผลิตกระเบื้องปูพื้นและบุผนัง","status":"ดำเนินกิจการ","lat":14.37344,"lon":100.88093},"20190003325482":{"id":"20190003325482","name":"บริษัท โซนิกซ์ ไทย คอร์ปอเรชั่น จำกัด","owner":"บริษัท โซนิกซ์ ไทย คอร์ปอเรชั่น จำกัด","displayRegistration":"จ3-53(1)-33/48สบ","province":"สระบุรี","district":"หนองแซง","subdistrict":"ม่วงหวาน","industryType":"ผลิตผลิตภัณฑ์จากพลาสติก เช่น ปุ่มกดโทรศัพท์มือถือและชิ้นส่วนต่างๆ","status":"ดำเนินกิจการ","lat":14.45446,"lon":100.83608},"10190005525487":{"id":"10190005525487","name":"เบิ้มของเก่า","owner":"นายสวัสดิ์ เผื่อนละมุด","displayRegistration":"3-105-55/48สบ","province":"สระบุรี","district":"วิหารแดง","subdistrict":"หนองหมู","industryType":"คัดแยกสิ่งปฏิกูลหรือวัสดุที่ไม่ใช้แล้วที่ไม่เป็นอันตราย","status":"ดำเนินกิจการ","lat":14.29248,"lon":100.92263},"20190003125486":{"id":"20190003125486","name":"บริษัท ดี.พี.อาร์ อินเตอร์ไรซ์ จำกัด","owner":"บริษัท ดี.พี.อาร์ อินเตอร์ไรซ์ จำกัด","displayRegistration":"จ3-9(1)-31/48สบ","province":"สระบุรี","district":"บ้านหมอ","subdistrict":"ไผ่ขวาง","industryType":"สีข้าว กำลังสีสูงสุดของร้านสีข้าว 400 เกวียนต่อวัน และอบข้าวเปลือก","status":"ดำเนินกิจการ","lat":14.57947,"lon":100.66429},"20190000125489":{"id":"20190000125489","name":"ห้างหุ้นส่วนจำกัด โกวิทปูนขาว","owner":"ห้างหุ้นส่วนจำกัด โกวิทปูนขาว","displayRegistration":"จ3-57(1)-1/48สบ","province":"สระบุรี","district":"เฉลิมพระเกียรติ","subdistrict":"หน้าพระลาน","industryType":"ผลิตปูนขาว","status":"ดำเนินกิจการ","lat":14.69329,"lon":100.86878},"20190010025497":{"id":"20190010025497","name":"NULL","owner":"นางศิรินทร์รัตน์ วงศ์จอม","displayRegistration":"จ3-3(2)-100/49สบ","province":"สระบุรี","district":"เฉลิมพระเกียรติ","subdistrict":"หน้าพระลาน","industryType":"การขุดกรวดหรือดิน","status":"ดำเนินกิจการ","lat":14.72197,"lon":100.90535},"20190039125484":{"id":"20190039125484","name":"NULL","owner":"นางวรรณวิมล แม้นบุตร","displayRegistration":"จ3-3(2)-391/48สบ","province":"สระบุรี","district":"เฉลิมพระเกียรติ","subdistrict":"พุแค","industryType":"ขุดตักดิน","status":"ดำเนินกิจการ","lat":14.66742,"lon":100.90552},"20190001125470":{"id":"20190001125470","name":"NULL","owner":"นายประสิทธิ์ วงษ์มานะสุข","displayRegistration":"จ3-91(1)-11/47สบ","province":"สระบุรี","district":"หนองแค","subdistrict":"บัวลอย","industryType":"บรรจุรำข้าวจำหน่าย","status":"หยุดชั่วคราว","lat":14.43126,"lon":100.84252},"20190100325476":{"id":"20190100325476","name":"บริษัท สตาร์ บีด อินดันทรี่ จำกัด","owner":"บริษัท สจาร์ บีด อินดัสทรี่ จำกัด","displayRegistration":"จ3-54-3/47สบ","province":"สระบุรี","district":"แก่งคอย","subdistrict":"ทับกวาง","industryType":"ผลิตลูกแก้วสะท้อนแสง","status":"ดำเนินกิจการ","lat":14.59471,"lon":101.04336},"10190000125465":{"id":"10190000125465","name":"บริษัท อาร์โร เพนท์ จำกัด","owner":"บริษัท อาร์โร เพนท์ จำกัด","displayRegistration":"3-100(1)-1/46สบ","province":"สระบุรี","district":"หนองแค","subdistrict":"ไผ่ต่ำ","industryType":"ตกแต่งหรือเปลี่ยนแปลงคุณลักษณะของผลิตภัณฑ์และส่วนประกอบของผลิตภัณฑ์ โดยการทา พ่นหรือเคลือบสีของผลิตภัณฑ์ เครื่องใช้ไฟฟ้า เครื่องใช้อิเล็กทรอนิกส์","status":"ดำเนินกิจการ","lat":14.322405,"lon":100.839069},"20190009625489":{"id":"20190009625489","name":"ห้างหุ้นส่วนจำกัด เอ็น.เอส.เค.รวมช่าง","owner":"ห้างหุ้นส่วนจำกัด เอ็น.เอส.เค.รวมช่าง","displayRegistration":"จ3-64(13)-96/48สบ","province":"สระบุรี","district":"หนองแค","subdistrict":"บัวลอย","industryType":"กลึง เจาะ คว้าน กัด ไส เจียนและเชื่อมโลหะทั่วไป","status":"ดำเนินกิจการ","lat":14.41052,"lon":100.85229},"20190009325486":{"id":"20190009325486","name":"โรงงานคอนกรีตผสมเสร็จ ดาวเรือง","owner":"บริษัท ปูนซิเมนต์ไทย (ท่าหลวง) จำกัด","displayRegistration":"จ3-58(1)-93/48สบ","province":"สระบุรี","district":"เมืองสระบุรี","subdistrict":"ตะกุด","industryType":"ผลิตคอนกรีตผสมเสร็จ","status":"ดำเนินกิจการ","lat":14.55746,"lon":100.9253},"20190011325482":{"id":"20190011325482","name":"บริษัท สยามเทคนิคคอนกรีต จำกัด (มหาชน)","owner":"บริษัท สยามเทคนิคคอนกรีต จำกัด (มหาชน)","displayRegistration":"จ3-58(1)-113/48สบ","province":"สระบุรี","district":"ดอนพุด","subdistrict":"ดอนพุด","industryType":"ผลิตผลิตภัณฑ์คอนกรีตอัดแรง","status":"ดำเนินกิจการ","lat":14.58915,"lon":100.62841},"10190002025481":{"id":"10190002025481","name":"บริษัท ค้าลซันสไตน์ จำกัด","owner":"บริษัท ค้าลซันสไตน์ จำกัด","displayRegistration":"3-56-20/48สบ","province":"สระบุรี","district":"แก่งคอย","subdistrict":"บ้านป่า","industryType":"ผลิตอิฐแคลเซี่ยมซิลิเกต","status":"ดำเนินกิจการ","lat":14.59154,"lon":101.02896},"20190022425487":{"id":"20190022425487","name":"สมชายเฟอร์นิเจอร์","owner":"นางพัชรินทร์ ภัทรกุลขจร","displayRegistration":"จ3-34(2)-224/48สบ","province":"สระบุรี","district":"พระพุทธบาท","subdistrict":"พุกร่าง","industryType":"ทำวงกบ บานประตู-หน้าต่าง โต๊ะ เตียงด้วยไม้,ไม้อัด","status":"ดำเนินกิจการ","lat":14.68792,"lon":100.77473},"20190000325485":{"id":"20190000325485","name":"โรงน้ำดื่มทรูดริลล์","owner":"บริษัท ช.โลหะพัฒนา กรุ๊ป(2000) จำกัด","displayRegistration":"จ3-20(1)-3/48สบ","province":"สระบุรี","district":"พระพุทธบาท","subdistrict":"พระพุทธบาท","industryType":"ทำน้ำดื่ม","status":"ดำเนินกิจการ","lat":14.73533,"lon":100.77396},"10190200125331":{"id":"10190200125331","name":"บริษัท สหกิจวิศาล จำกัด","owner":"บริษัท สหกิจวิศาล จำกัด","displayRegistration":"3-52(4)-1/33สบ","province":"สระบุรี","district":"แก่งคอย","subdistrict":"ตาลเดี่ยว","industryType":"ผลิตพรมปูพื้นรถยนต์จากยางธรรมชาติ และไนล่อน, ทำกระเป๋าและเสื้อผ้าจากผ้าฝ้ายและผ้าที่ทำจากปอ, ทำกระเป๋าและเสื้อผ้าที่ทำจากไนล่อน, การตัดหรือเย็บเครื่องนุ่มห่ม หรือวัสดุอื่น เช่น พรมชนิดต่าง ๆ","status":"ดำเนินกิจการ","lat":14.59194,"lon":100.98597},"20190108725487":{"id":"20190108725487","name":"บริษัท เอสดี คอนกรีต โปรดักท์ จำกัด","owner":"บริษัท เอสดี คอนกรีต โปรดักท์ จำกัด","displayRegistration":"จ3-58(1)-87/48สบ","province":"สระบุรี","district":"แก่งคอย","subdistrict":"ตาลเดี่ยว","industryType":"ทำผลิตภัณฑ์คอนกรีต","status":"ดำเนินกิจการ","lat":14.53557,"lon":101.00786},"20190012725482":{"id":"20190012725482","name":"บริษัท ทองดี พรีซิชั่น อินดัสทรี จำกัด","owner":"บริษัท ทองดี พรีซิชั่น อินดัสทรี จำกัด","displayRegistration":"จ3-64(13)-127/48สบ","province":"สระบุรี","district":"วิหารแดง","subdistrict":"วิหารแดง","industryType":"กลึง เจาะ กัด ไส เจียน หรือเชื่อมโลหะทั่วไป","status":"ดำเนินกิจการ","lat":14.32309,"lon":101.01042},"20190001725485":{"id":"20190001725485","name":"สหกรณ์โคนมไทยมิลค์ จำกัด","owner":"สหกรณ์โคนมไทยมิลค์ จำกัด","displayRegistration":"จ3-15(1)-17/48สบ","province":"สระบุรี","district":"มวกเหล็ก","subdistrict":"ลำพญากลาง","industryType":"การทำอาหารผสมหรืออาหารสำเร็จรูปสำหรับเลี้ยงสัตว์","status":"ดำเนินกิจการ","lat":14.91936,"lon":101.4292},"20190001625479":{"id":"20190001625479","name":"บริษัท ทรูรีเเฟลคเตอร์ จำกัด","owner":"บริษัท ทรูรีแฟลคเดอร์ จำกัด","displayRegistration":"จ3-45(1)-16/47สบ","province":"สระบุรี","district":"แก่งคอย","subdistrict":"ทับกวาง","industryType":"ผลิตสีเทอร์โมพลาสติก","status":"ดำเนินกิจการ","lat":14.59501,"lon":101.04346},"10190013125486":{"id":"10190013125486","name":"บริษัท ทรัพย์สมบูรณ์ (999) จำกัด","owner":"บริษัท ทรัพย์สมบูรณ์ (999) จำกัด","displayRegistration":"3-105-131/48สบ","province":"สระบุรี","district":"หนองแค","subdistrict":"โคกแย้","industryType":"คัดแยกวัสดุที่ไม่ใช้แล้ว เฉพาะที่กำหนดไว้ในหมวด 1 ข้อ 1 ของภาคผนวกที่ 1 บัญชีสิ่งปฏิกูลหรือวัสดุที่ไม่ใช้แล้ว ท้ายประกาศกระทรวงอุตสาหกรรม ฉบับที่ 1 (พ.ศ.2541)","status":"ดำเนินกิจการ","lat":14.39388,"lon":100.94506},"20190100625487":{"id":"20190100625487","name":"บริษัท ไท่หยาง อุตสาหกรรม จำกัด","owner":"บริษัท ไท่หยาง อุตสาหกรรม จำกัด","displayRegistration":"จ3-48(3)-6/48สบ","province":"สระบุรี","district":"หนองแค","subdistrict":"ห้วยทราย","industryType":"ผสมวัตถุดิบเพื่อใช้ในงานอุตสาหกรรมเซรามิค และทำแบบพิมพ์ลายกระเบื้องเซรามิค","status":"ดำเนินกิจการ","lat":14.44022,"lon":100.89797},"20190001325484":{"id":"20190001325484","name":"ห้างหุ้นส่วนจำกัด เอช อาร์ เค ท่าลาน","owner":"ห้างหุ้นส่วนจำกัด เอช อาร์ เค ท่าลาน","displayRegistration":"จ3-65-13/48สบ","province":"สระบุรี","district":"บ้านหมอ","subdistrict":"บ้านครัว","industryType":"ตกแต่งชิ้นส่วนเครื่องยนต์","status":"ดำเนินกิจการ","lat":14.5714,"lon":100.77605},"20190015025484":{"id":"20190015025484","name":"บริษัท มายคอนกรีต จำกัด","owner":"บริษัท มายคอนกรีต จำกัด","displayRegistration":"จ3-58(1)-150/48สบ","province":"สระบุรี","district":"แก่งคอย","subdistrict":"บ้านป่า","industryType":"ทำคอนกรีตผสมเสร็จ","status":"ดำเนินกิจการ","lat":14.58879,"lon":101.02252},"20190200625486":{"id":"20190200625486","name":"บริษัท ยิ่งรุ่ง แมชชีน อินดัสเตรียล จำกัด","owner":"บริษัท ยิ่งรุ่ง แมชชีน อินดัสเตรียล จำกัด","displayRegistration":"จ3-51-6/48สบ","province":"สระบุรี","district":"วิหารแดง","subdistrict":"คลองเรือ","industryType":"ผลิต ซ่อม หล่อหรือหล่อดอกยางนอกหรือยางในสำหรับยางพาหนะที่เคลื่อนที่ด้วยเครื่องกล คนหรือสัตว์และการทำผลิตภัณฑ์ยางสำเร็จรูปอื่น ๆ","status":"ดำเนินกิจการ","lat":14.34941,"lon":101.04407},"20190006825488":{"id":"20190006825488","name":"บริษัท ทูเดย์ เฟอร์ทิไลเซอร์ จำกัด","owner":"บริษัท ทูเดย์ เฟอร์ทิไลเซอร์ จำกัด","displayRegistration":"จ3-43(1)-68/48สบ","province":"สระบุรี","district":"หนองแค","subdistrict":"บัวลอย","industryType":"ผสมปุ๋ยเคมีเพื่อจำหน่าย","status":"ดำเนินกิจการ","lat":14.41226,"lon":100.85648},"20190032125481":{"id":"20190032125481","name":"NULL","owner":"นายโอฬาร อินทร์ชูพงษ์","displayRegistration":"จ3-34(1)-321/48สบ","province":"สระบุรี","district":"หนองแค","subdistrict":"หนองไข่น้ำ","industryType":"ทำลังพาเลตจากไม้และเหล็ก และขัดกระจก","status":"ดำเนินกิจการ","lat":14.35267,"lon":100.87127},