{"20760100125363":{"id":"20760100125363","name":"ตั้งไท้สุงฮง","owner":"นางอารมย์ พึ่งแพง","displayRegistration":"จ3-103(3)-1/36พบ","province":"เพชรบุรี","district":"เมืองเพชรบุรี","subdistrict":"ช่องสะแก","industryType":"โม่เกลือป่น","status":"ดำเนินกิจการ","lat":13.11154,"lon":99.95883},"00760000125376":{"id":"00760000125376","name":"บริษัท ชะอำธารทิพย์ จำกัด","owner":"บริษัท ชะอำธารทิพย์ จำกัด","displayRegistration":"ศ3-14-1/37พบ","province":"เพชรบุรี","district":"ชะอำ","subdistrict":"ชะอำ","industryType":"ทำน้ำแข็งซอง กำลังการผลิตเพิ่มขึ้น 2,000 ซอง/วัน รวมเป็น 3,380 ซอง/วัน","status":"ดำเนินกิจการ","lat":12.71557,"lon":99.96306},"10760001025342":{"id":"10760001025342","name":"บริษัท ชะอำคอนกรีตแลนด์ จำกัด","owner":"บริษัท ชะอำคอนแรีตแลนด์ จำกัด","displayRegistration":"3-58(1)-10/34พบ","province":"เพชรบุรี","district":"ชะอำ","subdistrict":"ดอนขุนห้วย","industryType":"ทำคอนกรีตบล๊อก เสาเข็มคอนกรีตอัดแรง แผ่นดื้น คานคอนกรีต ท่อคอนกรีตอัดแรง","status":"ดำเนินกิจการ","lat":12.8749,"lon":99.91594},"10760001225348":{"id":"10760001225348","name":"โรงงานคอนกรีตผสมเสร็จ ชะอำ","owner":"บริษัท ผลิตภัณฑ์และวัตถุก่อสร้าง จำกัด","displayRegistration":"3-58(1)-12/34พบ","province":"เพชรบุรี","district":"ชะอำ","subdistrict":"ชะอำ","industryType":"ผลิตคอนกรีตผสมเสร็จ","status":"ดำเนินกิจการ","lat":12.66017,"lon":99.95158},"10760100325221":{"id":"10760100325221","name":"ห้างหุ้นส่วนจำกัด แสงวณิชเพชรบุรี","owner":"ห้างหุ้นส่วนจำกัด แสงวณิชเพชรบุรี","displayRegistration":"3-34(2)-3/22พบ","province":"เพชรบุรี","district":"เมืองเพชรบุรี","subdistrict":"ท่าราบ","industryType":"ไสไม้ ทำวงกบบานประตู-หน้าต่าง และเครื่องเรือน","status":"ดำเนินกิจการ","lat":13.10959,"lon":99.94865},"10760200125299":{"id":"10760200125299","name":"เรือนจำจังหวัดเพชรบุรี","owner":"นายกฤช กระแสร์ทิพย์","displayRegistration":"3-37-1/29พบ","province":"เพชรบุรี","district":"เมืองเพชรบุรี","subdistrict":"ท่าราบ","industryType":"ทำเครื่องเรือนจากไม้","status":"ดำเนินกิจการ","lat":13.10686,"lon":99.9518},"10760200125315":{"id":"10760200125315","name":"เตียมุ่ยกวง","owner":"ห้างหุ้นส่วนจำกัด เตียมุ่ยกวง","displayRegistration":"3-103(3)-1/31พบ","province":"เพชรบุรี","district":"บ้านแหลม","subdistrict":"บางแก้ว","industryType":"ทำเกลือป่น","status":"ดำเนินกิจการ","lat":13.093236,"lon":100.062359},"10760000125259":{"id":"10760000125259","name":"ยงไทย","owner":"นายนที สุวภิรมย์โชติ","displayRegistration":"3-13(2)-1/25พบ","province":"เพชรบุรี","district":"เมืองเพชรบุรี","subdistrict":"คลองกระแชง","industryType":"ทำซีอิ้ว","status":"ดำเนินกิจการ","lat":13.11273,"lon":99.94946},"10760000125218":{"id":"10760000125218","name":"ห้างหุ้นส่วนจำกัด ปึงเป้งน้ำ","owner":"ห้างหุ้นส่วนจำกัด ปึงเป้งน้ำ","displayRegistration":"3-103(3)-1/21พบ","province":"เพชรบุรี","district":"เมืองเพชรบุรี","subdistrict":"ธงชัย","industryType":"ผลิตและจำหน่ายเกลือบริโภคเสริมไอโอดิน","status":"ดำเนินกิจการ","lat":13.12018,"lon":99.94217},"20760300125387":{"id":"20760300125387","name":"บริษัท กู๊ด แอนด์ กู๊ด แฟคตอรี่ จำกัด","owner":"บริษัท กู๊ด แอนด์ กู๊ด แฟคตอรี่ จำกัด","displayRegistration":"จ3-28(1)-1/38พบ","province":"เพชรบุรี","district":"เมืองเพชรบุรี","subdistrict":"ต้นมะพร้าว","industryType":"ผลิตเสื้อผ้าสำเร็จรูป","status":"ดำเนินกิจการ","lat":13.14988,"lon":99.85198},"10760000225323":{"id":"10760000225323","name":"ร้านโชคอารีชัย","owner":"นางพรรณิภา จงสมจิตต์","displayRegistration":"3-34(1)-2/32พบ","province":"เพชรบุรี","district":"เมืองเพชรบุรี","subdistrict":"ต้นมะม่วง","industryType":"ไสและซอยไม้แปรรูป","status":"ดำเนินกิจการ","lat":13.08133,"lon":99.94939},"10760001325270":{"id":"10760001325270","name":"ห้างหุ้นส่วนจำกัด สินธัญญาธรรมเพชรบุรี","owner":"ห้างหุ้นส่วนจำกัด สินธัญญาธรรมเพชรบุรี","displayRegistration":"3-9(1)-13/27พบ","province":"เพชรบุรี","district":"เมืองเพชรบุรี","subdistrict":"ไร่ส้ม","industryType":"สีข้าว กำลังสีสูงสุดของร้านสีข้าว 25 เกวียน/วัน","status":"หยุดชั่วคราว","lat":13.11403,"lon":99.92889},"20760000225388":{"id":"20760000225388","name":"โรงสีไร่ใหญ่","owner":"นายบุญช่วย แย้มศรี","displayRegistration":"จ3-9(1)-2/38พบ","province":"เพชรบุรี","district":"บ้านลาด","subdistrict":"ไร่มะขาม","industryType":"สีข้าว กำลังสีสูงสุดของร้านสีข้าว 123 เกวียน/วัน","status":"ดำเนินกิจการ","lat":13.01531,"lon":99.94531},"20760600125384":{"id":"20760600125384","name":"บริษัท โพลีไฮเทค จำกัด","owner":"บริษัท โพลีไฮเทค จำกัด","displayRegistration":"จ3-42(1)-1/38พบ","province":"เพชรบุรี","district":"เขาย้อย","subdistrict":"หนองชุมพล","industryType":"ผลิตเคมีภัณฑ์ สารเคมี หรือวัสดุเคมี","status":"ดำเนินกิจการ","lat":13.28328,"lon":99.77376},"10760000125242":{"id":"10760000125242","name":"โรงงานเส้นหมี่เพชรบุรี","owner":"นาย","displayRegistration":"3-10(3)-1/24พบ","province":"เพชรบุรี","district":"เมืองเพชรบุรี","subdistrict":"บ้านหม้อ","industryType":"ทำเส้นหมี่","status":"ดำเนินกิจการ","lat":13.10198,"lon":99.93413},"00760000125335":{"id":"00760000125335","name":"ห้างหุ้นส่วนจำกัด โรงน้ำแข็งเขาใหญ่","owner":"ห้างหุ้นส่วนจำกัด โรงน้ำแข็งเขาใหญ่","displayRegistration":"ศ3-14-1/33พบ","province":"เพชรบุรี","district":"ชะอำ","subdistrict":"เขาใหญ่","industryType":"ทำน้ำแข็งซอง ได้วันละ 852 ซอง","status":"ดำเนินกิจการ","lat":12.8276294132597,"lon":99.9344086647034},"20760100425367":{"id":"20760100425367","name":"บริษัท ชัยรัชการ จำกัด","owner":"บริษัท ชัยรัชการ จำกัด","displayRegistration":"จ3-95(1)-4/36พบ","province":"เพชรบุรี","district":"เมืองเพชรบุรี","subdistrict":"ไร่ส้ม","industryType":"ซ่อมรถยนต์","status":"ดำเนินกิจการ","lat":13.11495,"lon":99.92391},"20760200125388":{"id":"20760200125388","name":"ส.โชคกิตติศักดิ์","owner":"นางสมพงษ์ อักโขพันธ์","displayRegistration":"จ3-15(2)-1/38พบ","province":"เพชรบุรี","district":"เขาย้อย","subdistrict":"ทับคาง","industryType":"บดเปลือกหอย","status":"ดำเนินกิจการ","lat":13.193069857025,"lon":99.8324632644653},"10760200125380":{"id":"10760200125380","name":"บริษัท คอมแพ็ค อินเตอร์เนชั่นแนล (1994) จำกัด","owner":"บริษัท คอมแพ็ค อินเตอร์เนชั่นแนล (1994) จำกัด","displayRegistration":"3-77(2)-1/38พบ","province":"เพชรบุรี","district":"เขาย้อย","subdistrict":"หนองชุมพล","industryType":"ทำชิ้นส่วนพิเศษหรืออุปกรณ์สำหรับรถยนต์หรือรถพ่วง เช่น ก้ามเบรค","status":"ดำเนินกิจการ","lat":13.284675,"lon":99.77933},"10760000425238":{"id":"10760000425238","name":"โรงสีแสงเจริญ","owner":"นายสมยศ แช่มช้อย","displayRegistration":"3-9(1)-4/23พบ","province":"เพชรบุรี","district":"เขาย้อย","subdistrict":"หนองปรง","industryType":"สีข้าว กำลังสีสูงสุดของร้านสีข้าว 5 เกวียน/วัน","status":"ดำเนินกิจการ","lat":13.15973,"lon":99.84205},"10760000125382":{"id":"10760000125382","name":"บริษัท แอมคอร์ เฟล็กซิเบิ้ล เพชรบุรี จำกัด","owner":"บริษัท แอมคอร์ เฟล็กซิเบิ้ล เพชรบุรี จำกัด","displayRegistration":"3-41(1)-1/38พบ","province":"เพชรบุรี","district":"เขาย้อย","subdistrict":"หนองปรง","industryType":"พิมพ์และเคลือบผลิตภัณฑ์บรรจุภัณฑ์ด้วยพลาสติก","status":"ดำเนินกิจการ","lat":13.17865,"lon":99.83688},"20760100125389":{"id":"20760100125389","name":"บริษัท ซันซอส อุตสาหกรรมอาหาร จำกัด","owner":"บริษัท ซันซอสอุตสาหกรรมอาหาร จำกัด","displayRegistration":"จ3-13(2)-1/38พบ","province":"เพชรบุรี","district":"หนองหญ้าปล้อง","subdistrict":"หนองหญ้าปล้อง","industryType":"ทำเครื่องปรุงกลิ่น รส หรือเครื่องประกอบอาหาร","status":"ดำเนินกิจการ","lat":13.15333,"lon":99.71024},"10760000125143":{"id":"10760000125143","name":"บริษัท ชลประทานซีเมนต์ จำกัด (มหาชน)","owner":"บริษัท ชลประทานซีเมนต์ จำกัด (มหาชน)","displayRegistration":"3-57(1)-1/14พบ","province":"เพชรบุรี","district":"ชะอำ","subdistrict":"ชะอำ","industryType":"ผลิตปูนซีเมนต์","status":"ดำเนินกิจการ","lat":12.8164044347364,"lon":99.9513816833496},"10760000125325":{"id":"10760000125325","name":"บริษัท พระรามเก้า จำกัด","owner":"บริษัท พระรามเก้า จำกัด","displayRegistration":"3-3(1)-1/32พบ","province":"เพชรบุรี","district":"เขาย้อย","subdistrict":"หนองชุมพลเหนือ","industryType":"ระเบิด โม่ บด ย่อยหิน","status":"ดำเนินกิจการ","lat":13.33662,"lon":99.7729},"10760000225315":{"id":"10760000225315","name":"NULL","owner":"นายภูชิต กตเวทวารักษ์","displayRegistration":"3-10(3)-2/31พบ","province":"เพชรบุรี","district":"ท่ายาง","subdistrict":"ท่ายาง","industryType":"ทำเส้นก๋วยเตี๋ยว","status":"ดำเนินกิจการ","lat":12.97401,"lon":99.89186},"20760700125383":{"id":"20760700125383","name":"โรงงานคอนกรีตผสมเสร็จ เพชรบุรี","owner":"บริษัท ปูนซิเมนต์ไทย (ท่าหลวง) จำกัด","displayRegistration":"จ3-58(1)-1/38พบ","province":"เพชรบุรี","district":"บ้านลาด","subdistrict":"สมอพลือ","industryType":"ผลิตคอนกรีตผสมเสร็จ","status":"ดำเนินกิจการ","lat":13.05731,"lon":99.94549},"10760000725231":{"id":"10760000725231","name":"โรงสีสหกรณ์การเกษตรบ้านลาด จำกัด","owner":"สหกรณ์การเกษตรบ้านลาด จำกัด","displayRegistration":"3-9(1)-7/23พบ","province":"เพชรบุรี","district":"บ้านลาด","subdistrict":"บ้านลาด","industryType":"สีข้าวชนิดแยกแกลบแยกรำ (กำลังสีสูงสุดของร้านสีข้าว 40 เกวียน/วัน)","status":"ดำเนินกิจการ","lat":13.05228,"lon":99.91817},"10760005025231":{"id":"10760005025231","name":"ไทยถาวร","owner":"นายวันชัย มุทธากาญจน์","displayRegistration":"2-9(1)-50/23พบ","province":"เพชรบุรี","district":"บ้านลาด","subdistrict":"สมอพลือ","industryType":"สีข้าวชนิดแยกแกลบแยกรำ (กำลังสีสูงสุดของร้านสีข้าว 15 เกวียน/วัน)","status":"ดำเนินกิจการ","lat":13.069,"lon":99.94528},"10760001025201":{"id":"10760001025201","name":"สหกรณ์การเกษตรเขาย้อย จำกัด","owner":"สหกรณ์การเกษตรเขาย้อย จำกัด","displayRegistration":"3-9(1)-10/20พบ","province":"เพชรบุรี","district":"เขาย้อย","subdistrict":"สระพัง","industryType":"สีข้าว กำลังสีสูงสุดของร้านสีข้าว 12 เกวียน","status":"ดำเนินกิจการ","lat":13.24545,"lon":99.82494},"20760600125376":{"id":"20760600125376","name":"บริษัท ซุปเปอร์กริ๊พ จำกัด","owner":"บริษัท ซุปเปอร์กริ๊พ จำกัด","displayRegistration":"จ3-53(4)-1/37พบ","province":"เพชรบุรี","district":"เขาย้อย","subdistrict":"ห้วยโรง","industryType":"ทำถุงพลาสติก","status":"ดำเนินกิจการ","lat":13.33428,"lon":99.83062},"20760700125375":{"id":"20760700125375","name":"บริษัท ไอเออาร์พี เอเชีย จำกัด","owner":"บริษัท ไอเออาร์พี เอเชีย จำกัด","displayRegistration":"จ3-70-1/37พบ","province":"เพชรบุรี","district":"ชะอำ","subdistrict":"เขาใหญ่","industryType":"ประกอบตู้ทำความเย็น ตู้แช่แข็ง","status":"ดำเนินกิจการ","lat":12.8527765683373,"lon":99.9243772029877},"10760100125233":{"id":"10760100125233","name":"ห้างหุ้นส่วนสามัญ \"คณะบุคคลภิงคารวัฒน์\"","owner":"ห้างหุ้นส่วนสามัญ \"คณะบุคคลภิงคารวัฒน์\"","displayRegistration":"3-66-1/23พบ","province":"เพชรบุรี","district":"เมืองเพชรบุรี","subdistrict":"ท่าราบ","industryType":"ผลิตเครื่องสีข้าว เครื่องนวดข้าว รถไถนา เครื่องสูบน้ำ","status":"ดำเนินกิจการ","lat":13.09966,"lon":99.94935},"10760000125333":{"id":"10760000125333","name":"บริษัท หาดทองเพ็ชรบุรี จำกัด","owner":"บริษัท หาดทองเพ็ชรบุรี จำกัด","displayRegistration":"3-64(9)-1/33พบ","province":"เพชรบุรี","district":"เมืองเพชรบุรี","subdistrict":"ช่องสะแก","industryType":"ทำเครื่องใช้จากโลหะ ผลิตรถสามล้อเครื่อง","status":"หยุดชั่วคราว","lat":13.11123,"lon":99.96103},"10760100125381":{"id":"10760100125381","name":"บริษัท เฟอโร แมนูแฟคทอรี่ จำกัด","owner":"บริษัท เฟอโร แมนูแฟคทอรี่ จำกัด","displayRegistration":"3-59-1/38พบ","province":"เพชรบุรี","district":"เขาย้อย","subdistrict":"เขาย้อย","industryType":"ผลิตเหล็กเส้นเสริมคอนกรีตชนิดเหล็กเส้นกลม เหล็กข้ออ้อย ได้ปีละ 150,000 ตัน (จำนวน 2 สายการผลิต)","status":"ดำเนินกิจการ","lat":13.1954619025337,"lon":99.8194169998169},"20760500125385":{"id":"20760500125385","name":"ไทยนิยม","owner":"นางสาวเพ็ญศิริ ทัศนานุตริยกุล","displayRegistration":"จ3-34(1)-1/38พบ","province":"เพชรบุรี","district":"ท่ายาง","subdistrict":"ท่ายาง","industryType":"ไสไม้","status":"ดำเนินกิจการ","lat":12.97324,"lon":99.89772},"20761000125388":{"id":"20761000125388","name":"สิทธิโชคการช่าง","owner":"นายประพันธ์ สิทธิโชคธรรม","displayRegistration":"จ3-77(2)-1/38พบ","province":"เพชรบุรี","district":"ท่ายาง","subdistrict":"ท่ายาง","industryType":"ทำโครงหลังคารถยนต์","status":"ดำเนินกิจการ","lat":12.96527,"lon":99.90023},"10760100125399":{"id":"10760100125399","name":"บริษัท เอส.อาร์.สปินนิ่ง จำกัด","owner":"บริษัท เอส.อาร์.สปินนิ่ง จำกัด","displayRegistration":"3-22(1)-1/39พบ","province":"เพชรบุรี","district":"เมืองเพชรบุรี","subdistrict":"ต้นมะพร้าว","industryType":"ปั่นด้าย (จำนวน 30,720 แกน) ได้ปีละ 3,400 ตัน","status":"ดำเนินกิจการ","lat":13.14566,"lon":99.85261},"20760200225386":{"id":"20760200225386","name":"บริษัท คลีโนซอล ทราฟฟิค (ประเทศไทย) จำกัด","owner":"บริษัท คลีโนซอล ทราฟฟิค (ประเทศไทย) จำกัด","displayRegistration":"จ3-61-2/38พบ","province":"เพชรบุรี","district":"เขาย้อย","subdistrict":"หนองชุมพลเหนือ","industryType":"ผลิตเครื่องมือตัดเจาะวัสดุต่าง ๆ","status":"ดำเนินกิจการ","lat":13.32007,"lon":99.82729},"10760000225398":{"id":"10760000225398","name":"บริษัท เอส.อาร์.โพลีเอสเตอร์ จำกัด","owner":"บริษัท เอส.อาร์.โพลีเอสเตอร์ จำกัด","displayRegistration":"3-22(1)-2/39พบ","province":"เพชรบุรี","district":"เมืองเพชรบุรี","subdistrict":"ต้นมะพร้าว","industryType":"แต่งสำเร็จเส้นด้าย (เท็กซ์เจอร์) ได้ปีละ 7,400 ตัน","status":"หยุดชั่วคราว","lat":13.14864,"lon":99.85326},"10760300125397":{"id":"10760300125397","name":"บริษัท เกษมศักดิ์ เทรดดิ้ง จำกัด","owner":"บริษัท เกษมศักดิ์ เทรดดิ้ง จำกัด","displayRegistration":"3-59-1/39พบ","province":"เพชรบุรี","district":"เขาย้อย","subdistrict":"ทับคาง","industryType":"หลอมหล่อเหล็กแท่ง (Billet) ผลิตเหล็กเส้นเสริมคอนกรีตชนิดเหล็เหล็กฉากและเหล็กรูปพรรณ จำนวนวันละ 48 ตัน (เตาหลอมขนาด 48 ตัน/วัน จำนวน 1 เตา และเตาอบขนาด 48 ตัน/วั","status":"ดำเนินกิจการ","lat":13.2017,"lon":99.79512},"20760100225387":{"id":"20760100225387","name":"บริษัท ลีมิ่งเอ็นเตอร์ไพรส์ จำกัด","owner":"บริษัท ลีมิ่งเอ็นเตอร์ไพรส์ จำกัด","displayRegistration":"จ3-42(1)-2/38พบ","province":"เพชรบุรี","district":"เขาย้อย","subdistrict":"หนองชุมพลเหนือ","industryType":"ผสมสีและเคมีใช้ในอุตสาหกรรมสิ่งทอ","status":"ดำเนินกิจการ","lat":13.33069,"lon":99.79155},"20760500125377":{"id":"20760500125377","name":"บริษัท มิ่งเห็น (ประเทศไทย) จำกัด","owner":"บริษัท มิ่งเห็น (ประเทศไทย) จำกัด","displayRegistration":"จ3-42(1)-1/37พบ","province":"เพชรบุรี","district":"เขาย้อย","subdistrict":"หนองชุมพลเหนือ","industryType":"ผลิตเคมีใช้กับอุตสาหกรรมสิ่งทอและฟอกย้อม","status":"ดำเนินกิจการ","lat":13.31454,"lon":99.75057},"00760000325380":{"id":"00760000325380","name":"บริษัท ลีพัฒนาผลิตภัณฑ์ จำกัด (มหาชน)","owner":"บริษัท ลีพัฒนาผลิตภัณฑ์ จำกัด (มหาชน)","displayRegistration":"ศ3-15(1)-3/38พบ","province":"เพชรบุรี","district":"เขาย้อย","subdistrict":"ห้วยท่าช้าง","industryType":"ทำอาหารผสมหรืออาหารผสมสำเร็จรูปสำหรับเลี้ยงสัตว์บก","status":"ดำเนินกิจการ","lat":13.13391,"lon":99.81345},"00760000125384":{"id":"00760000125384","name":"บริษัท เอเชี่ยน ฟีด จำกัด","owner":"บริษัท เอเชี่ยน ฟีด จำกัด","displayRegistration":"ศ3-15(1)-1/38พบ","province":"เพชรบุรี","district":"ท่ายาง","subdistrict":"ท่ายาง","industryType":"ผลิตอาหารสัตว์ผสมสำเร็จรูป","status":"ดำเนินกิจการ","lat":12.9976164149111,"lon":99.9094104766846},"10760500125395":{"id":"10760500125395","name":"บริษัท กรีนฟิวเตอร์ จำกัด","owner":"บริษัท กรีนฟิวเตอร์ จำกัด","displayRegistration":"3-77(2)-1/39พบ","province":"เพชรบุรี","district":"เขาย้อย","subdistrict":"หนองชุมพล","industryType":"ผลิตไส้กรองน้ำมันเครื่อง ไส้กรองอากาศและไส้กรองเชื้อเพลิง","status":"ดำเนินกิจการ","lat":13.28374,"lon":99.77935},"10760000125390":{"id":"10760000125390","name":"บริษัท บ้านแหลมธารทิพย์ (เพชรบุรี) จำกัด","owner":"บริษัท บ้านแหลมธารทิพย์ (เพชรบุรี) จำกัด","displayRegistration":"3-14-1/39พบ","province":"เพชรบุรี","district":"บ้านแหลม","subdistrict":"บ้านแหลม","industryType":"ทำน้ำแข็งซอง ได้ปีละ 60,000 ซอง","status":"ดำเนินกิจการ","lat":13.20575,"lon":99.96539},"10760200125406":{"id":"10760200125406","name":"บริษัท กังวาลโพลีเอสเตอร์ จำกัด","owner":"บริษัท กังวาลโพลีเอสเตอร์ จำกัด","displayRegistration":"3-44-1/40พบ","province":"เพชรบุรี","district":"เขาย้อย","subdistrict":"หนองชุมพล","industryType":"ผลิตเส้นใยสังเคราะห์ชนิดเส้นใยโพลีเอสเตอร์ และขอเพิ่มกิจการการผลิตงานไฟฟ้าจากพลังงานและแสงอาทิตย์ที่ติดตั้งบนหลังคา และบนทุ่นลอยน้ำขนาด 2.042 เมกะวัตต์ เพื่อใช้ภายในโรงงาน","status":"ดำเนินกิจการ","lat":13.2891,"lon":99.80697},"30760000125404":{"id":"30760000125404","name":"บริษัท เขาใหญ่ศิลา จำกัด","owner":"บริษัท เขาใหญ่ศิลา จำกัด","displayRegistration":"ธ3-3(1)-1/40พบ","province":"เพชรบุรี","district":"ชะอำ","subdistrict":"ชะอำ","industryType":"โม่ บด ย่อยหิน","status":"ดำเนินกิจการ","lat":12.71524,"lon":99.95493},"10760300125405":{"id":"10760300125405","name":"โรงไฟฟ้าเขื่อนแก่งกระจาน","owner":"การไฟฟ้าฝ่ายผลิตแห่งประเทศไทย","displayRegistration":"3-88(3)-1/40พบ","province":"เพชรบุรี","district":"แก่งกระจาน","subdistrict":"แก่งกระจาน","industryType":"ผลิตกระแสไฟฟ้า","status":"ดำเนินกิจการ","lat":12.9158260630674,"lon":99.6308622916583},"20760200125404":{"id":"20760200125404","name":"ห้างหุ้นส่วนจำกัด เอสอาร์เฟอร์นิเจอร์ อินดัสทรี","owner":"นายพุฒิพงษ์ ภัทรสิริโรจน์","displayRegistration":"จ3-64(13)-1/40พบ","province":"เพชรบุรี","district":"เขาย้อย","subdistrict":"ทับคาง","industryType":"กลึง เชื่อม เจาะ ไส และปั้มโลหะทั่วไป","status":"ดำเนินกิจการ","lat":13.210209,"lon":99.81373},"20760300125403":{"id":"20760300125403","name":"บริษัท เพชรมิตซู จำกัด","owner":"บริษัท เพชรมิตซู จำกัด","displayRegistration":"จ3-65-1/40พบ","province":"เพชรบุรี","district":"เมืองเพชรบุรี","subdistrict":"ไร่ส้ม","industryType":"ซ่อมเครื่องยนต์และรถยนต์","status":"หยุดชั่วคราว","lat":13.12128,"lon":99.88598},"20760400125402":{"id":"20760400125402","name":"บริษัท ลินิน ด็อกเตอร์ จำกัด","owner":"บริษัท ลินิน ด็อกเตอร์ จำกัด","displayRegistration":"จ3-98-1/40พบ","province":"เพชรบุรี","district":"เขาย้อย","subdistrict":"ทับคาง","industryType":"ซัก อบ รีด ผ้าชนิดต่าง ๆ","status":"ดำเนินกิจการ","lat":13.1942,"lon":99.81382},"20760100125405":{"id":"20760100125405","name":"สุชาติ ลิตบัว","owner":"นายสุชาติ ลิตบัว","displayRegistration":"จ3-37-1/40พบ","province":"เพชรบุรี","district":"ชะอำ","subdistrict":"ดอนขุนห้วย","industryType":"ทำเครื่องเรือนหรือเครื่องตบแต่งภายในอาคารจากไม้แปรรูป","status":"ดำเนินกิจการ","lat":12.86421,"lon":99.91802},"20760100225403":{"id":"20760100225403","name":"โรงงานคอนกรีตผสมเสร็จ เขาย้อย","owner":"บริษัท ปูนซิเมนต์ไทย (ท่าหลวง) จำกัด","displayRegistration":"จ3-58(1)-2/40พบ","province":"เพชรบุรี","district":"เขาย้อย","subdistrict":"เขาย้อย","industryType":"ผลิตคอนกรีตผสมเสร็จ","status":"ดำเนินกิจการ","lat":13.24238,"lon":99.81988},"20760900125415":{"id":"20760900125415","name":"บริษัท แคล-คอมพ์ อีเล็คโทรนิคส์ (ประเทศไทย) จำกัด","owner":"บริษัท แคล-คอมพ์ อีเล็คโทรนิคส์ (ประเทศไทย) จำกัด","displayRegistration":"จ3-69-1/41พบ","province":"เพชรบุรี","district":"เขาย้อย","subdistrict":"สระพัง","industryType":"ผลิตและประกอบเครื่องโทรศัพท์ไร้สาย เครื่องพิมพ์เครื่องคอมพิวเตอร์ สำหรับกล้องถ่ายรูป สำหรับเครื่องสแกนภาพรับ-ส่งข้อมูล และสำหรับอุปกรณ์ที่ส่งสัญญาณออกมาเป็นดิจิตอลและชิ้นส่วนกึ่งสำเร็จรูป และผลิตเครื่องถ่ายเอกสารและเครื่องโทรสาร","status":"ดำเนินกิจการ","lat":13.26774,"lon":99.82156},"10760000125416":{"id":"10760000125416","name":"บริษัท เอเวอร์เจท จำกัด","owner":"บริษัท เอเวอร์เจท จำกัด","displayRegistration":"3-53(1)-1/41พบ","province":"เพชรบุรี","district":"เขาย้อย","subdistrict":"สระพัง","industryType":"ผลิตชิ้นส่วนพลาสติกสำหรับเครื่องอิเล็กทรอนิกส์","status":"ดำเนินกิจการ","lat":13.26774,"lon":99.82156},"20761100125411":{"id":"20761100125411","name":"ส.ช่างยนต์","owner":"นายสมศักดิ์ ชัยมงคลเลิศ","displayRegistration":"จ3-95(1)-1/41พบ","province":"เพชรบุรี","district":"เมืองเพชรบุรี","subdistrict":"ไร่ส้ม","industryType":"ซ่อมรถยนต์และกลึง-เชื่อมโลหะ","status":"ดำเนินกิจการ","lat":13.1148,"lon":99.91879},"10760100125415":{"id":"10760100125415","name":"บริษัท ไทยฟอร์จจิ้งเอนจิเนียริ่ง จำกัด","owner":"บริษัท ไทยฟอร์จจิ้งเอนจิเนียริ่ง จำกัด","displayRegistration":"3-77(2)-1/41พบ","province":"เพชรบุรี","district":"เขาย้อย","subdistrict":"หนองชุมพลเหนือ","industryType":"ชิ้นส่วนอะไหล่รถยนต์ ผลิตชิ้นส่วนอะไหล่รถยนต์จากเหล็ก และอะไหล่รถไถจากเหล็ก","status":"ดำเนินกิจการ","lat":13.33033,"lon":99.79221},"20760800125416":{"id":"20760800125416","name":"บริษัท ฮวา หลิน สเตนเลสส์ สตีล อินดัสตรี จำกัด (2)","owner":"บริษัท ฮวา หลิน สเตนเลสส์ สตีล อินดัสตรี จำกัด","displayRegistration":"จ3-64(10)-1/41พบ","province":"เพชรบุรี","district":"เขาย้อย","subdistrict":"หนองชุมพล","industryType":"ขัดเงา ขัดลายแผ่นสแตนเลสและตบแต่งขึ้นรูปแผ่นสแตนเลสและท่อแสดแสตนเลส","status":"ดำเนินกิจการ","lat":13.28836,"lon":99.80354},"20760300125411":{"id":"20760300125411","name":"บริษัท คลีโนลซอล ทราฟฟิค(ประเทศไทย) จำกัด","owner":"บริษัท คลีโนลซอล ทราฟฟิค(ประเทศไทย)จำกัด","displayRegistration":"จ3-45(1)-1/41พบ","province":"เพชรบุรี","district":"เขาย้อย","subdistrict":"หนองชุมพลเหนือ","industryType":"ทำสี สำหรับงานจราจร","status":"ดำเนินกิจการ","lat":13.32007,"lon":99.82729},"10760000125432":{"id":"10760000125432","name":"บริษัท เอ็น.เอส.เอฟ(ไทยแลนด์) จำกัด","owner":"บริษัท เอ็น.เอส.เอฟ (ไทยแลนด์)จำกัด","displayRegistration":"3-40(1)-1/43พบ","province":"เพชรบุรี","district":"เขาย้อย","subdistrict":"เขาย้อย","industryType":"ผลิตสติ๊กเกอร์ฟิล์ม กระดาษ กระดาษและฟิล์มเคลือบสำหรับงานพิมพ์ กระดาษและฟิมพ์สำหรับงานเขียน พิมพ์ และถ่ายเอกสารแบบแปลน","status":"ดำเนินกิจการ","lat":13.2395904146605,"lon":99.8006951808929},"20760300125437":{"id":"20760300125437","name":"บริษัท แจ็คการ์ด เท็กซ์ไทล์(เอเซีย)จำกัด","owner":"บริษัท แจ็คการ์ด เท็กซ์ไทล์ (เอเซีย) จำกัด","displayRegistration":"จ3-24-1/43พบ","province":"เพชรบุรี","district":"เขาย้อย","subdistrict":"ห้วยท่าช้าง","industryType":"ทอและถักผ้าลูกไม้ ทอผ้า","status":"ดำเนินกิจการ","lat":13.1406270021908,"lon":99.8234939575195},"20760000125422":{"id":"20760000125422","name":"บริษัท ไพร์มวินด์มิลล์ จำกัด","owner":"บริษัท ไพร์มวินด์มิลล์ จำกัด","displayRegistration":"จ3-28(1)-1/42พบ","province":"เพชรบุรี","district":"เขาย้อย","subdistrict":"ทับคาง","industryType":"ผลิตและจำหน่ายเสื้อผ้าสำเร็จรูป","status":"ดำเนินกิจการ","lat":13.21366,"lon":99.82397},"20760000125430":{"id":"20760000125430","name":"โรงงานปรับปรุงสภาพเมล็ดพันธ์ข้าว","owner":"สหกรณ์การเกษตรบ้านลาด จำกัด","displayRegistration":"จ3-2(1)-1/43พบ","province":"เพชรบุรี","district":"บ้านลาด","subdistrict":"บ้านลาด","industryType":"อบเมล็ดพืช","status":"ดำเนินกิจการ","lat":13.05468,"lon":99.9199},"20760000125448":{"id":"20760000125448","name":"โรงสีสมบัติประเสริฐ (สาย 1)","owner":"นายประยงค์ ทองมาก","displayRegistration":"จ3-9(1)-1/44พบ","province":"เพชรบุรี","district":"ท่ายาง","subdistrict":"หนองจอก","industryType":"สีข้าวชนิดแยกแกลบแยกรำ (กำลังสีสุงสุดของร้านสีข้าว 20 เกวียน/วัน)","status":"ดำเนินกิจการ","lat":12.93192,"lon":99.96919},"20760600125434":{"id":"20760600125434","name":"ห้างหุ้นส่วนจำกัด ธนาเดชคอนกรีต","owner":"ห้างหุ้นส่วนจำกัด ธนาเดชคอนกรีต","displayRegistration":"จ3-58(1)-1/43พบ","province":"เพชรบุรี","district":"บ้านลาด","subdistrict":"ถ้ำรงค์","industryType":"ผลิตคอนกรีตผสมเสร็จ","status":"ดำเนินกิจการ","lat":13.02675,"lon":99.92522},"10760000225430":{"id":"10760000225430","name":"บริษัท นันยางการทออุตสาหกรรม จำกัด","owner":"บริษัท นันยางการทออุตสาหกรรม จำกัด","displayRegistration":"3-24-2/43พบ","province":"เพชรบุรี","district":"เขาย้อย","subdistrict":"เขาย้อย","industryType":"ถักผ้า","status":"ดำเนินกิจการ","lat":13.22287996,"lon":99.82407331},"20760400125444":{"id":"20760400125444","name":"พงษ์ศักดิ์คาร์แคร์","owner":"ห้างหุ้นส่วนจำกัด พงษ์ศักดิ์คาร์แคร์","displayRegistration":"จ3-95(1)-1/44พบ","province":"เพชรบุรี","district":"เมืองเพชรบุรี","subdistrict":"ไร่ส้ม","industryType":"เคาะ-พ่นสีรถยนต์","status":"ดำเนินกิจการ","lat":13.11528,"lon":99.9226},"20760000325444":{"id":"20760000325444","name":"โรงสีทวีรวมมิตร","owner":"นายบุญรวม เจริญผล นายสกล เจริญผล","displayRegistration":"จ3-9(1)-3/44พบ","province":"เพชรบุรี","district":"เมืองเพชรบุรี","subdistrict":"สำมะโรง","industryType":"สีข้าว กำลังสีสูงสุดของร้านสีข้าว 100 เกวียน/วัน","status":"หยุดชั่วคราว","lat":13.07215,"lon":99.99466},"20760300125452":{"id":"20760300125452","name":"บริษัท ไทย นันวูเว่น จำกัด","owner":"บริษัท ไทย นันวูเว่น จำกัด","displayRegistration":"จ3-22(1)-1/45พบ","province":"เพชรบุรี","district":"เขาย้อย","subdistrict":"ห้วยโรง","industryType":"ผลิต จำหน่าย รับจ้างผลิตภัณฑ์ผ้าไหมทอพร้อมทั้งชิ้นส่วนประกอบ และอุปกรณ์อื่น ๆ ที่เกี่ยวกับสินค้าดังกล่าวทุกชนิด","status":"ดำเนินกิจการ","lat":13.3226869553885,"lon":99.8317337036133},"20760100125447":{"id":"20760100125447","name":"บริษัท บราสเทค จำกัด","owner":"บริษัท บราสเทค จำกัด","displayRegistration":"จ3-60-1/44พบ","province":"เพชรบุรี","district":"เขาย้อย","subdistrict":"เขาย้อย","industryType":"หลอมโลหะ เช่น ทองแดง ทองเหลือง อลูมิเนียมจากเศษโลหะ ตะกรันและกากตะกรันโลหะ","status":"ดำเนินกิจการ","lat":13.22791,"lon":99.82408},"20760800125432":{"id":"20760800125432","name":"บริษัท อาสโก้แม็คฟิลเตอร์ จำกัด","owner":"บริษัท อาสโก้แม็คฟิลเตอร์ จำกัด","displayRegistration":"จ3-77(2)-1/43พบ","province":"เพชรบุรี","district":"เขาย้อย","subdistrict":"หนองชุมพล","industryType":"ผลิตไส้กรองอากาศ","status":"ดำเนินกิจการ","lat":13.28826,"lon":99.80258},"20760300125445":{"id":"20760300125445","name":"บริษัท ซีเอสอี เทีคโนโลยี จำกัด","owner":"บริษัท ซีเอสอี เทคโนโลยี จำกัด","displayRegistration":"จ3-64(10)-1/44พบ","province":"เพชรบุรี","district":"เขาย้อย","subdistrict":"หนองชุมพล","industryType":"ผลิตชิ้นส่วนโลหะประกอบท่อและท่อเหล็กไร้สนิม","status":"ดำเนินกิจการ","lat":13.26781,"lon":99.74946},"20760700125458":{"id":"20760700125458","name":"บริษัท ภัณฑ์ดีพลาสติก จำกัด","owner":"บริษัท ภัณฑ์ดีพลาสติก จำกัด","displayRegistration":"จ3-53(4)-1/45พบ","province":"เพชรบุรี","district":"เขาย้อย","subdistrict":"หนองชุมพลเหนือ","industryType":"ทำถุงพลาสติก ผ้ากันเปื้อน ผ่าเเผ่นพลาสติก และผลิตภัณฑ์อื่นๆ ที่ทำจากพลาสติก","status":"ดำเนินกิจการ","lat":13.33571,"lon":99.82965},"10760000125440":{"id":"10760000125440","name":"บริษัท โกลเด้น ลีด ฟู้ด จำกัด","owner":"บริษัท โกลเด้น ลีด ฟู้ด จำกัด","displayRegistration":"3-6(5)-1/44พบ","province":"เพชรบุรี","district":"บ้านแหลม","subdistrict":"บางตะบูน","industryType":"แกะหอยทุกชนิด","status":"ดำเนินกิจการ","lat":13.26718,"lon":99.92992},"20760500125450":{"id":"20760500125450","name":"บริษัท เอชเล่อร์ ไทยนิต จำกัด","owner":"บริษัท เอชเล่อร์ ไทยนิต จำกัด","displayRegistration":"จ3-24-1/45พบ","province":"เพชรบุรี","district":"เขาย้อย","subdistrict":"หนองชุมพล","industryType":"ผลิตผ้าถัก","status":"ดำเนินกิจการ","lat":13.27464,"lon":99.81871},"20760600125459":{"id":"20760600125459","name":"บริษัท ซีรีคลอร์ คอร์ปอเรชั่น(ประเทศไทย)จำกัด","owner":"บริษัท ซีรีคลอร์ คอร์ปอเรชั่น(ประเทศไทย)จำกัด","displayRegistration":"จ3-50(4)-1/45พบ","province":"เพชรบุรี","district":"เขาย้อย","subdistrict":"เขาย้อย","industryType":"การผสมแบ่งบรรจุผลิตภัณฑ์จากปิโตรเลี่ยม เช่น น้ำมันหล่อลื่นเครื่องยนต์และน้ำมันหล่อลื่นอุตสาหกรรมทั่วไป","status":"ดำเนินกิจการ","lat":13.23092201,"lon":99.81321573},"20760000125455":{"id":"20760000125455","name":"บริษัท เพชรสมบูรณ์เจริญธัญญกิจ จำกัด","owner":"บริษัท เพชรสมบูรณ์เจริญธัญญกิจ จำกัด","displayRegistration":"จ3-2(1)-1/45พบ","province":"เพชรบุรี","district":"เขาย้อย","subdistrict":"ห้วยท่าช้าง","industryType":"อบ เก็บรักษาและลำเลียงพืชหรือเมล็ดพืชหรือผลิตผลจากพืชในไซโล","status":"ดำเนินกิจการ","lat":13.1359880900487,"lon":99.8269701004028},"20760800125457":{"id":"20760800125457","name":"บริษัท นครหลวงคอนกรีต จำกัด","owner":"บริษัท นครหลวงคอนกรีต จำกัด","displayRegistration":"จ3-58(1)-1/45พบ","province":"เพชรบุรี","district":"เขาย้อย","subdistrict":"หนองชุมพลเหนือ","industryType":"ผลิตคอนกรีตผสมเสร็จ","status":"ดำเนินกิจการ","lat":13.32426,"lon":99.81813},"10760100125464":{"id":"10760100125464","name":"บริษัท ไทย ซี ซิง จำกัด","owner":"บริษัท ไทย ซี ซิง จำกัด","displayRegistration":"3-106-1/46พบ","province":"เพชรบุรี","district":"เขาย้อย","subdistrict":"หนองชุมพลเหนือ","industryType":"กลั่นทินเนอร์หรือตัวทำละลายที่ใช้งานแล้ว เพื่อนำกลับมาใช้ประโยชน์ใหม่ นำน้ำมันหล่อลื่น และตัวทำละลายที่ใช้งานแล้วมาผ่านกรรมวิธีทางอุตสาหกรรมเพื่อผลิตเป็นเชื้อเพลิงทดแทนโดยกระบวนการกรอง ทำเชื้อเพลิงผสม (Blending) จากวัสดุที่ไม่ใช้แล้วที่มีค่าความร้อน ผลิตเชื้อเพลิงแข็งจากสิ่งปฏิกูลหรือวัสดุที่ไม่ใช้แล้วที่ไม่เป็นของเสียอันตราย เก็บรวบรวมแบตเตอรี่เก่าโดยไม่มีการแปรสภาพ","status":"ดำเนินกิจการ","lat":13.31454,"lon":99.75057},"20760000125463":{"id":"20760000125463","name":"โรงงานแปรรูปนมวิทยาลัยเกษตรและเทคโนโลยีเพชรบุรี","owner":"สำนักงานคณะกรรมการอาชีวศึกษา","displayRegistration":"จ3-5(1)-1/46พบ","province":"เพชรบุรี","district":"ชะอำ","subdistrict":"สามพระยา","industryType":"ผลิตนมพลาสเจอร์ไรส์","status":"ดำเนินกิจการ","lat":12.63449,"lon":99.88567},"20760500125443":{"id":"20760500125443","name":"บริษัท เอกเพชร - ทับทิมจันทร์ จำกัด","owner":"บริษัท เอกเพชร - ทับทิมจันทร์ จำกัด","displayRegistration":"จ2-6(5)-1/44พบ","province":"เพชรบุรี","district":"บ้านแหลม","subdistrict":"บ้านแหลม","industryType":"แกะ ล้าง สัตว์ทะเล กุ้ง หมึก","status":"ดำเนินกิจการ","lat":13.2228172983238,"lon":99.9917221069336},"10760005125478":{"id":"10760005125478","name":"บริษัท คอมแพ็คอินเตอร์เนชั่นแนล (1994) จำกัด","owner":"บริษัท คอมแพ็คอินเตอร์เนชั่นแนล (1994) จำกัด","displayRegistration":"3-77(2)-51/47พบ","province":"เพชรบุรี","district":"เขาย้อย","subdistrict":"หนองชุมพล","industryType":"ทำชิ้นส่วนพิเศษหรืออุปกรณ์สำหรับรถยนต์ หรือรถพ่วง เช่น ผ้าเบรก ดิสเบรก ก้ามเบรก","status":"ดำเนินกิจการ","lat":13.2838466748941,"lon":99.7793769836426},"10760003025472":{"id":"10760003025472","name":"ห้างหุ้นส่วนจำกัด โชคสุชินคอนสตรัคชั่น","owner":"ห้างหุ้นส่วนจำกัด โชคสุชินคอนสตรัคชั่น","displayRegistration":"3-50(4)-30/47พบ","province":"เพชรบุรี","district":"ชะอำ","subdistrict":"เขาใหญ่","industryType":"ผลิตยางแอสฟัลท์ติกคอนกรีต","status":"ดำเนินกิจการ","lat":12.85869,"lon":99.91269},"20760000525472":{"id":"20760000525472","name":"บริษัท เอสเอบี พลาสแมช จำกัด","owner":"บริษัท เอสเอบี พลาสแมช จำกัด","displayRegistration":"จ3-71-5/47พบ","province":"เพชรบุรี","district":"เขาย้อย","subdistrict":"ทับคาง","industryType":"ผลิตเครื่องเป่าขวดพลาสติก","status":"ดำเนินกิจการ","lat":13.195462,"lon":99.81961},"20760009125472":{"id":"20760009125472","name":"ห้างหุ้นส่วนจำกัด เอส.เอ็ม เทคโนโลยี","owner":"ห้างหุ้นส่วนจำกัด เอส. เอ็ม. เทคโนโลยี","displayRegistration":"จ3-64(13)-91/47พบ","province":"เพชรบุรี","district":"เขาย้อย","subdistrict":"เขาย้อย","industryType":"กลึง เจาะ คว้าน กัด ไส เจียน หรือเชื่อมโลหะทั่วไป","status":"ดำเนินกิจการ","lat":13.22951,"lon":99.82418},"20760005725473":{"id":"20760005725473","name":"โรงสีสหกรณ์การเกษตรเมืองเพชรบุรี จำกัด","owner":"สหกรณ์การเกษตรเมืองเพชรบุรี จำกัด","displayRegistration":"จ3-9(1)-57/47พบ","province":"เพชรบุรี","district":"เมืองเพชรบุรี","subdistrict":"โพไร่หวาน","industryType":"สีข้าว กำลังสีสูงสุดของร้านสีข้าว 40 เกวียน/วัน","status":"ดำเนินกิจการ","lat":13.05046,"lon":99.98331},"20760000425418":{"id":"20760000425418","name":"บริษัท อีซูซุสงวนไทยมอเตอร์เซลส์ จำกัด สาขาบางเค็ม","owner":"บริษัท อีซูซุสงวนไทยมอเตอร์เซลส์ จำกัด สาขาบางเค็ม","displayRegistration":"จ3-95(1)-4/41พบ","province":"เพชรบุรี","district":"เขาย้อย","subdistrict":"หนองชุมพลเหนือ","industryType":"ชนิดอีซูซุ","status":"ดำเนินกิจการ","lat":13.32783,"lon":99.82869},"20760000425426":{"id":"20760000425426","name":"บริษัท โตโยต้าเพชรบุรี จำกัด","owner":"บริษัท โตโยต้าเพชรบุรี จำกัด","displayRegistration":"จ3-95(1)-4/42พบ","province":"เพชรบุรี","district":"เมืองเพชรบุรี","subdistrict":"หัวสะพาน","industryType":"ซ่อมและพ่นสีรถยนต์","status":"ดำเนินกิจการ","lat":13.12389,"lon":99.88325},"10760000225463":{"id":"10760000225463","name":"บริษัท กรีน พาแนล จำกัด","owner":"บริษัท กรีน พาแนล จำกัด","displayRegistration":"3-34(2)-2/46พบ","province":"เพชรบุรี","district":"เขาย้อย","subdistrict":"หนองชุมพลเหนือ","industryType":"ทำวงกบ ประตู หน้าต่าง แผ่นไม้ปาร์ติเกิ้ล แผ่นใยไม้อัดความหนาแน่นปานกลางและสูง ลังไม้ เครื่องใช้ในบ้าน และเครื่องเรือน","status":"ดำเนินกิจการ","lat":13.30044,"lon":99.73674},"20760000125349":{"id":"20760000125349","name":"บริษัท อึ้งง่วนไต๋อีซูซุเซลส์ จำกัด","owner":"บริษัท อึ้งง่วนไต๋อีซูซุเซลส์ จำกัด","displayRegistration":"จ3-95(1)-1/34พบ","province":"เพชรบุรี","district":"เมืองเพชรบุรี","subdistrict":"ไร่ส้ม","industryType":"ซ่อมเครื่องยนต์ และตั้งศูนย์ถ่วงล้อ","status":"ดำเนินกิจการ","lat":13.11563,"lon":99.91688},"20760019125488":{"id":"20760019125488","name":"อู่ทวีผล","owner":"นายสาธร เพ่งผล","displayRegistration":"จ3-95(1)-191/48พบ","province":"เพชรบุรี","district":"เมืองเพชรบุรี","subdistrict":"ไร่ส้ม","industryType":"เคาะพ่นสีรถยนต์","status":"ดำเนินกิจการ","lat":13.11497,"lon":99.92099},"00760000225382":{"id":"00760000225382","name":"บริษัท โกรเบสท์คอร์โพเรชั่น จำกัด","owner":"บริษัท โกรเบสท์คอร์โพเรชั่น จำกัด","displayRegistration":"ศ3-15(1)-2/38พบ","province":"เพชรบุรี","district":"เขาย้อย","subdistrict":"หนองปรง","industryType":"ผลิตอาหารสัตว์น้ำ","status":"ดำเนินกิจการ","lat":13.15708,"lon":99.84791},"10760001325486":{"id":"10760001325486","name":"บริษัท ไทยลักซ์ เอ็นเตอร์ไพรส์ (ประเทศไทย) จำกัด","owner":"บริษัท ไทยลักซ์ เอ็นเตอร์ไพรส์ (ประเทศไทย) จำกัด","displayRegistration":"3-15(1)-13/48พบ","province":"เพชรบุรี","district":"เขาย้อย","subdistrict":"หนองชุมพล","industryType":"ทำอาหารผสมหรืออาหารสำเร็จรูปสำหรับเลี้ยงสัตว์ เช่น สัตว์น้ำ","status":"ดำเนินกิจการ","lat":13.2908216783459,"lon":99.8010492324829},"20760004625484":{"id":"20760004625484","name":"บริษัท พรีเมี่ยม เฟล็กซิเบิ้ล แพคเกจจิ้ง จำกัด","owner":"บริษัท พรีเมี่ยม เฟล็กซิเบิ้ล แพคเกจจิ้ง จำกัด","displayRegistration":"จ3-53(5)-46/48พบ","province":"เพชรบุรี","district":"เขาย้อย","subdistrict":"ทับคาง","industryType":"ผลิตแผ่นฟิล์มพลาสติก","status":"ดำเนินกิจการ","lat":13.1906360050344,"lon":99.8317229747772},"20760100525489":{"id":"20760100525489","name":"บริษัท สโตเรจซิสเต็ม อินดัสตรี จำกัด","owner":"บริษัท สโตเรจซิสเต็ม อินดัสตรี จำกัด","displayRegistration":"จ3-62-5/48พบ","province":"เพชรบุรี","district":"เขาย้อย","subdistrict":"หนองชุมพลเหนือ","industryType":"ผลิต ผลิตภัณฑ์จัดเก็บสำเร็จรูป อุปกรณ์และเครื่องใช้ในอาคารและโรงงานด้วยโลหะ","status":"ดำเนินกิจการ","lat":13.324605,"lon":99.803336},"20760008425485":{"id":"20760008425485","name":"บริษัท ชลประทานคอนกรีต จำกัด หน่วยงานชะอำ","owner":"บริษัท ชลประทานคอนกรีต จำกัด","displayRegistration":"จ3-58(1)-84/48พบ","province":"เพชรบุรี","district":"ชะอำ","subdistrict":"ชะอำ","industryType":"ผลิตคอนกรีตผสมเสร็จ","status":"ดำเนินกิจการ","lat":12.8222000593054,"lon":99.9822914600372},"20760035425482":{"id":"20760035425482","name":"บริษัท สยามนิสสันเพชร จำกัด","owner":"บริษัท สยามนิสสันเพชร จำกัด","displayRegistration":"จ3-95(1)-354/48พบ","province":"เพชรบุรี","district":"เมืองเพชรบุรี","subdistrict":"บ้านหม้อ","industryType":"ซ่อมรถยนต์","status":"ดำเนินกิจการ","lat":13.10645,"lon":99.93368},"20760013725481":{"id":"20760013725481","name":"ห้างหุ้นส่วนจำกัด เพชรวัฒนาโยธา","owner":"ห้างหุ้นส่วนจำกัด เพชรวัฒนาโยธา","displayRegistration":"จ3-58(1)-137/48พบ","province":"เพชรบุรี","district":"บ้านแหลม","subdistrict":"บางครก","industryType":"ผลิตผลิตภัณฑ์คอนกรีต เช่นเสาเข็ม เสาไฟฟ้า แผ่นพื้น","status":"ดำเนินกิจการ","lat":13.26277,"lon":99.94531},"20760066725487":{"id":"20760066725487","name":"-","owner":"นายนิพนธ์ แสนสร้อย","displayRegistration":"จ3-3(2)-667/48พบ","province":"เพชรบุรี","district":"หนองหญ้าปล้อง","subdistrict":"หนองหญ้าปล้อง","industryType":"ขุดดินและขุดหรือร่อนทราย","status":"ดำเนินกิจการ","lat":13.2036,"lon":99.71869},"10760100125480":{"id":"10760100125480","name":"บริษัท สยามกัลฟ์ปิโตรเคมีคัล จำกัด","owner":"บริษัท สยามกัลฟ์ปิโตรเคมีคัล จำกัด","displayRegistration":"3-49-1/48พบ","province":"เพชรบุรี","district":"บ้านแหลม","subdistrict":"บางแก้ว","industryType":"กลั่นน้ำมันปิโตรเลียมจากน้ำมันดิบและคอนเดนเสท ขนาดกำลังการกลั่น 11200 บาเรลต่อวัน","status":"ดำเนินกิจการ","lat":13.130657205695,"lon":100.053297697189},"10760000125481":{"id":"10760000125481","name":"บริษัท นันวูเว่น อะไลอันซ์ จำกัด","owner":"บริษัท นันวูเว่น อะไลอันซ์ จำกัด","displayRegistration":"3-22(1)-1/48พบ","province":"เพชรบุรี","district":"เขาย้อย","subdistrict":"ห้วยโรง","industryType":"รีด อัด เส้นใยสังเคราะห์ให้เป็นแผ่น","status":"ดำเนินกิจการ","lat":13.322014,"lon":99.833238},"00760000125392":{"id":"00760000125392","name":"บริษัท เซียนหนิง ซีฟู้ดส์ จำกัด","owner":"บริษัท เซียนหนิง ซีฟู้ดส์ จำกัด","displayRegistration":"ศ3-6(2)-1/39พบ","province":"เพชรบุรี","district":"บ้านแหลม","subdistrict":"บ้านแหลม","industryType":"ทำผลิตภัณฑ์อาหารทะเลแช่แข็ง สัตว์น้ำแช่แข็ง อาหารปรุงแต่ง อาหารสำเร็จรูปและกึ่งสำเร็จรูปจากสัตว์น้ำ","status":"ดำเนินกิจการ","lat":13.2295016175426,"lon":99.9733543395996},"00760000225333":{"id":"00760000225333","name":"บริษัท เพชรบุรีธารทิพย์ จำกัด","owner":"บริษัท เพชรบุรีธารทิพย์ จำกัด","displayRegistration":"ศ3-14-2/33พบ","province":"เพชรบุรี","district":"เมืองเพชรบุรี","subdistrict":"บ้านหม้อ","industryType":"ทำน้ำแข็งซอง","status":"ดำเนินกิจการ","lat":13.07379,"lon":99.93843},"20760400125386":{"id":"20760400125386","name":"บริษัท กู๊ด แอนด์ กู๊ด แฟคตอรี่ จำกัด","owner":"บริษัท กู๊ด แอนด์ กู๊ด แฟคตอรี่ จำกัด","displayRegistration":"จ3-32(1)-1/38พบ","province":"เพชรบุรี","district":"เมืองเพชรบุรี","subdistrict":"ต้นมะพร้าว","industryType":"ผลิตเครื่องหนังและรองเท้า","status":"ดำเนินกิจการ","lat":13.15381,"lon":99.85167},"20760200125396":{"id":"20760200125396","name":"บริษัท อินเทค การ์ด จำกัด","owner":"บริษัท อินเทค การ์ด จำกัด","displayRegistration":"จ3-41(1)-1/39พบ","province":"เพชรบุรี","district":"เขาย้อย","subdistrict":"บางเค็ม","industryType":"พิมพ์กระดาษฟอร์ม และซองต่อเนื่อง","status":"ดำเนินกิจการ","lat":13.285567,"lon":99.82288},"20760900125373":{"id":"20760900125373","name":"บริษัท ช.จรัส ซี ซอลท์ จำกัด","owner":"บริษัท ช.จรัส ซี ซอลท์ จำกัด","displayRegistration":"จ3-103(3)-1/37พบ","province":"เพชรบุรี","district":"บ้านแหลม","subdistrict":"บางแก้ว","industryType":"โม่เกลือป่น","status":"ดำเนินกิจการ","lat":13.08022,"lon":100.06116},"10760100425237":{"id":"10760100425237","name":"อู่ ซำเฮง","owner":"นายคุณาดร พุฒิอนันต์","displayRegistration":"3-65-4/23พบ","province":"เพชรบุรี","district":"เมืองเพชรบุรี","subdistrict":"บ้านหม้อ","industryType":"กลึง-เชื่อมโลหะ ซ่อมเครื่องยนต์ ซ่อมรถยนต์","status":"ดำเนินกิจการ","lat":13.10126,"lon":99.93604},"20760001425508":{"id":"20760001425508","name":"แก้ว 2000","owner":"นางสาววนิดา เล็กสุด","displayRegistration":"จ3-53(9)-14/50พบ","province":"เพชรบุรี","district":"ชะอำ","subdistrict":"เขาใหญ่","industryType":"บดย่อย ล้างพลาสติกเก่า","status":"ดำเนินกิจการ","lat":12.84047,"lon":99.92814},"20760023325512":{"id":"20760023325512","name":"AP เจริญการค้า","owner":"นางสาวอัจจิมาพร พึ่งแพง","displayRegistration":"จ3-105-233/51พบ","province":"เพชรบุรี","district":"บ้านแหลม","subdistrict":"บ้านแหลม","industryType":"คัดแยกเศษวัสดุ เช่น กระดาษ พลาสติกและเศษโลหะ","status":"ดำเนินกิจการ","lat":13.22064,"lon":99.98564},"20760000225503":{"id":"20760000225503","name":"บริษัท เฮอริเทจ แคลเดิล จำกัด","owner":"บริษัท เฮอริเทจ แคลเดิล จำกัด","displayRegistration":"จ3-48(5)-2/50พบ","province":"เพชรบุรี","district":"หนองหญ้าปล้อง","subdistrict":"ท่าตะคร้อ","industryType":"ทำเทียนไข","status":"ดำเนินกิจการ","lat":13.11792,"lon":99.7629},"10760002125505":{"id":"10760002125505","name":"บริษัท บางกอกโซลาร์ พาวเวอร์ จำกัด","owner":"บริษัท บางกอกโซลาร์ พาวเวอร์ จำกัด","displayRegistration":"3-88(1)-21/50พบ","province":"เพชรบุรี","district":"ชะอำ","subdistrict":"สามพระยา","industryType":"ผลิตกระแสไฟฟ้าจากเซลล์พลังแสงอาทิตย์ ขนาด 1.267 เมกะวัตต์","status":"ดำเนินกิจการ","lat":12.7253986645158,"lon":99.9200199126138},"20760007225514":{"id":"20760007225514","name":"ห้างหุ้นส่วนจำกัด เขาใหญ่ท่าทราย","owner":"ห้างหุ้นส่วนจำกัด เขาใหญ่ท่าทราย","displayRegistration":"จ3-3(2)-72/51พบ","province":"เพชรบุรี","district":"ท่ายาง","subdistrict":"ท่าไม้รวก","industryType":"ขุดตักดินหรือทราย","status":"ดำเนินกิจการ","lat":12.85009,"lon":99.83432},"20760013525501":{"id":"20760013525501","name":"บริษัท จิรดีผลิตภัณฑ์คอนกรีต จำกัด","owner":"บริษัท จิรดีผลิตภัณฑ์คอนกรีต จำกัด","displayRegistration":"จ3-58(1)-135/50พบ","province":"เพชรบุรี","district":"แก่งกระจาน","subdistrict":"แก่งกระจาน","industryType":"ผลิตคอนกรีตผสมเสร็จ","status":"ดำเนินกิจการ","lat":12.88029,"lon":99.70985},"20760003925513":{"id":"20760003925513","name":"NULL","owner":"นายนิพนธ์ แสนสร้อย","displayRegistration":"จ3-3(2)-39/51พบ","province":"เพชรบุรี","district":"หนองหญ้าปล้อง","subdistrict":"ยางน้ำกลัดใต้","industryType":"ขุดดินลูกรัง","status":"ดำเนินกิจการ","lat":13.0833784730506,"lon":99.6979131837821},"20760100125512":{"id":"20760100125512","name":"บริษัท เยอรมัน แลนเซอร์ อิงค์ แอนด์ ทิพ เทคโนโลยี จำกัด","owner":"บริษัท เยอรมัน แลนเซอร์ อิงค์ แอนด์ ทิพ เทคโนโลยี จำกัด","displayRegistration":"จ3-87(2)-1/51พบ","province":"เพชรบุรี","district":"เมืองเพชรบุรี","subdistrict":"ช่องสะแก","industryType":"ผลิตเครื่องเขียนและหมึกทุกชนิด","status":"ดำเนินกิจการ","lat":13.10662,"lon":99.96056},"20760000125513":{"id":"20760000125513","name":"บริษัท เค.ซี.เกษตรไทย จำกัด","owner":"บริษัท เค.ซี.เกษตรไทย จำกัด","displayRegistration":"จ3-43(2)-1/51พบ","province":"เพชรบุรี","district":"ท่ายาง","subdistrict":"ท่าคอย","industryType":"ผสมและแบ่งบรรจุปุ๋ยอินทรีย์ชนิดเม็ดหรือปุ๋ยเคมีชนิดเม็ด","status":"ดำเนินกิจการ","lat":12.95291,"lon":99.87759},"20760000325519":{"id":"20760000325519","name":"บริษัท เอเชีย กรีน เอนเนอจี จำกัด (มหาชน)","owner":"บริษัท เอเชีย กรีน เอนเนอจี จำกัด(มหาชน)","displayRegistration":"จ3-50(3)-3/51พบ","province":"เพชรบุรี","district":"เขาย้อย","subdistrict":"หนองชุมพล","industryType":"คัดแยกขนาดถ่านหินบีทูมินัสเพื่อจำหน่ายให้โรงงานอุตสาหกรรม","status":"ดำเนินกิจการ","lat":13.29838,"lon":99.73218},"20760009125514":{"id":"20760009125514","name":"พีพีวู้ด","owner":"นางพูนสุข รัตนราตรี","displayRegistration":"จ3-37-91/51พบ","province":"เพชรบุรี","district":"บ้านลาด","subdistrict":"ท่าเสน","industryType":"ทำเครื่องเรือนจากไม้","status":"ดำเนินกิจการ","lat":13.04677,"lon":99.95416},"20760200225444":{"id":"20760200225444","name":"เอกวัฒน์","owner":"นายประเสริฐ บุญมีโชติ","displayRegistration":"จ2-6(5)-2/44พบ","province":"เพชรบุรี","district":"บ้านแหลม","subdistrict":"บ้านแหลม","industryType":"แกะ ล้าง สัตว์ทะเล กุ้ง หมึก","status":"ดำเนินกิจการ","lat":13.22276,"lon":99.98996},"20760100225494":{"id":"20760100225494","name":"บริษัท จีฮวา อินดัสทรีส์ จำกัด","owner":"บริษัท จีฮวา อินดัสทรีส์ จำกัด","displayRegistration":"จ3-64(10)-2/49พบ","province":"เพชรบุรี","district":"เขาย้อย","subdistrict":"หนองชุมพล","industryType":"ผลิตชิ้นส่วนโลหะประกอบท่อและท่อเหล็กไร้สนิม","status":"ดำเนินกิจการ","lat":13.267737,"lon":99.748654},"10760002025499":{"id":"10760002025499","name":"บริษัท แมกโนเลีย โฮม เฟอร์นิชชิ่ง (ไทยแลนด์) จำกัด","owner":"บริษัท แมกโนเลีย โฮม เฟอร์นิชชิ่ง (ไทยแลนด์) จำกัด","displayRegistration":"3-37-20/49พบ","province":"เพชรบุรี","district":"เขาย้อย","subdistrict":"หนองชุมพลเหนือ","industryType":"ผลิดเฟอร์นิเจอร์และชิ้นส่วนเฟอร์นิเจอร์จากไม้ยางพารา และไม้อื่น ๆ เพื่อการส่งออก","status":"ดำเนินกิจการ","lat":13.33072,"lon":99.78164},"20760000325386":{"id":"20760000325386","name":"บริษัท อมร เพรสทีจ จำกัด","owner":"บริษัท อมร เพรสทีจ จำกัด","displayRegistration":"จ3-95(1)-3/38พบ","province":"เพชรบุรี","district":"ชะอำ","subdistrict":"ชะอำ","industryType":"ซ่อมรถยนต์","status":"ดำเนินกิจการ","lat":12.79753,"lon":99.97234},"10760000125499":{"id":"10760000125499","name":"บริษัท เพชรสยาม พีอีไพ้พ์ จำกัด","owner":"บริษัท เพชรสยาม พีอีไพ้พ์ จำกัด","displayRegistration":"3-53(5)-1/49พบ","province":"เพชรบุรี","district":"เขาย้อย","subdistrict":"ทับคาง","industryType":"ผลิตท่อโพลีเอทธีลีน (PE) และท่อโพลีโพรพีลีน (PP) พร้อมอุปกรณ์ประกอบท่อ","status":"ดำเนินกิจการ","lat":13.18757,"lon":99.83414},"10760000725488":{"id":"10760000725488","name":"บริษัท พัฒน์กล ไอซ์ โซลูชั่นส์ จำกัด","owner":"บริษัท พัฒน์กล ไอซ์ โซลูชั่นส์ จำกัด","displayRegistration":"3-68-7/48พบ","province":"เพชรบุรี","district":"เขาย้อย","subdistrict":"ห้วยโรง","industryType":"ผลิต ดัดแปลง ซ่อมแซมเครื่องจักรและอุปกรณ์สำหรับอุตสาหกรรมอาหาร","status":"ดำเนินกิจการ","lat":13.3074021686438,"lon":99.8264122009277},"10760000425493":{"id":"10760000425493","name":"บริษัท ปาล์มออยล์ เอ็นเนอร์ยี่ อินดัสทรี จำกัด","owner":"บริษัท ปาล์ม ออยล์ เอ็นเนอร์ยี่ อินดัสทรี จำกัด","displayRegistration":"3-7(4)-4/49พบ","province":"เพชรบุรี","district":"เขาย้อย","subdistrict":"ห้วยท่าช้าง","industryType":"ทำน้ำมันจากพืชให้บริสุทธิ์และน้ำมันสำหรับผสมทำไบโอดีเซล","status":"ดำเนินกิจการ","lat":13.1374926117001,"lon":99.8210906982422},"20760036825490":{"id":"20760036825490","name":"-","owner":"บริษัท เพชรพลัง จำกัด","displayRegistration":"จ3-3(2)-368/49พบ","province":"เพชรบุรี","district":"ท่ายาง","subdistrict":"ท่าแลง","industryType":"ขุดดิน","status":"ดำเนินกิจการ","lat":12.95593,"lon":99.84642},"10760100425492":{"id":"10760100425492","name":"บริษัท วีรับเบอร์ คอร์ปอเรชั่น จำกัด","owner":"บริษัท วีรับเบอร์ คอร์ปอเรชั่น จำกัด","displayRegistration":"3-51-4/49พบ","province":"เพชรบุรี","district":"เขาย้อย","subdistrict":"เขาย้อย","industryType":"ผลิตยางนอก ยางใน รถจักรยาน รถจักรยานยนต์","status":"ดำเนินกิจการ","lat":13.2342066416851,"lon":99.811515212059},"10760000425501":{"id":"10760000425501","name":"บริษัท ไพร์ม แพ็คเกจจิ้ง จำกัด","owner":"บริษัท ไพร์ม แพ็คเกจจิ้ง จำกัด","displayRegistration":"3-53(4)-4/50พบ","province":"เพชรบุรี","district":"เขาย้อย","subdistrict":"หนองชุมพลเหนือ","industryType":"ผลิตผลิตภัณฑ์ซองพลาสติก หรือม้วนฟิล์มพลาสติก","status":"ดำเนินกิจการ","lat":13.3254431256834,"lon":99.8015642166138},"20760000125505":{"id":"20760000125505","name":"ห้างหุ้นส่วนจำกัด ควอลิตี้ ลอนดรี้ เซอร์วิส","owner":"ห้างหุ้นส่วนจำกัด ควอลิตี้ ลอนดรี้ เซอร์วิส","displayRegistration":"จ3-98-1/50พบ","province":"เพชรบุรี","district":"ชะอำ","subdistrict":"ชะอำ","industryType":"ซัก อบ และรีดเสื้อผ้า","status":"ดำเนินกิจการ","lat":12.71643,"lon":99.96295},"20760004425505":{"id":"20760004425505","name":"นางสาวศิริพร หวานใจ","owner":"นางศิริพร มหาเจริญสิริ","displayRegistration":"จ3-3(2)-44/50พบ","province":"เพชรบุรี","district":"ท่ายาง","subdistrict":"ท่าแลง","industryType":"ขุดดินลูกรัง","status":"ดำเนินกิจการ","lat":12.96107,"lon":99.83826},"20760004225491":{"id":"20760004225491","name":"อำนาจฟาร์ม","owner":"นายอำนาจ ภูมิประเทศ","displayRegistration":"จ3-4(1)-42/49พบ","province":"เพชรบุรี","district":"ท่ายาง","subdistrict":"กลัดหลวง","industryType":"ฆ่าและชำแหละไก่","status":"ดำเนินกิจการ","lat":12.8117,"lon":99.78593},"20760004725532":{"id":"20760004725532","name":"ดอนทรายค้าไม้","owner":"นายทวีเกียรติ เติมศักดิ์","displayRegistration":"จ3-34(1)-47/53พบ","province":"เพชรบุรี","district":"เขาย้อย","subdistrict":"ทับคาง","industryType":"ไส ซอยไม้และทำวงกบบานประตูหน้าต่างจากไม้","status":"ดำเนินกิจการ","lat":13.21537,"lon":99.82608},"10760011425540":{"id":"10760011425540","name":"โครงการชั่งหัวมัน ตามพระราชดำริ","owner":"นายชนินทร์ ทิพย์โภชนา","displayRegistration":"3-88-114/54พบ","province":"เพชรบุรี","district":"ท่ายาง","subdistrict":"เขากระปุก","industryType":"ผลิตพลังงานไฟฟ้า จากพลังงานแสงอาทิตย์เพื่อการจำหน่าย ขนาด 50 กิโลวัตต์","status":"ดำเนินกิจการ","lat":12.7464786760143,"lon":99.7096388768},"20760020625526":{"id":"20760020625526","name":"บริษัท เบ๊เฮงหลีการช่าง จำกัด","owner":"บริษัท เบ๊เฮงหลีการช่าง จำกัด","displayRegistration":"จ3-95(1)-206/52พบ","province":"เพชรบุรี","district":"เมืองเพชรบุรี","subdistrict":"ต้นมะม่วง","industryType":"เคาะพ่นสีและซ่อมรถยนต์","status":"ดำเนินกิจการ","lat":13.0806,"lon":99.94412},"10760008625524":{"id":"10760008625524","name":"บริษัท เพชรบุรีอินเตอร์ไพรซ์ จำกัด","owner":"บริษัท เพชรบุรีอินเตอร์ไพรซ์ จำกัด","displayRegistration":"3-9(1)-86/52พบ","province":"เพชรบุรี","district":"บ้านลาด","subdistrict":"ลาดโพธิ์","industryType":"สีข้าวและสีข้าวนึ่ง กำลังสีสูงสุดของร้านสีข้าว 750 เกวียน/วัน และอบข้าวเปลือก","status":"ดำเนินกิจการ","lat":13.09996,"lon":99.89514},"20760004625518":{"id":"20760004625518","name":"บริษัท เพชรสมบูรณ์เจริญธัญญกิจ จำกัด","owner":"บริษัท เพชรสมบูรณ์เจริญธัญญกิจ จำกัด","displayRegistration":"จ3-9(1)-46/51พบ","province":"เพชรบุรี","district":"เขาย้อย","subdistrict":"ห้วยท่าช้าง","industryType":"สีข้าว กำลังสีสูงสุดของร้านสีข้าว 150 เกวียน/วัน","status":"ดำเนินกิจการ","lat":13.13708,"lon":99.82694},"20760023925519":{"id":"20760023925519","name":"บริษัท หวิน จี (ประเทศไทย) จำกัด","owner":"บริษัท หวิน จี (ประเทศไทย) จำกัด","displayRegistration":"จ3-105-239/51พบ","province":"เพชรบุรี","district":"เขาย้อย","subdistrict":"หนองชุมพล","industryType":"คัดแยกวัสดุที่ไม่ใช้แล้วที่ไม่เป็นของเสียอันตราย เฉพาะโลหะ อโลหะ และแผงวงจร","status":"ดำเนินกิจการ","lat":13.27228,"lon":99.74803},"20760008925526":{"id":"20760008925526","name":"อู่ ส. ประดิษฐ์","owner":"นางไพเราะ นาคปานเอี่ยม","displayRegistration":"จ3-95(1)-89/52พบ","province":"เพชรบุรี","district":"ท่ายาง","subdistrict":"ท่ายาง","industryType":"ซ่อมเคาะพ่นสีรถยนต์","status":"ดำเนินกิจการ","lat":12.99787,"lon":99.9087},"10760000325529":{"id":"10760000325529","name":"บริษัท ไทยวิวัฒน์แคนแวสอุตสาหกรรม จำกัด","owner":"บริษัท ไทยวิวัฒน์แคนแวสอุตสาหกรรม จำกัด","displayRegistration":"3-22(2)-3/52พบ","province":"เพชรบุรี","district":"เขาย้อย","subdistrict":"หนองชุมพล","industryType":"เคลือบผ้าใบ ผ้าไนล่อน ทอผ้า ทอผ้าใบ ทออุตสาหกรรมสำหรับการตกแต่งภายในและภายนอกอาคาร","status":"ดำเนินกิจการ","lat":13.29363,"lon":99.80366},"20760000125521":{"id":"20760000125521","name":"บริษัท ทีซีซี เอ็นเนอร์ยี่ จำกัด","owner":"บริษัท ทีซีซี เอ็นเนอร์ยี่ จำกัด","displayRegistration":"จ3-50(3)-1/52พบ","province":"เพชรบุรี","district":"เขาย้อย","subdistrict":"หนองชุมพล","industryType":"คัดแยกถ่านหิน","status":"ดำเนินกิจการ","lat":13.28847,"lon":99.73614},"20760006225531":{"id":"20760006225531","name":"โรงงานคอนกรีตผสมเสร็จ บ้านแหลม","owner":"บริษัท ปูนซิเมนต์ไทย (ท่าหลวง) จำกัด","displayRegistration":"จ3-58(1)-62/53พบ","province":"เพชรบุรี","district":"บ้านแหลม","subdistrict":"ท่าแร้ง","industryType":"ผลิตคอนกรีตผสมเสร็จ","status":"ดำเนินกิจการ","lat":13.15836,"lon":99.9609},"20760006825520":{"id":"20760006825520","name":"โรงงานคอนกรีตผสมเสร็จ ชะอำ2","owner":"บริษัท ปูนซิเมนต์ไทย (ท่าหลวง) จำกัด","displayRegistration":"จ3-58(1)-68/52พบ","province":"เพชรบุรี","district":"ชะอำ","subdistrict":"ชะอำ","industryType":"ผลิตคอนกรีตผสมเสร็จ","status":"ดำเนินกิจการ","lat":12.79032,"lon":99.96331},"20760002825524":{"id":"20760002825524","name":"ชะอำวารีเทพ","owner":"บริษัท ชะอำวารีเทพ จำกัด","displayRegistration":"จ3-14-28/52พบ","province":"เพชรบุรี","district":"ชะอำ","subdistrict":"ชะอำ","industryType":"ทำน้ำแข็งก้อนเล็ก","status":"ดำเนินกิจการ","lat":12.8004784909254,"lon":99.9720317062819},"20760013225524":{"id":"20760013225524","name":"โอชินเฟอร์นิเจอร์","owner":"นางสาวน้ำทิพย์ พวงมาลัย","displayRegistration":"จ3-37-132/52พบ","province":"เพชรบุรี","district":"ชะอำ","subdistrict":"เขาใหญ่","industryType":"ทำเครื่องเรือนจากไม้","status":"ดำเนินกิจการ","lat":12.80368,"lon":99.91635},"20760013825521":{"id":"20760013825521","name":"บริษัท อึ้งง่วนไต๋อีซูซุเซลส์ จำกัด","owner":"บริษัท อึ้งง่วนไต๋อีซูซุเซลส์ จำกัด","displayRegistration":"จ3-95(1)-138/52พบ","province":"เพชรบุรี","district":"ชะอำ","subdistrict":"ชะอำ","industryType":"ซ่อมรถยนต์และเครื่องยนต์","status":"ดำเนินกิจการ","lat":12.71156,"lon":99.91475},"20760007925527":{"id":"20760007925527","name":"ห้างหุ้นส่วนจำกัด เอแอนด์ซีไรซ์เพชรบุรี","owner":"ห้างหุ้นส่วนจำกัด เอแอนด์ซีไรซ์เพชรบุรี","displayRegistration":"จ3-9(1)-79/52พบ","province":"เพชรบุรี","district":"เมืองเพชรบุรี","subdistrict":"โพพระ","industryType":"สีข้าว กำลังสีสูงสุดของร้านสีข้าว 330 เกวียน/วัน","status":"ดำเนินกิจการ","lat":13.08874,"lon":100.00602},"10760004525520":{"id":"10760004525520","name":"บริษัท หวินจี (ประเทศไทย) จำกัด","owner":"บริษัท หวินจี (ประเทศไทย) จำกัด","displayRegistration":"3-106-45/52พบ","province":"เพชรบุรี","district":"เขาย้อย","subdistrict":"หนองชุมพล","industryType":"สกัดแยกโลหะมีค่า เช่น ทองแดง เงิน ดีบุก จากแผงวงจรและชิ้นส่วนอุปกรณ์อิเล็กทรอนิกส์ บดย่อยชิ้นส่วนอุปกรณ์อิเล็กทรอนิกส์และอบกากตะกอนที่มีโลหะมีค่าจากโรงงานชุบโลหะและโรงงานเกี่ยวกับอิเล็กทรอนิกส์ เช่น โครเมียม นิเกิล ทองแดง","status":"ดำเนินกิจการ","lat":13.27228,"lon":99.74808},"20760008925575":{"id":"20760008925575","name":"NULL","owner":"นายสุชิน อินทวาด","displayRegistration":"จ3-3(2)-89/57พบ","province":"เพชรบุรี","district":"ชะอำ","subdistrict":"สามพระยา","industryType":"ขุดดิน","status":"ดำเนินกิจการ","lat":12.7384050058408,"lon":99.9183396309},"20760107525573":{"id":"20760107525573","name":"บริษัท เรือนไม้สักงาม จำกัด","owner":"บริษัท เรือนไม้สักงาม จำกัด","displayRegistration":"จ3-34(2)-75/57พบ","province":"เพชรบุรี","district":"ชะอำ","subdistrict":"ดอนขุนห้วย","industryType":"ทำบ้านทรงไทยจากไม้แปรรูป","status":"ดำเนินกิจการ","lat":12.8837795691397,"lon":99.9118299505623},"20760023925568":{"id":"20760023925568","name":"บริษัท สยามนิสสันเพชร จำกัด","owner":"บริษัท สยามนิสสันเพชร จำกัด","displayRegistration":"จ3-95(1)-239/56พบ","province":"เพชรบุรี","district":"ท่ายาง","subdistrict":"ท่ายาง","industryType":"ซ่อมรถยนต์","status":"ดำเนินกิจการ","lat":12.9894746213182,"lon":99.902536743301},"20760009325577":{"id":"20760009325577","name":"NULL","owner":"ห้างหุ้นส่วนจำกัด เขาใหญ่ท่าทราย","displayRegistration":"จ3-3(2)-93/57พบ","province":"เพชรบุรี","district":"ท่ายาง","subdistrict":"ท่าไม้รวก","industryType":"ขุดดิน","status":"ดำเนินกิจการ","lat":12.8720739364604,"lon":99.8396780874},"20760000725577":{"id":"20760000725577","name":"สหกรณ์โคนมชะอำ-ห้วยทราย จำกัด","owner":"สหกรณ์โคนมชะอำ-ห้วยทราย","displayRegistration":"จ3-15(1)-7/57พบ","province":"เพชรบุรี","district":"ชะอำ","subdistrict":"ชะอำ","industryType":"ผลิตอาหารสำหรับเลี้ยงสัตว์","status":"ดำเนินกิจการ","lat":12.7253619459489,"lon":99.9256416317171},"20760000225578":{"id":"20760000225578","name":"บริษัท พีรพัฒน์ เทคโนโลยี จำกัด (มหาชน)","owner":"บริษัท พีรพัฒน์ เทคโนโลยี จำกัด (มหาชน)","displayRegistration":"จ3-42(1)-2/57พบ","province":"เพชรบุรี","district":"เขาย้อย","subdistrict":"ทับคาง","industryType":"ผลิตผงซักฟอก ผลิตภัณฑ์สำหรับชำระล้าง แอลกอฮอล์แข็งสำหรับใช้เป็นเชื้อเพลิง ผลิตภัณฑ์เคมีสำหรับฆ่าเชื้อโรคและทำความสะอาด ทำผลิตภัณฑ์พลาสติก","status":"ดำเนินกิจการ","lat":13.1946950010897,"lon":99.8154257260251},"20760014225572":{"id":"20760014225572","name":"อู่เบ๊เฮงหลีการช่าง","owner":"นายมานะชัย จิตรตั้งตรง","displayRegistration":"จ3-95(1)-142/57พบ","province":"เพชรบุรี","district":"ท่ายาง","subdistrict":"ท่ายาง","industryType":"เคาะพ่นสีรถยนต์","status":"ดำเนินกิจการ","lat":12.9653163568194,"lon":99.8996773382913},"20760004325572":{"id":"20760004325572","name":"บริษัท แลนโจเอ็นเตอร์ไพรส์(ประเทศไทย)จำกัด","owner":"บริษัท แลนโจเอ็นเตอร์ไพรส์(ประเทศไทย)จำกัด","displayRegistration":"จ3-53(5)-43/57พบ","province":"เพชรบุรี","district":"เขาย้อย","subdistrict":"หนองชุมพล","industryType":"ผลิตผลิตภัณฑ์พลาสติกและยางหรือเคลือบด้วยพลาสติกและยาง","status":"ดำเนินกิจการ","lat":13.2890722840111,"lon":99.801080268442},"20760005725572":{"id":"20760005725572","name":"บริษัท เพชรบุรี ฮอนด้า ออโตโมบิล จำกัด","owner":"บริษัท เพชรบุรี ฮอนด้า ออโตโมบิล จำกัด","displayRegistration":"จ3-95(1)-57/57พบ","province":"เพชรบุรี","district":"เมืองเพชรบุรี","subdistrict":"หัวสะพาน","industryType":"ซ่อมและพ่นสีรถยนต์","status":"ดำเนินกิจการ","lat":13.083972,"lon":99.944474},"20760100225569":{"id":"20760100225569","name":"บริษัท รุ่งโรจน์ อินดัสตรี้ จำกัด","owner":"บริษัท รุ่งโรจน์ อินดัสตรี้ จำกัด","displayRegistration":"จ3-53(6)-2/56พบ","province":"เพชรบุรี","district":"เขาย้อย","subdistrict":"หนองชุมพลเหนือ","industryType":"ทำผลิตภัณฑ์พลาสติก เช่น ฉนวนกันความร้อน","status":"ดำเนินกิจการ","lat":13.3028474345909,"lon":99.7310824241},"20760003525578":{"id":"20760003525578","name":"ห้างหุ้นส่วนจำกัด เถ้าแก่น้อย คอนกรีต","owner":"ห้างหุ้นส่วนจำกัด เถ้าแก่น้อย คอนกรีต","displayRegistration":"จ3-58(1)-35/57พบ","province":"เพชรบุรี","district":"ท่ายาง","subdistrict":"ท่ายาง","industryType":"ผลิตคอนกรีตผสมเสร็จ","status":"ดำเนินกิจการ","lat":12.9187978745952,"lon":99.9131214492649},"10760003425573":{"id":"10760003425573","name":"บริษัท ปาล์มออยล์ เอ็นเนอร์ยี่ อินดัสทรี่ จำกัด","owner":"บริษัท ปาล์มออยล์ เอ็นเนอร์ยี่ อินดัสทรี่ จำกัด","displayRegistration":"3-53(4)-34/57พบ","province":"เพชรบุรี","district":"เขาย้อย","subdistrict":"ห้วยท่าช้าง","industryType":"ผลิตขวดพลาสติก PET และฝา สำหรับบรรจุน้ำมันพืช","status":"ดำเนินกิจการ","lat":13.138318,"lon":99.821842},"20760000425574":{"id":"20760000425574","name":"บริษัท เอ็มเมอรัลต์ นอนวูเว่น อินเตอร์เนชั่นแนล จำกัด","owner":"บริษัท เอ็มเมอรัลต์ นอนวูเว่น อินเตอร์เนชั่นแนล จำกัด","displayRegistration":"จ3-81(3)-4/57พบ","province":"เพชรบุรี","district":"เขาย้อย","subdistrict":"หนองชุมพลเหนือ","industryType":"ผลิตเวชภัณฑ์หรืออุปกรณ์ทางการแพทย์ชนิดใช้ครั้งเดียวทิ้ง เช่น หมวก, เสื้อคลุม, กางเกงคลุม, ที่คลุมรองเท้า, ที่ปิดปากปิดจมูก, ผ้ากันเปื้อน เป็นต้น","status":"ดำเนินกิจการ","lat":13.3171972823254,"lon":99.8053253314083},"20760004525577":{"id":"20760004525577","name":"บริษัท สยามนิสสันเพชร จำกัด","owner":"บริษัท สยามนิสสันเพชร จำกัด","displayRegistration":"จ3-95(1)-45/57พบ","province":"เพชรบุรี","district":"ท่ายาง","subdistrict":"ท่ายาง","industryType":"ศูนย์ซ่อมและเคาะพ่นสีรถยนต์","status":"ดำเนินกิจการ","lat":12.796237,"lon":99.971619},"20760023025575":{"id":"20760023025575","name":"NULL","owner":"นายพิชิต มีนาม","displayRegistration":"จ3-3(2)-230/57พบ","province":"เพชรบุรี","district":"ชะอำ","subdistrict":"เขาใหญ่","industryType":"ขุดดิน","status":"ดำเนินกิจการ","lat":12.8374125945951,"lon":99.8859344807},"20760016925575":{"id":"20760016925575","name":"NULL","owner":"นางภัสนา เพิ่มทองเผือก","displayRegistration":"จ3-3(2)-169/57พบ","province":"เพชรบุรี","district":"ชะอำ","subdistrict":"เขาใหญ่","industryType":"ขุดดิน","status":"ดำเนินกิจการ","lat":12.8180902548795,"lon":99.8965227469951},"20760009625570":{"id":"20760009625570","name":"ห้างหุ้นส่วนจำกัด เขาใหญ่ท่าทราย","owner":"ห้างหุ้นส่วนจำกัด เขาใหญ่ท่าทราย","displayRegistration":"จ3-3(2)-96/57พบ","province":"เพชรบุรี","district":"ท่ายาง","subdistrict":"ท่าไม้รวก","industryType":"ขุดดินและขุดทราย","status":"ดำเนินกิจการ","lat":12.8459337538419,"lon":99.8271213074},"10760003525570":{"id":"10760003525570","name":"บริษัท เพชรพลัง จำกัด","owner":"บริษัท เพชรพลัง จำกัด","displayRegistration":"3-50(4)-35/57พบ","province":"เพชรบุรี","district":"ท่ายาง","subdistrict":"ท่าแลง","industryType":"ผลิตยางแอสฟัลท์ติกคอนกรีต","status":"ดำเนินกิจการ","lat":12.9656763510801,"lon":99.8384756827},"20760010125578":{"id":"20760010125578","name":"ห้างหุ้นส่วนจำกัด เขาใหญ่ท่าทราย","owner":"ห้างหุ้นส่วนจำกัดเขาใหญ่ท่าทราย","displayRegistration":"จ3-3(2)-101/57พบ","province":"เพชรบุรี","district":"ท่ายาง","subdistrict":"ท่าไม้รวก","industryType":"ขุดดินและขุดทราย","status":"ดำเนินกิจการ","lat":12.8690305859994,"lon":99.840459185354},"20760015825578":{"id":"20760015825578","name":"บริษัท โตโยต้าเมืองเพชร จำกัด","owner":"บริษัท โตโยต้าเมืองเพชร จำกัด","displayRegistration":"จ3-95(1)-158/57พบ","province":"เพชรบุรี","district":"ท่ายาง","subdistrict":"ท่ายาง","industryType":"ศูนย์ซ่อมรถยนต์และศูนย์ซ่อมตัวถังและสี","status":"ดำเนินกิจการ","lat":12.994464,"lon":99.906178},"20760022025576":{"id":"20760022025576","name":"นายพิเชต เวชสว่าง","owner":"นายพิเชต เวชสว่าง","displayRegistration":"จ3-3(2)-220/57พบ","province":"เพชรบุรี","district":"ท่ายาง","subdistrict":"ท่าไม้รวก","industryType":"ขุดดินและขุดทราย","status":"ดำเนินกิจการ","lat":12.8285088897157,"lon":99.8108918393},"20760000925573":{"id":"20760000925573","name":"ลิ้มเฮงพาณิชย์","owner":"นางกชกรณ์ เอกกิตติ","displayRegistration":"จ3-64(11)-9/57พบ","province":"เพชรบุรี","district":"ชะอำ","subdistrict":"สามพระยา","industryType":"อัดเศษโลหะและกระดาษ","status":"ดำเนินกิจการ","lat":12.6788701372088,"lon":99.8839698260214},"20760004025578":{"id":"20760004025578","name":"ศุภรัตน์พลาสติก","owner":"นายพรเทพ ธนาวุฒิวร","displayRegistration":"จ3-53(5)-40/57พบ","province":"เพชรบุรี","district":"ท่ายาง","subdistrict":"ท่ายาง","industryType":"ผลิตขวดพลาสติกชนิด PET และ PP","status":"ดำเนินกิจการ","lat":12.9656954360293,"lon":99.9023959738745},"20760017925574":{"id":"20760017925574","name":"บริษัท โตโยต้าเพชรบุรี จำกัด","owner":"บริษัท โตโยต้าเพชรบุรี จำกัด","displayRegistration":"จ3-95(1)-179/57พบ","province":"เพชรบุรี","district":"ชะอำ","subdistrict":"ชะอำ","industryType":"ซ่อมและพ่นสีรถยนต์","status":"ดำเนินกิจการ","lat":12.7478446,"lon":99.9598008},"20760001825574":{"id":"20760001825574","name":"บริษัท แอลไลด์ พรีซิชั่น (ประเทศไทย)จำกัด","owner":"บริษัท แอลไลด์ พรีซิชั่น (ประเทศไทย)จำกัด","displayRegistration":"จ3-72-18/57พบ","province":"เพชรบุรี","district":"เขาย้อย","subdistrict":"สระพัง","industryType":"ผลิตชิ้นส่วนอุปกรณ์อิเล็กทรอนิกส์","status":"ดำเนินกิจการ","lat":13.2667373007916,"lon":99.8251120971901},"20760001425573":{"id":"20760001425573","name":"ห้างหุ้นส่วนจำกัด เดอะ นายน์ คอนกรีต","owner":"ห้างหุ้นส่วนจำกัด เดอะ นายน์ คอนกรีต","displayRegistration":"จ3-58(1)-14/57พบ","province":"เพชรบุรี","district":"ชะอำ","subdistrict":"ชะอำ","industryType":"ผลิตคอนกรีตผสมเสร็จ","status":"ดำเนินกิจการ","lat":12.7190584090274,"lon":99.9355728744},"20760005225565":{"id":"20760005225565","name":"บริษัท ลูป ฟิวเตอร์ เมนูแฟคเจอริ่ง จำกัด","owner":"บริษัท ลูป ฟิวเตอร์ เมนูแฟคเจอริ่ง จำกัด","displayRegistration":"จ3-77(2)-52/56พบ","province":"เพชรบุรี","district":"เขาย้อย","subdistrict":"หนองชุมพล","industryType":"ผลิตไส้กรองชนิดต่าง ๆ","status":"ดำเนินกิจการ","lat":13.288573,"lon":99.803972},"10760002525571":{"id":"10760002525571","name":"บริษัท แคล-คอมพ์ พรีซิสชั่น (ประเทศไทย) จำกัด","owner":"บริษัท แคล-คอมพ์ พรีซิสชั่น (ประเทศไทย) จำกัด","displayRegistration":"3-53(1)-25/57พบ","province":"เพชรบุรี","district":"เขาย้อย","subdistrict":"เขาย้อย","industryType":"ผลิตชิ้นส่วนพลาสติกสำหรับเครื่องใช้ไฟฟ้าและผลิตภัณฑ์อิเล็กทรอนิกส์","status":"ดำเนินกิจการ","lat":13.270661,"lon":99.82428},"10760002825567":{"id":"10760002825567","name":"บริษัท แคล-คอมพ์ พรีซิสชั่น (ประเทศไทย) จำกัด","owner":"บริษัท แคล-คอมพ์ พรีซิสชั่น (ประเทศไทย) จำกัด","displayRegistration":"3-53(1)-28/56พบ","province":"เพชรบุรี","district":"เขาย้อย","subdistrict":"สระพัง","industryType":"ผลิตชิ้นส่วนพลาสติกสำหรับเครื่องใช้ไฟฟ้าและผลิตภัณฑ์อิเล็กทรอนิกส์","status":"ดำเนินกิจการ","lat":13.26916,"lon":99.8257},"20760000325568":{"id":"20760000325568","name":"บริษัท เอ็มซีที(ประเทศไทย) จำกัด","owner":"บริษัท เอ็มซีที(ประเทศไทย) จำกัด","displayRegistration":"จ3-64(2)-3/56พบ","province":"เพชรบุรี","district":"เขาย้อย","subdistrict":"สระพัง","industryType":"ปั๊มขึ้นรูปโลหะ เช่น โครงเหล็กหรืออุปกรณ์สำหรับประกอบเครื่องคอมพิวเตอร์","status":"ดำเนินกิจการ","lat":13.26774,"lon":99.82156},"20760003025553":{"id":"20760003025553","name":"บริษัท อีแต๋นฟอร์ยู จำกัด","owner":"บริษัท อีแต๋นฟอร์ยู จำกัด","displayRegistration":"จ3-77(1)-30/55พบ","province":"เพชรบุรี","district":"บ้านลาด","subdistrict":"ถ้ำรงค์","industryType":"ต่อตัวถังรถยนต์และซ่อมรถยนต์ประกอบดัดแปลงสภาพรถยนต์หรือรถพ่วงและรถสามล้อที่ขับเคลื่อนด้วยเครื่องยนต์","status":"ดำเนินกิจการ","lat":13.0240501607345,"lon":99.9242866548788},"20760015725562":{"id":"20760015725562","name":"บริษัท เดอะ นายน์ คอนกรีต จำกัด","owner":"บริษัท เดอะ นายน์ คอนกรีต จำกัด","displayRegistration":"จ3-58(1)-157/56พบ","province":"เพชรบุรี","district":"บ้านลาด","subdistrict":"ท่าเสน","industryType":"ผลิตคอนกรีตผสมเสร็จและผลิตภัณฑ์คอนกรีต","status":"ดำเนินกิจการ","lat":13.0533989745614,"lon":99.9422551278729},"20760012225558":{"id":"20760012225558","name":"นายมนตรี ใช่รุ่งเรือง","owner":"นายมนตรี ใช่รุ่งเรือง","displayRegistration":"จ3-58(1)-122/55พบ","province":"เพชรบุรี","district":"ชะอำ","subdistrict":"ชะอำ","industryType":"ผลิตคอนกรีตผสมเสร็จ","status":"ดำเนินกิจการ","lat":12.6694974225347,"lon":99.9234179067467},"20760003725558":{"id":"20760003725558","name":"ร้านน้ำเพชรค้าไม้","owner":"บริษัท น้ำเพชรค้าไม้ จำกัด","displayRegistration":"จ3-34(1)-37/55พบ","province":"เพชรบุรี","district":"เขาย้อย","subdistrict":"หนองปรง","industryType":"ไสซอยไม้ ทำคอนกรีตบล็อกและเสาคอนกรีต","status":"ดำเนินกิจการ","lat":13.1654135132476,"lon":99.8378198972299},"20760100325567":{"id":"20760100325567","name":"บริษัท ฮวา หลิน สเตนเลสส์ สตีล อินดัสตรี จำกัด","owner":"บริษัท ฮวาหลิน สเตนเลสส์ สตีล อินดัสตรี จำกัด","displayRegistration":"จ3-64(10)-3/56พบ","province":"เพชรบุรี","district":"เขาย้อย","subdistrict":"หนองชุมพล","industryType":"ผลิตผลิตภัณฑ์และชิ้นส่วนเหล็กไร้สนิมสำหรับงานตกแต่ง","status":"ดำเนินกิจการ","lat":13.2882581343276,"lon":99.8034000697388},"20760000225560":{"id":"20760000225560","name":"ผลิตภัณฑ์นมห้วยทราย","owner":"สหกรณ์โคนมชะอำห้วยทราย จำกัด","displayRegistration":"จ3-5(1)-2/56พบ","province":"เพชรบุรี","district":"ชะอำ","subdistrict":"สามพระยา","industryType":"แปรรูปผลิตภัณฑ์นมเพื่อจำหน่าย","status":"ดำเนินกิจการ","lat":12.6742368325421,"lon":99.9181887058834},"20760200325566":{"id":"20760200325566","name":"คานเรือไพบูลย์การช่าง","owner":"นายสุพจน์ เอี่ยมสอาด","displayRegistration":"จ3-75(1)-3/56พบ","province":"เพชรบุรี","district":"บ้านแหลม","subdistrict":"บางตะบูน","industryType":"ซ่อมแซมเรือประมงจากไม้","status":"ดำเนินกิจการ","lat":13.2695152132012,"lon":99.9365150260502},"20760001025563":{"id":"20760001025563","name":"-","owner":"นายวิทยา พรมรักษา","displayRegistration":"จ3-15(1)-10/56พบ","province":"เพชรบุรี","district":"ชะอำ","subdistrict":"เขาใหญ่","industryType":"ผสมอาหารสำหรับสัตว์บก","status":"ดำเนินกิจการ","lat":12.7849596507018,"lon":99.9205814413643},"20760000425566":{"id":"20760000425566","name":"บริษัท ด็อกไวเลอร์ เอเชีย จำกัด","owner":"บริษัท ด็อกไวเลอร์ เอเชีย จำกัด","displayRegistration":"จ3-64(14)-4/56พบ","province":"เพชรบุรี","district":"เขาย้อย","subdistrict":"หนองชุมพล","industryType":"ทำชิ้นส่วนหรืออุปกรณ์สแตนเลส","status":"ดำเนินกิจการ","lat":13.2718644456829,"lon":99.7486281389926},"20760002525561":{"id":"20760002525561","name":"บริษัท มอนดิ ทีเอสพี จำกัด","owner":"บริษัท มอนดิ ทีเอสพี จำกัด","displayRegistration":"จ3-53(4)-25/56พบ","province":"เพชรบุรี","district":"เขาย้อย","subdistrict":"หนองชุมพลเหนือ","industryType":"ผลิตถุงและซองบรรจุภัณฑ์","status":"ดำเนินกิจการ","lat":13.3306664243801,"lon":99.7878403530129},"20760007025559":{"id":"20760007025559","name":"ห้างหุ้นส่วนจำกัด เพชรบุรีไรซ์มิล","owner":"ห้างหุ้นส่วนจำกัด เพชรบุรีไรซ์มิล","displayRegistration":"จ3-9(1)-70/55พบ","province":"เพชรบุรี","district":"ท่ายาง","subdistrict":"บ้านในดง","industryType":"โรงสีข้าว","status":"ดำเนินกิจการ","lat":12.950478,"lon":99.94257},"40760006325584":{"id":"40760006325584","name":"บริษัท เอ็นเนอร์จี เซิฟ จำกัด (PEA-1049-VS3-110) โครงการ 3","owner":"บริษัท เอ็นเนอร์จี เซิฟ จำกัด","displayRegistration":"3-88(1)-63/58พบ","province":"เพชรบุรี","district":"เขาย้อย","subdistrict":"หนองปรง","industryType":"ผลิตพลังงานไฟฟ้าจากเซลล์แสงอาทิตย์ กำลัง 5.95 เมกะวัตต์","status":"ดำเนินกิจการ","lat":13.1600208582051,"lon":99.8119779672},"20760100125439":{"id":"20760100125439","name":"สหกรณ์การประมงบ้านแหลม จำกัด","owner":"สหกรณ์การประมงบ้านแหลม จำกัด","displayRegistration":"จ3-14-1/43พบ","province":"เพชรบุรี","district":"บ้านแหลม","subdistrict":"บ้านแหลม","industryType":"ทำนำแข็ง","status":"ดำเนินกิจการ","lat":13.221429,"lon":99.987888},"10760002025580":{"id":"10760002025580","name":"บริษัท แอ๊บโซลูท นูทริชั่น จำกัด","owner":"บริษัท แอ๊บโซลูท นูทรีชั่น จำกัด","displayRegistration":"3-15(1)-20/58พบ","province":"เพชรบุรี","district":"เขาย้อย","subdistrict":"หนองชุมพลเหนือ","industryType":"การทำอาหารผสมหรืออาหารสำเร็จรูปสำหรับเลี้ยงสัตว์","status":"ดำเนินกิจการ","lat":13.317851,"lon":99.749597},"20760024725587":{"id":"20760024725587","name":"บริษัท ทราย ดี เอส ซี จำกัด","owner":"บริษัท ทราย ดี เอส ซี จำกัด","displayRegistration":"จ3-3(2)-247/58พบ","province":"เพชรบุรี","district":"ชะอำ","subdistrict":"เขาใหญ่","industryType":"ขุดดินหรือทรายและคัดทราย","status":"ดำเนินกิจการ","lat":12.84929,"lon":99.899185},"10760007325589":{"id":"10760007325589","name":"บริษัท โรงน้ำแข็ง เขาใหญ่ ชะอำ 2004 จำกัด","owner":"บริษัท โรงน้ำแข็ง เขาใหญ่ ชะอำ 2004 จำกัด","displayRegistration":"3-14-73/58พบ","province":"เพชรบุรี","district":"ชะอำ","subdistrict":"เขาใหญ่","industryType":"ทำน้ำแข็งซอง กำลังการผลิตวันละ 65 ตัน และน้ำแข็งก้อนเล็ก กำลังการผลิตวันละ73 ตัน","status":"ดำเนินกิจการ","lat":12.827771695544,"lon":99.9354004241736},"40760008125586":{"id":"40760008125586","name":"บริษัท เพาเวอร์ โซลูชั่น เทคโนโลยี จำกัด (มหาชน)","owner":"บริษัท เพาเวอร์ โซลูชั่น เทคโนโลยี จำกัด (มหาชน)","displayRegistration":"3-88(1)-81/58พบ","province":"เพชรบุรี","district":"เขาย้อย","subdistrict":"สระพัง","industryType":"ผลิตพลังงานไฟฟ้าจากเซลล์แสงอาทิตย์ ขนาดกำลังการผลิต 0.996 เมกะวัตต์","status":"ดำเนินกิจการ","lat":13.2592377686535,"lon":99.8124284396061},"10760000225596":{"id":"10760000225596","name":"บริษัท ไวส์วูดส์ จำกัด","owner":"บริษัท ไวส์วูดส์ จำกัด","displayRegistration":"3-34(3)-2/59พบ","province":"เพชรบุรี","district":"เขาย้อย","subdistrict":"หนองชุมพลเหนือ","industryType":"ผลิตแผ่นใยไม้อัด ความหนาแน่นปานกลาง","status":"ดำเนินกิจการ","lat":13.30023,"lon":99.72958},"40760007125595":{"id":"40760007125595","name":"บริษัท อิเควเตอร์ โซลาร์ จำกัด (โครงการที่ 4)","owner":"บริษัท อิเควเตอร์ โซลาร์ จำกัด","displayRegistration":"3-88(1)-71/59พบ","province":"เพชรบุรี","district":"ชะอำ","subdistrict":"เขาใหญ่","industryType":"ผลิตพลังงานไฟฟ้าจากเซลล์แสงอาทิตย์ กำลังการผลิตขนาด 0.446 MW","status":"ดำเนินกิจการ","lat":12.8260784943335,"lon":99.9021328669478},"40760010125582":{"id":"40760010125582","name":"บริษัท อิเควเตอร์ โซลาร์ จำกัด (2)","owner":"บริษัท อิเควเตอร์ โซลาร์ จำกัด","displayRegistration":"3-88(1)-101/58พบ","province":"เพชรบุรี","district":"ชะอำ","subdistrict":"เขาใหญ่","industryType":"ผลิตพลังงานไฟฟ้าจากเซลล์แสงอาทิตย์ กำลังการผลิต 4.965 เมกะวัตต์","status":"ดำเนินกิจการ","lat":12.8260784943335,"lon":99.9021328669478},"40760010725589":{"id":"40760010725589","name":"บริษัท อิเควเตอร์ โซลาร์ จำกัด (11)","owner":"บริษัท อิเควเตอร์ โซลาร์ จำกัด (11)","displayRegistration":"3-88(1)-107/58พบ","province":"เพชรบุรี","district":"ชะอำ","subdistrict":"เขาใหญ่","industryType":"ผลิตพลังงานไฟฟ้าจากเซลล์แสงอาทิตย์ กำลังการผลิต 5 เมกะวัตต์","status":"ดำเนินกิจการ","lat":12.8260575720639,"lon":99.9020255785923},"40760007425599":{"id":"40760007425599","name":"บริษัท อิเควเตอร์ โซลาร์ จำกัด (โครงการที่ 10)","owner":"บริษัท อิเควเตอร์ โซลาร์ จำกัด","displayRegistration":"3-88(1)-74/59พบ","province":"เพชรบุรี","district":"ชะอำ","subdistrict":"เขาใหญ่","industryType":"ผลิตพลังงานไฟฟ้าจากเซลล์แสงอาทิตย์ กำลังการผลิตขนาด 4.74MW.","status":"ดำเนินกิจการ","lat":12.8258692357455,"lon":99.9020684469673},"40760007525596":{"id":"40760007525596","name":"บริษัท อิเควเตอร์ โซลาร์ จำกัด (โครงการที่ 12)","owner":"บริษัท อิเควเตอร์ โซลาร์ จำกัด","displayRegistration":"3-88(1)-75/59พบ","province":"เพชรบุรี","district":"ชะอำ","subdistrict":"เขาใหญ่","industryType":"ผลิตพลังงานไฟฟ้าจากเซลล์แสงอาทิตย์ กำลังการผลิตขนาด 0.999 MW.","status":"ดำเนินกิจการ","lat":12.8260784943335,"lon":99.9021328669478},"20760042225578":{"id":"20760042225578","name":"NULL","owner":"นายสวัสดิ์ วรุณเวทวิวัฒน์","displayRegistration":"จ3-3(2)-422/57พบ","province":"เพชรบุรี","district":"หนองหญ้าปล้อง","subdistrict":"ยางน้ำกลัดใต้","industryType":"ขุดดินและทราย","status":"ดำเนินกิจการ","lat":13.0699259336463,"lon":99.6982484779},"20760000425582":{"id":"20760000425582","name":"NULL","owner":"นางอุไรวรรณ พัดทอง","displayRegistration":"จ3-3(3)-4/58พบ","province":"เพชรบุรี","district":"ชะอำ","subdistrict":"เขาใหญ่","industryType":"คัดกรวดหรือทราย","status":"ดำเนินกิจการ","lat":12.8440172272924,"lon":99.885974746},"20760003525586":{"id":"20760003525586","name":"บ่อดินเพชรไพฑูรย์","owner":"นายไพฑูรย์ วารีเพชร","displayRegistration":"จ3-3(2)-35/58พบ","province":"เพชรบุรี","district":"ชะอำ","subdistrict":"ดอนขุนห้วย","industryType":"ขุดตักดินหรือทราย","status":"ดำเนินกิจการ","lat":12.8503081384324,"lon":99.8830557257846},"20760021225599":{"id":"20760021225599","name":"นายนิพนธ์ แสนสร้อย 1","owner":"นายนิพนธ์ แสนสร้อย","displayRegistration":"จ3-3(2)-212/59พบ","province":"เพชรบุรี","district":"หนองหญ้าปล้อง","subdistrict":"ยางน้ำกลัดใต้","industryType":"ขุดดิน หรือดินลูกรัง","status":"ดำเนินกิจการ","lat":13.131577047362,"lon":99.6718351566},"20760021325597":{"id":"20760021325597","name":"นายนิพนธ์ แสนสร้อย 2","owner":"นายนิพนธ์ แสนสร้อย","displayRegistration":"จ3-3(2)-213/59พบ","province":"เพชรบุรี","district":"หนองหญ้าปล้อง","subdistrict":"ยางน้ำกลัดใต้","industryType":"ขุดดิน หรือดินลูกรัง","status":"ดำเนินกิจการ","lat":13.1286303241349,"lon":99.672594394},"20760007925584":{"id":"20760007925584","name":"ห้างหุ้นส่วนจำกัด เอส.เอส.วี.แอสฟัลท์ติกคอนกรีต","owner":"ห้างหุ้นส่วนจำกัด เอส.เอส.วี.แอสฟัลท์ติกคอนกรีต","displayRegistration":"จ3-58(1)-79/58พบ","province":"เพชรบุรี","district":"บ้านลาด","subdistrict":"ลาดโพธิ์","industryType":"ผลิตคอนกรีตผสมเสร็จ","status":"ดำเนินกิจการ","lat":13.1146938200105,"lon":99.8927079776844},"20760021725580":{"id":"20760021725580","name":"บริษัท โตโยต้าเพชรบุรี จำกัด","owner":"บริษัท โตโยต้าเพชรบุรี จำกัด","displayRegistration":"จ3-95(1)-217/58พบ","province":"เพชรบุรี","district":"เมืองเพชรบุรี","subdistrict":"ไร่ส้ม","industryType":"ซ่อมและเคาะพ่นสีรถยนต์","status":"ดำเนินกิจการ","lat":13.11399,"lon":99.9249211},"40760011125581":{"id":"40760011125581","name":"บริษัท อิเควเตอร์ โซลาร์ จำกัด (20)","owner":"บริษัท อิเควเตอร์ โซลาร์ จำกัด","displayRegistration":"3-88(1)-111/58พบ","province":"เพชรบุรี","district":"ชะอำ","subdistrict":"เขาใหญ่","industryType":"ผลิตพลังงานไฟฟ้าจากเซลล์แสงอาทิตย์ กำลังการผลิต 4.965 เมกะวัตต์","status":"ดำเนินกิจการ","lat":12.8210477755826,"lon":99.9113195634},"40760006625595":{"id":"40760006625595","name":"บริษัท เอ็นเนอร์จี เซิฟ จำกัด (PEA-1052-VS3-110)","owner":"บริษัท เอ็นเนอร์จี เซิฟ จำกัด","displayRegistration":"3-88(1)-66/59พบ","province":"เพชรบุรี","district":"เขาย้อย","subdistrict":"หนองปรง","industryType":"ผลิตพลังงานไฟฟ้าจากเซลล์แสงอาทิตย์ กำลังผลิต 5.95 เมกะวัตต์","status":"ดำเนินกิจการ","lat":13.1650238034727,"lon":99.8145737472},"20760000225610":{"id":"20760000225610","name":"บริษัท สยาม อควาเทค เอ็นจิเนียริ่ง จำกัด","owner":"บริษัท สยาม อควาเทค เอ็นจิเนียริ่ง จำกัด","displayRegistration":"จ3-63(1)-2/61พบ","province":"เพชรบุรี","district":"เขาย้อย","subdistrict":"ทับคาง","industryType":"ผลิตกล่องลวดตาข่ายเกเบี้ยน กล่องแมทเทรส","status":"ดำเนินกิจการ","lat":13.2063,"lon":99.806},"30760000125529":{"id":"30760000125529","name":"บริษัท โรงโม่หินเพชรลดา จำกัด","owner":"บริษัท โรงโม่หินเพชรลดา จำกัด","displayRegistration":"ธ3-3(1)-1/52พบ","province":"เพชรบุรี","district":"เขาย้อย","subdistrict":"หนองชุมพล","industryType":"โม่ บด หรือย่อยหิน","status":"ดำเนินกิจการ","lat":13.3016698928532,"lon":99.7628444548615},"40760005525580":{"id":"40760005525580","name":"บริษัท บีเอสพี ไฟว์ จำกัด","owner":"บริษัท บีเอสพี ไฟว์ จำกัด","displayRegistration":"3-88(1)-55/58พบ","province":"เพชรบุรี","district":"เขาย้อย","subdistrict":"หนองชุมพล","industryType":"ผลิตกระแสไฟฟ้าจากพลังงานแสงอาทิตย์ ขนาด 2 เมกะวัตต์","status":"ดำเนินกิจการ","lat":13.2752272282208,"lon":99.7792253549485},"20760008325586":{"id":"20760008325586","name":"-","owner":"นางสาวศิริรัตน์ เขียวคลี่","displayRegistration":"จ3-34(2)-83/58พบ","province":"เพชรบุรี","district":"ท่ายาง","subdistrict":"เขากระปุก","industryType":"ทำวงกบ ประตู หน้าต่าง","status":"ดำเนินกิจการ","lat":12.7144657485946,"lon":99.7821943971861},"20760003325581":{"id":"20760003325581","name":"บริษัท พี เอส ดี คอนสตรัคชั่น 2011 จำกัด","owner":"บริษัท พี เอส ดี คอนสตรัคชั่น 2011 จำกัด","displayRegistration":"จ3-50(4)-33/58พบ","province":"เพชรบุรี","district":"เขาย้อย","subdistrict":"หนองชุมพล","industryType":"ผลิตแอสฟัสติกคอนกรีต","status":"ดำเนินกิจการ","lat":13.287295,"lon":99.736115},"20760016125580":{"id":"20760016125580","name":"NULL","owner":"นายศักดิ์ แย้มกล่ำ","displayRegistration":"จ3-3(2)-161/58พบ","province":"เพชรบุรี","district":"ชะอำ","subdistrict":"ดอนขุนห้วย","industryType":"ขุดดินและขุดทราย","status":"ดำเนินกิจการ","lat":12.8474546240967,"lon":99.8844772842},"10760000125283":{"id":"10760000125283","name":"เหรียญชัย","owner":"นายเศกสรรค์ จันทรแสงอร่าม","displayRegistration":"3-10(3)-1/28พบ","province":"เพชรบุรี","district":"เมืองเพชรบุรี","subdistrict":"ท่าราบ","industryType":"ทำก๋วยเตี๋ยว","status":"ดำเนินกิจการ","lat":13.10465,"lon":99.95763},"40760011025583":{"id":"40760011025583","name":"บริษัท อิเควเตอร์ โซลาร์ จำกัด (21)","owner":"บริษัท อิเควเตอร์ โซลาร์ จำกัด (21)","displayRegistration":"3-88(1)-110/58พบ","province":"เพชรบุรี","district":"ชะอำ","subdistrict":"เขาใหญ่","industryType":"ผลิตพลังงานไฟฟ้าจากเซลล์แสงอาทิตย์ กำลังการผลิต 4.965 เมกะวัตต์","status":"ดำเนินกิจการ","lat":12.8176877775283,"lon":99.9072341745},"10760001125605":{"id":"10760001125605","name":"บริษัท เอนเนอร์จี รีพับบลิค จำกัด","owner":"บริษัท เอนเนอร์จี รีพับบลิค จำกัด","displayRegistration":"3-106-11/60พบ","province":"เพชรบุรี","district":"ชะอำ","subdistrict":"เขาใหญ่","industryType":"ผลิตเชื้อเพลิงทดแทนจากสิ่งปฏิกูลหรือวัสดุที่ไม่ใช้แล้วที่ไม่เป็นของเสียอันตราย","status":"ดำเนินกิจการ","lat":12.8141683114024,"lon":99.9146712711645},"40760007225593":{"id":"40760007225593","name":"บริษัท อิเควเตอร์ โซลาร์ จำกัด (โครงการที่ 6)","owner":"บริษัท อิเควเตอร์ โซลาร์ จำกัด (โครงการที่ 6)","displayRegistration":"3-88(1)-72/59พบ","province":"เพชรบุรี","district":"ชะอำ","subdistrict":"เขาใหญ่","industryType":"ผลิตพลังงานไฟฟ้าจากเซลล์แสงอาทิตย์ กำลังการผลิตขนาด 4.094 MW","status":"ดำเนินกิจการ","lat":12.827788702402,"lon":99.8974162725},"10760000825593":{"id":"10760000825593","name":"บริษัท เอส ทู เค มารีน โปรดักส์ จำกัด","owner":"บริษัท เอส ทู เค มารีน โปรดักส์ จำกัด","displayRegistration":"3-92-8/59พบ","province":"เพชรบุรี","district":"บ้านแหลม","subdistrict":"บ้านแหลม","industryType":"ห้องเย็น","status":"ดำเนินกิจการ","lat":13.1999111329045,"lon":99.9605690663069},"40760009125585":{"id":"40760009125585","name":"บริษัท เอ็นเนอร์จี เซิฟ จำกัด โครงการ 7 (PEA-1054-VS3-110)","owner":"บริษัท เอ็นเนอร์จี เซิฟ จำกัด","displayRegistration":"3-88(1)-91/58พบ","province":"เพชรบุรี","district":"เขาย้อย","subdistrict":"หนองปรง","industryType":"ผลิตพลังงานไฟฟ้าจากเซลล์แสงอาทิตย์ กำลังผลิต 5.95 เมกะวัตต์","status":"ดำเนินกิจการ","lat":13.1678908417938,"lon":99.8150282048},"40760011625580":{"id":"40760011625580","name":"บริษัท อิเควเตอร์ โซลาร์ จำกัด (13)","owner":"บริษัท อิเควเตอร์ โซลาร์ จำกัด (13)","displayRegistration":"3-88(1)-116/58พบ","province":"เพชรบุรี","district":"ชะอำ","subdistrict":"เขาใหญ่","industryType":"ผลิตพลังงานไฟฟ้าจากเซลล์แสงอาทิตย์ กำลังการผลิต 0.999 เมกะวัตต์","status":"ดำเนินกิจการ","lat":12.8215284666612,"lon":99.9009976755},"10760005625485":{"id":"10760005625485","name":"บริษัท ไททัน โพลีเทค จำกัด","owner":"บริษัท ไททัน โพลีเทค จำกัด","displayRegistration":"3-53(5)-56/48พบ","province":"เพชรบุรี","district":"เขาย้อย","subdistrict":"หนองชุมพล","industryType":"ผลิตท่อและแผ่นพลาสติก","status":"ดำเนินกิจการ","lat":13.285725,"lon":99.799034},"20760005925586":{"id":"20760005925586","name":"NULL","owner":"นางอุไรวรรณ พัดทอง","displayRegistration":"จ3-3(2)-59/58พบ","province":"เพชรบุรี","district":"ชะอำ","subdistrict":"เขาใหญ่","industryType":"ขุดดินและขุดทราย","status":"ดำเนินกิจการ","lat":12.8472051072968,"lon":99.8831202423},"40760010325588":{"id":"40760010325588","name":"บริษัท อิเควเตอร์ โซลาร์ จำกัด (5)","owner":"บริษัท อิเควเตอร์ โซลาร์ จำกัด","displayRegistration":"3-88(1)-103/58พบ","province":"เพชรบุรี","district":"ชะอำ","subdistrict":"เขาใหญ่","industryType":"ผลิตพลังงานไฟฟ้าจากเซลล์แสงอาทิตย์","status":"ดำเนินกิจการ","lat":12.8258692357455,"lon":99.9020684469673},"40760010525583":{"id":"40760010525583","name":"บริษัท อิเควเตอร์ โซลาร์ จำกัด (9)","owner":"บริษัท อิเควเตอร์ โซลาร์ จำกัด (9)","displayRegistration":"3-88(1)-105/58พบ","province":"เพชรบุรี","district":"ชะอำ","subdistrict":"เขาใหญ่","industryType":"ผลิตพลังงานไฟฟ้าจากเซลล์แสงอาทิตย์ กำลังการผลิต 5 เมกะวัตต์","status":"ดำเนินกิจการ","lat":12.8258692357455,"lon":99.9020684469673},"20760201125585":{"id":"20760201125585","name":"บริษัท ไทยสวิทช์บอร์ด แอนด์ เมตัลเวอร์ค (เพชรบุรี) จำกัด","owner":"บริษัท ไทยสวิทช์บอร์ด แอนด์ เมตัลเวอร์ค (เพชรบุรี) จำกัด","displayRegistration":"จ3-61-11/58พบ","province":"เพชรบุรี","district":"เขาย้อย","subdistrict":"หนองชุมพลเหนือ","industryType":"ผลิตชั้นวางสินค้า,ชั้นลอย และผลิตภัณฑ์ทำจากโลหะ","status":"ดำเนินกิจการ","lat":13.336492,"lon":99.759582},"10760012425499":{"id":"10760012425499","name":"-","owner":"นายวิชาญ ทองยืน","displayRegistration":"3-3(4)-124/49พบ","province":"เพชรบุรี","district":"ท่ายาง","subdistrict":"กลัดหลวง","industryType":"ดูดทรายในที่ดินกรรมสิทธิ์","status":"ดำเนินกิจการ","lat":12.82634,"lon":99.7672},"20760014425586":{"id":"20760014425586","name":"NULL","owner":"นายคงเกียรติ วิรุฬหพจน์","displayRegistration":"จ3-3(2)-144/58พบ","province":"เพชรบุรี","district":"หนองหญ้าปล้อง","subdistrict":"ท่าตะคร้อ","industryType":"ขุดดินหรือดินลูกรัง","status":"ดำเนินกิจการ","lat":13.0946098076799,"lon":99.7102680167},"20760000925565":{"id":"20760000925565","name":"ห้างหุ้นส่วนจำกัด วงศ์ทวีทรัพย์ รับเบอร์","owner":"ห้างหุ้นส่วนจำกัด วงศ์ทวีทรัพย์ รับเบอร์","displayRegistration":"จ3-52(4)-9/56พบ","province":"เพชรบุรี","district":"เขาย้อย","subdistrict":"บางเค็ม","industryType":"ปั้มขึ้นรูปยาง เช่น ซีลยาง โอริ้ง ฝาครอบยาง และชิ้นส่วนอุปกรณ์ต่าง ๆ","status":"ดำเนินกิจการ","lat":13.27797,"lon":99.8292},"20760004625583":{"id":"20760004625583","name":"บริษัท อู่เพชรการช่าง จำกัด","owner":"บริษัท อู่เพชรการช่าง จำกัด","displayRegistration":"จ3-95(1)-46/58พบ","province":"เพชรบุรี","district":"บ้านลาด","subdistrict":"ไร่มะขาม","industryType":"ซ่อมและเคาะพ่นสีรถยนต์","status":"ดำเนินกิจการ","lat":13.0322495614349,"lon":99.9286093683529},"20760007825586":{"id":"20760007825586","name":"ห้างหุ้นส่วนจำกัด เอส.เอส.วี.แอสฟัลท์ติกคอนกรีต","owner":"ห้างหุ้นส่วนจำกัด เอส.เอส.วี.แอสฟัลท์ติกคอนกรีต","displayRegistration":"จ3-58(1)-78/58พบ","province":"เพชรบุรี","district":"ชะอำ","subdistrict":"เขาใหญ่","industryType":"ผลิตคอนกรีตผสมเสร็จ","status":"ดำเนินกิจการ","lat":12.8137432285955,"lon":99.9129623453082},"40760007025597":{"id":"40760007025597","name":"บริษัท อิเควเตอร์ โซลาร์ วัน จำกัด","owner":"บริษัท อิเควเตอร์ โซลาร์ วัน จำกัด","displayRegistration":"3-88(1)-70/59พบ","province":"เพชรบุรี","district":"ชะอำ","subdistrict":"เขาใหญ่","industryType":"ผลิตพลังงานไฟฟ้าจากเซลล์แสงอาทิตย์ กำลังการผลิตขนาด 4.997 MW.","status":"ดำเนินกิจการ","lat":12.8289410171214,"lon":99.9094732072},"40760004725587":{"id":"40760004725587","name":"บริษัท รางเงิน โซลูชั่น จำกัด สาขากลัดหลวง เฟส 2","owner":"บริษัท รางเงิน โซลูชั่น จำกัด","displayRegistration":"3-88(1)-47/58พบ","province":"เพชรบุรี","district":"ท่ายาง","subdistrict":"กลัดหลวง","industryType":"โรงผลิตพลังงานไฟฟ้าจากพลังงานแสงอาทิตย์ ขนาดกำลังผลิตติดตั้ง 2.37 เมกะวัตต์","status":"ดำเนินกิจการ","lat":12.8078827265406,"lon":99.7395963242592},"20760001825590":{"id":"20760001825590","name":"บริษัท ยี่คิง พลาสติก โปรดักชั่น จำกัด","owner":"บริษัท ยี่คิง พลาสติก โปรดักชั่น จำกัด","displayRegistration":"จ3-53(1)-18/59พบ","province":"เพชรบุรี","district":"เขาย้อย","subdistrict":"สระพัง","industryType":"ผลิตชิ้นส่วนพลาสติกสำหรับเครื่องใช้ไฟฟ้าและผลิตภัณฑ์อิเล็กทรอนิกส์","status":"ดำเนินกิจการ","lat":13.2679791672322,"lon":99.8252540260256},"20760003925588":{"id":"20760003925588","name":"บริษัท นวพรการค้าสากล จำกัด","owner":"บริษัท นวพรการค้าสากล จำกัด","displayRegistration":"จ3-64(12)-39/58พบ","province":"เพชรบุรี","district":"เขาย้อย","subdistrict":"หนองชุมพล","industryType":"ผลิตเหล็กรูปพรรณ","status":"ดำเนินกิจการ","lat":13.2720448391831,"lon":99.7399602990593},"40760010025584":{"id":"40760010025584","name":"บริษัท อิเควเตอร์ โซลาร์ จำกัด (1)","owner":"บริษัท อิเควเตอร์ โซลาร์ จำกัด (1)","displayRegistration":"3-88(1)-100/58พบ","province":"เพชรบุรี","district":"ชะอำ","subdistrict":"เขาใหญ่","industryType":"ผลิตพลังงานไฟฟ้าจากเซลล์แสงอาทิตย์ กำลังการผลิต 4.965 เมกะวัตต์","status":"ดำเนินกิจการ","lat":12.8258692357455,"lon":99.9020684469673},"10760001425500":{"id":"10760001425500","name":"บริษัท เมทัลลิค เซคชั่น สตีล จำกัด","owner":"บริษัท เมทัลลิค เซคชั่น สตีล จำกัด","displayRegistration":"3-59-14/50พบ","province":"เพชรบุรี","district":"เขาย้อย","subdistrict":"หนองชุมพล","industryType":"ผลิตเหล็กแผ่นแถบหน้าชนิดม้วนและเหล็กโครงสร้าง","status":"ดำเนินกิจการ","lat":13.28005,"lon":99.73965},"10760000525573":{"id":"10760000525573","name":"บริษัท ไทยเฮงสตีล จำกัด","owner":"บริษัท ไทยเฮงสตีล จำกัด","displayRegistration":"3-59-5/57พบ","province":"เพชรบุรี","district":"เขาย้อย","subdistrict":"หนองชุมพล","industryType":"ผลิตเหล็กแท่ง (Billet)","status":"ดำเนินกิจการ","lat":13.2817536907868,"lon":99.8173492684419},"20760001125587":{"id":"20760001125587","name":"NULL","owner":"ห้างหุ้นส่วนจำกัด เขาใหญ่ท่าทราย","displayRegistration":"จ3-3(2)-11/58พบ","province":"เพชรบุรี","district":"ท่ายาง","subdistrict":"ท่าไม้รวก","industryType":"ขุดดินและขุดทราย","status":"ดำเนินกิจการ","lat":12.8407198419322,"lon":99.8176117094},"20760026125596":{"id":"20760026125596","name":"บริษัท มดแดงใหญ่ วิศวกรรม จำกัด","owner":"บริษัท มดแดงใหญ่ วิศวกรรม จำกัด","displayRegistration":"จ3-3(2)-261/59พบ","province":"เพชรบุรี","district":"ชะอำ","subdistrict":"เขาใหญ่","industryType":"ขุดดินหรือขุดทราย และคัดทราย","status":"ดำเนินกิจการ","lat":12.8514587021233,"lon":99.9018456852},"20760000625595":{"id":"20760000625595","name":"บริษัท เอ อาร์ ดับบลิว พลาสแพค จำกัด","owner":"บริษัท เอ อาร์ ดับบลิว พลาสแพค จำกัด","displayRegistration":"จ3-53(4)-6/59พบ","province":"เพชรบุรี","district":"แก่งกระจาน","subdistrict":"วังจันทร์","industryType":"ทำขวดน้ำดื่ม (PET)","status":"ดำเนินกิจการ","lat":12.9338411369923,"lon":99.7682158548588},"30760000725609":{"id":"30760000725609","name":"โรงโม่หิน ส.ศิลาเพชร","owner":"ห้างหุ้นส่วนจำกัด ส.ศิลาเพชร","displayRegistration":"ธ3-3(1)-7/60พบ","province":"เพชรบุรี","district":"เขาย้อย","subdistrict":"หนองชุมพลเหนือ","industryType":"โม่ บด และย่อยหิน","status":"ดำเนินกิจการ","lat":13.3200919367774,"lon":99.7548102113703},"20760004925611":{"id":"20760004925611","name":"บริษัท โคโคนัท คาร์บอน (ไทย) จำกัด","owner":"บริษัท โคโคนัท คาร์บอน (ไทย) จำกัด","displayRegistration":"จ3-53(1)-49/61พบ","province":"เพชรบุรี","district":"เขาย้อย","subdistrict":"หนองชุมพล","industryType":"ผลิต,บรรจุ,จำหน่าย อุปกรณ์กรองน้ำพลาสติก,ไส้กรองน้ำ,สารกรองน้ำ","status":"ดำเนินกิจการ","lat":13.2911113333504,"lon":99.7961618265},"40760009925588":{"id":"40760009925588","name":"บริษัท เอ็นเนอร์จี เซิฟ จำกัด (PEA-1057-VS3-110) โครงการ 10","owner":"บริษัท เอ็นเนอร์จี เซิฟ จำกัด","displayRegistration":"3-88(1)-99/58พบ","province":"เพชรบุรี","district":"เขาย้อย","subdistrict":"หนองปรง","industryType":"ผลิตพลังงานไฟฟ้าจากเซลล์แสงอาทิตย์ กำลังผลิต 8.00 เมกะวัตต์","status":"ดำเนินกิจการ","lat":13.1640513485414,"lon":99.8041554452},"20760030925577":{"id":"20760030925577","name":"ห้างหุ้นส่วนจำกัด โชควรรณฉัตรคอนกรีต","owner":"ห้างหุ้นส่วนจำกัด โชควรรณฉัตรคอนกรีต","displayRegistration":"จ3-58(1)-309/57พบ","province":"เพชรบุรี","district":"ท่ายาง","subdistrict":"ท่ายาง","industryType":"ผลิตคอนกรีตผสมเสร็จ","status":"ดำเนินกิจการ","lat":12.9559695871756,"lon":99.9074256411805},"20760002725583":{"id":"20760002725583","name":"NULL","owner":"นายพิเชต เวชสว่าง","displayRegistration":"จ3-3(2)-27/58พบ","province":"เพชรบุรี","district":"ชะอำ","subdistrict":"เขาใหญ่","industryType":"ขุดดินและขุดทราย","status":"ดำเนินกิจการ","lat":12.8461167216085,"lon":99.8850637498},"40760010425586":{"id":"40760010425586","name":"บริษัท อิเควเตอร์ โซลาร์ จำกัด (8)","owner":"บริษัท อิเควเตอร์ โซลาร์ จำกัด (8)","displayRegistration":"3-88(1)-104/58พบ","province":"เพชรบุรี","district":"ชะอำ","subdistrict":"เขาใหญ่","industryType":"ผลิตพลังงานไฟฟ้าจากเซลล์แสงอาทิตย์ กำลังการผลิต 5 เมกะวัตต์","status":"ดำเนินกิจการ","lat":12.8277302717907,"lon":99.9042191917},"40760011425585":{"id":"40760011425585","name":"บริษัท อิเควเตอร์ โซลาร์ จำกัด (16)","owner":"บริษัท อิเควเตอร์ โซลาร์ จำกัด","displayRegistration":"3-88(1)-114/58พบ","province":"เพชรบุรี","district":"ชะอำ","subdistrict":"เขาใหญ่","industryType":"ผลิตพลังงานไฟฟ้าจากเซลล์แสงอาทิตย์ กำลังการผลิต 4.965 เมกะวัตต์","status":"ดำเนินกิจการ","lat":12.8223701164468,"lon":99.9061526835},"20760016425584":{"id":"20760016425584","name":"NULL","owner":"นายอติวรรธน์ มากมูล","displayRegistration":"จ3-3(2)-164/58พบ","province":"เพชรบุรี","district":"ชะอำ","subdistrict":"เขาใหญ่","industryType":"ขุดดินหรือทราย และคัดทราย","status":"ดำเนินกิจการ","lat":12.8518105104721,"lon":99.8926239396},"20760023425601":{"id":"20760023425601","name":"ห้างหุ้นส่วนจำกัด ฟลุ๊ค คอนกรีต","owner":"ห้างหุ้นส่วนจำกัด ฟลุ๊ค คอนกรีต","displayRegistration":"จ3-58(1)-234/60พบ","province":"เพชรบุรี","district":"เขาย้อย","subdistrict":"หนองชุมพล","industryType":"ผลิตและจำหน่ายคอนกรีตผสมเสร็จ","status":"ดำเนินกิจการ","lat":13.2815318281723,"lon":99.7626258107584},"20760000125612":{"id":"20760000125612","name":"บริษัท เคโออาร์ รับเบอร์ จำกัด","owner":"บริษัท เคโออาร์ รับเบอร์ จำกัด","displayRegistration":"จ3-52(4)-1/61พบ","province":"เพชรบุรี","district":"เขาย้อย","subdistrict":"หนองชุมพล","industryType":"ทำผลิตภัณฑ์จากยางหรือยางสังเคราะห์ เช่น ชิ้นส่วนยางสำหรับอุตสาหกรรมต่าง ๆ","status":"ดำเนินกิจการ","lat":13.2681,"lon":99.7515},"20760000225602":{"id":"20760000225602","name":"บริษัท สตาร์ ซัน ฟู้ดส์ (ไทยแลนด์) จำกัด","owner":"บริษัท สตาร์ ซัน ฟู้ดส์ (ไทยแลนด์) จำกัด","displayRegistration":"จ3-20(2)-2/60พบ","province":"เพชรบุรี","district":"เขาย้อย","subdistrict":"สระพัง","industryType":"การทำเครื่องดื่มที่ไม่มีแอลกอฮอล์ (เช่น น้ำหวานบรรจุในภาชนะพลาสติก)","status":"ดำเนินกิจการ","lat":13.2490337426799,"lon":99.8179566413677},"20760002825615":{"id":"20760002825615","name":"บริษัท พีทีเอฟ ไบโอแมส (ไทยแลนด์) จำกัด","owner":"บริษัท พีทีเอฟ ไบโอแมส (ไทยแลนด์) จำกัด","displayRegistration":"จ3-34(4)-28/61พบ","province":"เพชรบุรี","district":"เขาย้อย","subdistrict":"ทับคาง","industryType":"ผลิตเชื้อเพลิงอัดแท่ง (Pellet mill) จากเศษไม้ยางพาราแปรรูป และไม้ที่ปลูกขึ้นโดยเฉพาะ 13 ชนิด ตามมติ ครม. ได้แก่ กระถิ่นณรงค์ มะพร้าว มะขาม สะเอาเทียม ยูคาลิปตัส และไม้ตาล ฯลฯ เป็นต้น","status":"ดำเนินกิจการ","lat":13.2268954058787,"lon":99.8047995278945},"40760007525588":{"id":"40760007525588","name":"โซลเนอร์จี โครงการ 1 (PEA-1085-VN2-110)","owner":"บริษัท โซลเนอร์จี จำกัด","displayRegistration":"3-88(1)-75/58พบ","province":"เพชรบุรี","district":"เขาย้อย","subdistrict":"หนองชุมพล","industryType":"ผลิตพลังงานไฟฟ้าจากเซลล์แสงอาทิตย์ กำลังการผลิต 1 เมกะวัตต์","status":"ดำเนินกิจการ","lat":13.2870938181499,"lon":99.7788533136},"20760000725585":{"id":"20760000725585","name":"บริษัท มั่นชัย แมชชินเนอรี่ จำกัด","owner":"บริษัท มั่นชัย แมชชินเนอรี่ จำกัด","displayRegistration":"จ3-64(1)-7/58พบ","province":"เพชรบุรี","district":"เขาย้อย","subdistrict":"เขาย้อย","industryType":"ผลิตถังเก็บและจ่ายก๊าซ, ถังโลหะชนิดต่างๆ","status":"ดำเนินกิจการ","lat":13.2374262882034,"lon":99.7864015211077},"20760010425606":{"id":"20760010425606","name":"บี-ควิก สาขาโรบินสัน เพชรบุรี","owner":"บริษัท บี-ควิก จำกัด","displayRegistration":"จ3-95(1)-104/60พบ","province":"เพชรบุรี","district":"บ้านลาด","subdistrict":"สมอพลือ","industryType":"ศูนย์บริการซ่อมแซมรถยนต์","status":"ดำเนินกิจการ","lat":13.0627661237143,"lon":99.9471988422841},"20760004625617":{"id":"20760004625617","name":"ห้างหุ้นส่วนจำกัด ณรงค์ ดิน วัสดุก่อสร้าง","owner":"ห้างหุ้นส่วนจำกัด ณรงค์ ดิน วัสดุก่อสร้าง","displayRegistration":"จ3-58(1)-46/61พบ","province":"เพชรบุรี","district":"เมืองเพชรบุรี","subdistrict":"โพไร่หวาน","industryType":"ผลิตเสาปูน ท่อปูน อิฐบล็อก และคอนกรีตผสมเสร็จ","status":"ดำเนินกิจการ","lat":13.0792446546718,"lon":99.9714426683909},"40760005425583":{"id":"40760005425583","name":"บริษัท บีเอสพี โฟร์ จำกัด","owner":"บริษัท บีเอสพี โฟร์ จำกัด","displayRegistration":"3-88(1)-54/58พบ","province":"เพชรบุรี","district":"เขาย้อย","subdistrict":"หนองชุมพล","industryType":"ผลิตกระแสไฟฟ้าจากพลังงานแสงอาทิตย์ ขนาด 2 เมกะวัตต์","status":"ดำเนินกิจการ","lat":13.2752272282208,"lon":99.7792253549485},"20760023925600":{"id":"20760023925600","name":"เอสอาร์ คอนส์","owner":"บริษัท เอสอาร์ คอนส์ จำกัด","displayRegistration":"จ3-58(1)-239/60พบ","province":"เพชรบุรี","district":"เมืองเพชรบุรี","subdistrict":"นาวุ้ง","industryType":"ผลิตปูนคอนกรีตผสมเสร็จ","status":"ดำเนินกิจการ","lat":13.0944070881826,"lon":99.9889518971888},"20760002025604":{"id":"20760002025604","name":"นางอุไรวรรณ พัดทอง","owner":"นางอุไรวรรณ พัดทอง","displayRegistration":"จ3-3(3)-20/60พบ","province":"เพชรบุรี","district":"ชะอำ","subdistrict":"เขาใหญ่","industryType":"คัดกรวดหรือทราย ล้างทรายเพื่อการก่อสร้าง","status":"ดำเนินกิจการ","lat":12.838988816407,"lon":99.8839592111},"20760025025581":{"id":"20760025025581","name":"นางสาวเลิศจันฑา สีเหลืองสวัสดิ์","owner":"นางสาวเลิศจันฑา สีเหลืองสวัสดิ์","displayRegistration":"จ3-3(2)-250/58พบ","province":"เพชรบุรี","district":"แก่งกระจาน","subdistrict":"พุสวรรค์","industryType":"ขุดดินหรือดินลูกรัง","status":"ดำเนินกิจการ","lat":12.9796444475936,"lon":99.7311920341},"20760025625588":{"id":"20760025625588","name":"นางสุวรรณา ธรรมจริยาเจริญ","owner":"นางสุวรรณา ธรรมจริยาเจริญ","displayRegistration":"จ3-3(2)-256/58พบ","province":"เพชรบุรี","district":"หนองหญ้าปล้อง","subdistrict":"ท่าตะคร้อ","industryType":"ขุดดินหรือดินลูกรัง","status":"ดำเนินกิจการ","lat":13.0976911386762,"lon":99.7118428824},"40760006425590":{"id":"40760006425590","name":"บริษัท เอ็นเนอร์จี เซิฟ จำกัด","owner":"บริษัท เอ็นเนอร์จี เซิฟ จำกัด","displayRegistration":"3-88(1)-64/59พบ","province":"เพชรบุรี","district":"เขาย้อย","subdistrict":"หนองปรง","industryType":"ผลิตพลังงานไฟฟ้าจากเซลล์แสงอาทิตย์ กำลังผลิต 2.975 เมกะวัตต์","status":"ดำเนินกิจการ","lat":13.1673813434392,"lon":99.8095605505},"40760000725581":{"id":"40760000725581","name":"บริษัท อิแมกอินเตอร์ จำกัด","owner":"บริษัท อิแมกอินเตอร์ จำกัด","displayRegistration":"3-88(1)-7/58พบ","province":"เพชรบุรี","district":"เขาย้อย","subdistrict":"หนองชุมพล","industryType":"ผลิตพลังงานไฟฟ้า ขนาดกำลังการผลิต 4.4 เมกะวัตต์","status":"ดำเนินกิจการ","lat":13.2990027782503,"lon":99.7455233936529},"10760000225588":{"id":"10760000225588","name":"แปรรูปนมโครงการชั่งหัวมันตามพระราชดำริ","owner":"โครงการชั่งหัวมันตามพระราชดำริ","displayRegistration":"3-5(1)-2/58พบ","province":"เพชรบุรี","district":"ท่ายาง","subdistrict":"เขากระปุก","industryType":"แปรรูปผลิตภัณฑ์จากน้ำนมดิบ","status":"ดำเนินกิจการ","lat":12.7467036762168,"lon":99.7096603549429},"40760004825585":{"id":"40760004825585","name":"บริษัท รางเงิน โซลูชั่น จำกัด","owner":"บริษัท รางเงิน โซลูชั่น จำกัด","displayRegistration":"3-88(1)-48/58พบ","province":"เพชรบุรี","district":"ท่ายาง","subdistrict":"กลัดหลวง","industryType":"โรงผลิตพลังงานไฟฟ้าจากพลังงานแสงอาทิตย์ ขนาดกำลังผลิต 5.63 เมกกะวัตต์","status":"ดำเนินกิจการ","lat":12.8082496527272,"lon":99.734256461},"20760001025605":{"id":"20760001025605","name":"โรงงานขนมจีนนายไฮ้ ชะอำ เพชรบุรี","owner":"นายวชรัต วงวาทิน","displayRegistration":"จ3-10(3)-10/60พบ","province":"เพชรบุรี","district":"ชะอำ","subdistrict":"นายาง","industryType":"ทำขนมจีน","status":"ดำเนินกิจการ","lat":12.8758020921637,"lon":99.9489270151686},"20760101625486":{"id":"20760101625486","name":"บริษัท กรีนฟิวเตอร์ จำกัด","owner":"บริษัท กรีนฟิวเตอร์ จำกัด","displayRegistration":"จ3-77(2)-16/48พบ","province":"เพชรบุรี","district":"เขาย้อย","subdistrict":"หนองชุมพล","industryType":"ผลิตหม้อกรองชนิดต่างๆ","status":"ดำเนินกิจการ","lat":13.2871880189343,"lon":99.8027229309082},"20760023925584":{"id":"20760023925584","name":"บริษัท เกียรติศิริมอเตอร์เพชรบุรี จำกัด","owner":"บริษัท เกียรติศิริมอเตอร์เพชรบุรี จำกัด","displayRegistration":"จ3-95(1)-239/58พบ","province":"เพชรบุรี","district":"เมืองเพชรบุรี","subdistrict":"ต้นมะม่วง","industryType":"ศูนย์บริการซ่อมรถยนต์ และเคาะพ่นสีรถยนต์","status":"ดำเนินกิจการ","lat":13.0841887999559,"lon":99.9450885971888},"40760008425580":{"id":"40760008425580","name":"บริษัท เอ็นเนอร์จี เซิฟ จำกัด โครงการ 9(PEA-1056-VS3-110)","owner":"บริษัท เอ็นเนอร์จี เซิฟ จำกัด","displayRegistration":"3-88(1)-84/58พบ","province":"เพชรบุรี","district":"เขาย้อย","subdistrict":"หนองปรง","industryType":"ผลิตพลังงานไฟฟ้าจากเซลล์แสงอาทิตย์ กำลังผลิต 5.95 เมกะวัตต์","status":"ดำเนินกิจการ","lat":13.1666752950975,"lon":99.8024406044},"40760006225586":{"id":"40760006225586","name":"บริษัท เอ็นเนอร์จี เซิฟ จำกัด(PEA-1048-VS3-110) โครงการ 2","owner":"บริษัท เอ็นเนอร์จี เซิฟ จำกัด โดย นายพรเทพ เอี่ยมอนันต์ (ผู้รับมอบอำนาจ)","displayRegistration":"3-88(1)-62/58พบ","province":"เพชรบุรี","district":"เขาย้อย","subdistrict":"หนองปรง","industryType":"ผลิตพลังงานไฟฟ้าจากเซลล์แสงอาทิตย์ กำลังผลิต 5.95 เมกะวัตต์","status":"ดำเนินกิจการ","lat":13.1614514262971,"lon":99.814961339},"40760007925580":{"id":"40760007925580","name":"บริษัท เอ็นเนอร์จี เซิฟ จำกัด (PEA-1055-VS3-110) โครงการ 8","owner":"บริษัท เอ็นเนอร์จี เซิฟ จำกัด","displayRegistration":"3-88(1)-79/58พบ","province":"เพชรบุรี","district":"เขาย้อย","subdistrict":"หนองปรง","industryType":"ผลิตพลังงานไฟฟ้าจากเซลล์แสงอาทิตย์ กำลังผลิต 5.95 เมกะวัตต์","status":"ดำเนินกิจการ","lat":13.1666549627283,"lon":99.8075058566},"40760005725586":{"id":"40760005725586","name":"บริษัท บีเอสพี เซเว่น จำกัด (โครงการ 1)","owner":"บริษัท บีเอสพี เซเว่น จำกัด","displayRegistration":"3-88(1)-57/58พบ","province":"เพชรบุรี","district":"เขาย้อย","subdistrict":"หนองชุมพล","industryType":"ผลิตกระแสไฟฟ้าจากพลังงานแสงอาทิตย์ ขนาด 2 เมกะวัตต์","status":"ดำเนินกิจการ","lat":13.2758329962656,"lon":99.778972683784},"40760005825584":{"id":"40760005825584","name":"บริษัท บีเอสพี เซเว่น จำกัด (โครงการ 2)","owner":"บริษัท บีเอสพี เซเว่น จำกัด","displayRegistration":"3-88(1)-58/58พบ","province":"เพชรบุรี","district":"เขาย้อย","subdistrict":"หนองชุมพล","industryType":"ผลิตกระแสไฟฟ้าจากพลังงานแสงอาทิตย์ ขนาด 2 เมกะวัตต์","status":"ดำเนินกิจการ","lat":13.2758329962656,"lon":99.778972683784},"20760009325585":{"id":"20760009325585","name":"ตาลกงค้าไม้","owner":"นายสำเนียง คุ้มรอด","displayRegistration":"จ3-34(2)-93/58พบ","province":"เพชรบุรี","district":"ท่ายาง","subdistrict":"มาบปลาเค้า","industryType":"ทำวงกบประตูหน้าต่าง บานประตู-หน้าต่าง จากไม้","status":"ดำเนินกิจการ","lat":12.9771881776281,"lon":99.9398270548591},"20760001225585":{"id":"20760001225585","name":"NULL","owner":"ห้างหุ้นส่วนจำกัด เขาใหญ่ท่าทราย","displayRegistration":"จ3-3(2)-12/58พบ","province":"เพชรบุรี","district":"ท่ายาง","subdistrict":"ท่าไม้รวก","industryType":"ขุดดินและขุดทราย","status":"ดำเนินกิจการ","lat":12.8303859021033,"lon":99.8089020483095},"40760010225580":{"id":"40760010225580","name":"บริษัท อิเควเตอร์โซลาร์ จำกัด (3)","owner":"บริษัท อิเควเตอร์ โซลาร์ จำกัด (3)","displayRegistration":"3-88(1)-102/58พบ","province":"เพชรบุรี","district":"ชะอำ","subdistrict":"เขาใหญ่","industryType":"ผลิตพลังงานไฟฟ้าจากเซลล์แสงอาทิตย์ กำลังการผลิต 5 เมกะวัตต์","status":"ดำเนินกิจการ","lat":12.8258692357455,"lon":99.9020684469673},"20760100525588":{"id":"20760100525588","name":"NULL","owner":"พันเอกอัครชัย ทองแดง","displayRegistration":"จ3-8(2)-5/58พบ","province":"เพชรบุรี","district":"เมืองเพชรบุรี","subdistrict":"ต้นมะม่วง","industryType":"ผลิตผลไม้กวน เช่น กล้วยกวน สับปะรดกวน","status":"ดำเนินกิจการ","lat":13.0767750031444,"lon":99.9471157971887},"20760018025580":{"id":"20760018025580","name":"นายนิพนธ์ แสนสร้อย","owner":"นายนิพนธ์ แสนสร้อย","displayRegistration":"จ3-3(2)-180/58พบ","province":"เพชรบุรี","district":"หนองหญ้าปล้อง","subdistrict":"ยางน้ำกลัดใต้","industryType":"ขุดดินลูกรัง","status":"ดำเนินกิจการ","lat":13.0800403086111,"lon":99.6983006897},"40760010925585":{"id":"40760010925585","name":"บริษัท อิเควเตอร์ โซลาร์ จำกัด (18)","owner":"บริษัท อิเควเตอร์ โซลาร์ จำกัด","displayRegistration":"3-88(1)-109/58พบ","province":"เพชรบุรี","district":"ชะอำ","subdistrict":"เขาใหญ่","industryType":"ผลิตพลังงานไฟฟ้าจากเซลล์แสงอาทิตย์","status":"ดำเนินกิจการ","lat":12.8217872130719,"lon":99.9095292571},"40760011225589":{"id":"40760011225589","name":"บริษัท อิเควเตอร์ โซลาร์ จำกัด (14)","owner":"บริษัท อิเควเตอร์ โซลาร์ จำกัด (14)","displayRegistration":"3-88(1)-112/58พบ","province":"เพชรบุรี","district":"ชะอำ","subdistrict":"เขาใหญ่","industryType":"ผลิตพลังงานไฟฟ้าจากเซลล์แสงอาทิตย์ กำลังการผลิต 4.965 เมกะวัตต์","status":"ดำเนินกิจการ","lat":12.8249785663402,"lon":99.9008640656},"40760011325587":{"id":"40760011325587","name":"บริษัท อิเควเตอร์ โซลาร์ จำกัด (15)","owner":"บริษัท อิเควเตอร์ โซลาร์ จำกัด (15)","displayRegistration":"3-88(1)-113/58พบ","province":"เพชรบุรี","district":"ชะอำ","subdistrict":"เขาใหญ่","industryType":"ผลิตพลังงานไฟฟ้าจากเซลล์แสงอาทิตย์ กำลังการผลิต 4.965 เมกะวัตต์","status":"ดำเนินกิจการ","lat":12.8215284666612,"lon":99.9009976755},"40760011525582":{"id":"40760011525582","name":"บริษัท อิเควเตอร์ โซลาร์ จำกัด (19)","owner":"บริษัท อิเควเตอร์ โซลาร์ จำกัด","displayRegistration":"3-88(1)-115/58พบ","province":"เพชรบุรี","district":"ชะอำ","subdistrict":"เขาใหญ่","industryType":"ผลิตพลังงานไฟฟ้าจากเซลล์แสงอาทิตย์ กำลังการผลิต 4.965 เมกะวัตต์","status":"ดำเนินกิจการ","lat":12.8223701164468,"lon":99.9061526835},